{"timestamp":"2016-10-08T00:25:00+0200","id":124041,"name":"Sophie","coordinate":{"longitude":11.57789993,"latitude":48.14989853},"fuelLevel":0.9400000000000001,"lastAddress":"Amalienstraße 57, 80799 München, Germany"}
{"timestamp":"2016-10-08T00:25:00+0200","id":124026,"name":"Eva","coordinate":{"longitude":11.57849979,"latitude":48.15420151},"fuelLevel":0.61,"lastAddress":"Türkenstraße 101, 80799 München, Germany"}
{"timestamp":"2016-10-08T00:25:00+0200","id":124025,"name":"Elli","coordinate":{"longitude":11.57619953,"latitude":48.1576004},"fuelLevel":0.9,"lastAddress":"Franz-Joseph-Straße 43, 80801 München, Germany"}
{"timestamp":"2016-10-08T00:25:00+0200","id":124033,"name":"Johanna","coordinate":{"longitude":11.58180046,"latitude":48.15140152},"fuelLevel":0.82,"lastAddress":"Ludwigstraße 28, 80539 München, Germany"}
{"timestamp":"2016-10-08T00:25:00+0200","id":124036,"name":"Liesel","coordinate":{"longitude":11.60879993,"latitude":48.12639999},"fuelLevel":0.6699999999999999,"lastAddress":"Haager Str. 12-14, 81671 München, Germany"}
{"timestamp":"2016-10-08T00:25:00+0200","id":124044,"name":"Uschi","coordinate":{"longitude":11.57269955,"latitude":48.13150024},"fuelLevel":0.9199999999999999,"lastAddress":"Müllerstraße 9, 80469 München, Germany"}
{"timestamp":"2016-10-08T00:25:00+0200","id":124024,"name":"Christl","coordinate":{"longitude":11.5795002,"latitude":48.13330078},"fuelLevel":0.8,"lastAddress":"Aventinstraße 1, 80469 München, Germany"}
{"timestamp":"2016-10-08T00:25:00+0200","id":124040,"name":"Reserl","coordinate":{"longitude":11.57180023,"latitude":48.13299942},"fuelLevel":0.83,"lastAddress":"Blumenstraße 28, 80331 München, Germany"}
{"timestamp":"2016-10-08T00:25:00+0200","id":124021,"name":"Xaver","coordinate":{"longitude":11.58189964,"latitude":48.13059998},"fuelLevel":0.9500000000000001,"lastAddress":"Erhardtstraße 27, 80469 München, Germany"}
{"timestamp":"2016-10-08T00:25:00+0200","id":124014,"name":"Quirin","coordinate":{"longitude":11.60529995,"latitude":48.13209915},"fuelLevel":0.6000000000000001,"lastAddress":"Spicherenstraße 3, 81667 München, Germany"}
{"timestamp":"2016-10-08T00:25:00+0200","id":124034,"name":"Kathi","coordinate":{"longitude":11.60499954,"latitude":48.13240051},"fuelLevel":0.66,"lastAddress":"Elsässer Str. 4, 81667 München, Germany"}
{"timestamp":"2016-10-08T00:25:00+0200","id":124016,"name":"Sepp","coordinate":{"longitude":11.59869957,"latitude":48.12590027},"fuelLevel":0.9299999999999999,"lastAddress":"Rosenheimer Str. 125, 81667 München, Germany"}
{"timestamp":"2016-10-08T00:25:00+0200","id":124038,"name":"Magda","coordinate":{"longitude":11.60029984,"latitude":48.12829971},"fuelLevel":0.67,"lastAddress":"Pariser Pl., 81667 München, Germany"}
{"timestamp":"2016-10-08T00:25:00+0200","id":124022,"name":"Anne","coordinate":{"longitude":11.59430027,"latitude":48.12739944},"fuelLevel":0.86,"lastAddress":"Balanstraße 8, 81669 München, Germany"}
{"timestamp":"2016-10-08T00:25:00+0200","id":124000,"name":"Bertl","coordinate":{"longitude":11.59459972,"latitude":48.12810135},"fuelLevel":0.82,"lastAddress":"Rosenheimer Str. 62, 81669 München, Germany"}
{"timestamp":"2016-10-08T00:25:00+0200","id":124013,"name":"Poldi","coordinate":{"longitude":11.59459972,"latitude":48.12730026},"fuelLevel":0.79,"lastAddress":"Balanstraße 10, 81669 München, Germany"}
{"timestamp":"2016-10-08T00:25:00+0200","id":124011,"name":"Maxl","coordinate":{"longitude":11.59319973,"latitude":48.12540054},"fuelLevel":0.73,"lastAddress":"Barnabasstraße 1, 81669 München, Germany"}
{"timestamp":"2016-10-08T00:25:00+0200","id":124003,"name":"Franzl","coordinate":{"longitude":11.59280014,"latitude":48.12739944},"fuelLevel":0.8,"lastAddress":"Franziskanerstraße 8, 81669 München, Germany"}
{"timestamp":"2016-10-08T00:25:00+0200","id":124010,"name":"Luitpold","coordinate":{"longitude":11.58399963,"latitude":48.12749863},"fuelLevel":0.9500000000000001,"lastAddress":"Lilienstraße 70, 81669 München, Germany"}
{"timestamp":"2016-10-08T00:25:00+0200","id":124019,"name":"Valentin","coordinate":{"longitude":11.58549976,"latitude":48.12390137},"fuelLevel":0.87,"lastAddress":"Hochstraße 47A, 81541 München, Germany"}
{"timestamp":"2016-10-08T00:25:00+0200","id":124035,"name":"Leonie","coordinate":{"longitude":11.58710003,"latitude":48.12870026},"fuelLevel":0.7899999999999999,"lastAddress":"Paulanerpl. 1, 81669 München, Germany"}
{"timestamp":"2016-10-08T00:25:00+0200","id":124006,"name":"Gustl","coordinate":{"longitude":11.57719994,"latitude":48.12060165},"fuelLevel":0.9400000000000001,"lastAddress":"Falkenstraße 45, 81541 München, Germany"}
{"timestamp":"2016-10-08T00:25:00+0200","id":124020,"name":"Vinzenz","coordinate":{"longitude":11.57680035,"latitude":48.12450027},"fuelLevel":0.8999999999999999,"lastAddress":"Albanistraße 3, 81541 München, Germany"}
{"timestamp":"2016-10-08T00:25:00+0200","id":124049,"name":"Marei","coordinate":{"longitude":11.57470036,"latitude":48.11980057},"fuelLevel":0.69,"lastAddress":"Humboldtstraße 25, 81543 München, Germany"}
{"timestamp":"2016-10-08T00:25:00+0200","id":124045,"name":"Vroni","coordinate":{"longitude":11.56739998,"latitude":48.12789917},"fuelLevel":0.9199999999999999,"lastAddress":"Pestalozzistraße 52A, 80469 München, Germany"}
{"timestamp":"2016-10-08T00:25:00+0200","id":124018,"name":"Toni","coordinate":{"longitude":11.56989956,"latitude":48.13130188},"fuelLevel":0.9199999999999999,"lastAddress":"Angertorstraße 4, 80469 München, Germany"}
{"timestamp":"2016-10-08T00:25:00+0200","id":124012,"name":"Peter","coordinate":{"longitude":11.57279968,"latitude":48.14920044},"fuelLevel":1,"lastAddress":"Barer Str. 42, 80799 München, Germany"}
{"timestamp":"2016-10-08T00:25:00+0200","id":124004,"name":"Fridl","coordinate":{"longitude":11.56610012,"latitude":48.15650177},"fuelLevel":0.55,"lastAddress":"Hiltenspergerstraße 6, 80798 München, Germany"}
{"timestamp":"2016-10-08T00:25:00+0200","id":124031,"name":"Heidi","coordinate":{"longitude":11.56849957,"latitude":48.15280151},"fuelLevel":0.8,"lastAddress":"Luisenstraße 72, 80798 München, Germany"}
{"timestamp":"2016-10-08T00:25:00+0200","id":124047,"name":"Walli","coordinate":{"longitude":11.56989956,"latitude":48.15069962},"fuelLevel":0.83,"lastAddress":"Arcisstraße 31, 80799 München, Germany"}
{"timestamp":"2016-10-08T00:25:00+0200","id":124002,"name":"Ferdl","coordinate":{"longitude":11.56470013,"latitude":48.15190125},"fuelLevel":0.63,"lastAddress":"Augustenstraße 93, 80798 München, Germany"}
{"timestamp":"2016-10-08T00:25:00+0200","id":124048,"name":"Wiggerl","coordinate":{"longitude":11.5788002,"latitude":48.16109848},"fuelLevel":0.68,"lastAddress":"Kaiserstraße 47, 80801 München, Germany"}
{"timestamp":"2016-10-08T00:25:00+0200","id":124028,"name":"Gitte","coordinate":{"longitude":11.57740021,"latitude":48.16019821},"fuelLevel":0.75,"lastAddress":"Römerstraße 21, 80801 München, Germany"}
{"timestamp":"2016-10-08T00:25:00+0200","id":124027,"name":"Fanni","coordinate":{"longitude":11.57769966,"latitude":48.15940094},"fuelLevel":0.7899999999999999,"lastAddress":"Ainmillerstraße 40A, 80801 München, Germany"}
{"timestamp":"2016-10-08T00:25:00+0200","id":124005,"name":"Georg","coordinate":{"longitude":11.58170033,"latitude":48.1590004},"fuelLevel":0.66,"lastAddress":"Ainmillerstraße 18, 80801 München, Germany"}
{"timestamp":"2016-10-08T00:25:00+0200","id":124001,"name":"Edmund","coordinate":{"longitude":11.5795002,"latitude":48.15769958},"fuelLevel":0.5700000000000001,"lastAddress":"Franz-Joseph-Straße 25, 80801 München, Germany"}
{"timestamp":"2016-10-08T00:25:00+0200","id":124032,"name":"Irmi","coordinate":{"longitude":11.57310009,"latitude":48.16019821},"fuelLevel":0.64,"lastAddress":"Isabellastraße 49, 80796 München, Germany"}
{"timestamp":"2016-10-08T00:25:00+0200","id":124037,"name":"Luise","coordinate":{"longitude":11.57019997,"latitude":48.15729904},"fuelLevel":0.52,"lastAddress":"Agnesstraße 13, 80798 München, Germany"}
{"timestamp":"2016-10-08T00:25:00+0200","id":124017,"name":"Siggi","coordinate":{"longitude":11.5710001,"latitude":48.16090012},"fuelLevel":0.56,"lastAddress":"Hohenzollernstraße 112, 80796 München, Germany"}
{"timestamp":"2016-10-08T00:25:00+0200","id":124029,"name":"Hannah","coordinate":{"longitude":11.51019955,"latitude":48.04539871},"fuelLevel":0.7,"lastAddress":"Gistlstraße 159, 82049 Pullach im Isartal, Germany"}
{"timestamp":"2016-10-08T00:25:00+0200","id":124008,"name":"Johann","coordinate":{"longitude":11.50990009,"latitude":48.04539871},"fuelLevel":0.87,"lastAddress":"Gistlstraße 159, 82049 Pullach im Isartal, Germany"}
{"timestamp":"2016-10-08T00:25:00+0200","id":124039,"name":"Marie","coordinate":{"longitude":11.50959969,"latitude":48.04560089},"fuelLevel":0.58,"lastAddress":"Seitnerstraße 70, 82049 Pullach im Isartal, Germany"}
{"timestamp":"2016-10-08T00:25:00+0200","id":124009,"name":"Ludwig","coordinate":{"longitude":11.58469963,"latitude":48.16220093},"fuelLevel":0.8999999999999999,"lastAddress":"Herzogstraße 6, 80803 München, Germany"}
{"timestamp":"2016-10-08T00:25:00+0200","id":124007,"name":"Jakob","coordinate":{"longitude":11.57470036,"latitude":48.16699982},"fuelLevel":0.9400000000000001,"lastAddress":"Karl-Theodor-Straße 77, 80803 München, Germany"}