{"timestamp":"2016-10-13T04:40:00+0200","id":124041,"name":"Sophie","coordinate":{"longitude":11.57820034,"latitude":48.15000153},"fuelLevel":0.86,"lastAddress":"Amalienstraße 61, 80799 München, Germany"}
{"timestamp":"2016-10-13T04:40:00+0200","id":124026,"name":"Eva","coordinate":{"longitude":11.57800007,"latitude":48.1534996},"fuelLevel":0.61,"lastAddress":"Türkenstraße 95, 80799 München, Germany"}
{"timestamp":"2016-10-13T04:40:00+0200","id":124025,"name":"Elli","coordinate":{"longitude":11.57649994,"latitude":48.15790176},"fuelLevel":0.87,"lastAddress":"Franz-Joseph-Straße 42, 80801 München, Germany"}
{"timestamp":"2016-10-13T04:40:00+0200","id":124033,"name":"Johanna","coordinate":{"longitude":11.57689953,"latitude":48.15029907},"fuelLevel":0.73,"lastAddress":"Schellingstraße 24, 80799 München, Germany"}
{"timestamp":"2016-10-13T04:40:00+0200","id":124036,"name":"Liesel","coordinate":{"longitude":11.58110046,"latitude":48.15039825},"fuelLevel":0.45,"lastAddress":"Ludwigstraße 24, 80539 München, Germany"}
{"timestamp":"2016-10-13T04:40:00+0200","id":124044,"name":"Uschi","coordinate":{"longitude":11.57269955,"latitude":48.13190079},"fuelLevel":0.9199999999999999,"lastAddress":"Müllerstraße 7, 80469 München, Germany"}
{"timestamp":"2016-10-13T04:40:00+0200","id":124024,"name":"Christl","coordinate":{"longitude":11.57610035,"latitude":48.13209915},"fuelLevel":0.47000000000000003,"lastAddress":"Reichenbachstraße 19, 80469 München, Germany"}
{"timestamp":"2016-10-13T04:40:00+0200","id":124040,"name":"Reserl","coordinate":{"longitude":11.57199955,"latitude":48.13169861},"fuelLevel":0.83,"lastAddress":"Müllerstraße 24, 80469 München, Germany"}
{"timestamp":"2016-10-13T04:40:00+0200","id":124021,"name":"Xaver","coordinate":{"longitude":11.58010006,"latitude":48.13040161},"fuelLevel":0.9199999999999999,"lastAddress":"Bob‑van‑Benthem‑Platz 1, 80469 München, Germany"}
{"timestamp":"2016-10-13T04:40:00+0200","id":124014,"name":"Quirin","coordinate":{"longitude":11.59780025,"latitude":48.1344986},"fuelLevel":0.57,"lastAddress":"Johannispl. 23, 81667 München, Germany"}
{"timestamp":"2016-10-13T04:40:00+0200","id":124034,"name":"Kathi","coordinate":{"longitude":11.60210037,"latitude":48.12960052},"fuelLevel":0.82,"lastAddress":"Wörthstraße 43, 81667 München, Germany"}
{"timestamp":"2016-10-13T04:40:00+0200","id":124023,"name":"Babsi","coordinate":{"longitude":11.56239986,"latitude":48.12609863},"fuelLevel":0.9,"lastAddress":"Thalkirchner Str. 78, 80337 München, Germany"}
{"timestamp":"2016-10-13T04:40:00+0200","id":124016,"name":"Sepp","coordinate":{"longitude":11.6026001,"latitude":48.12929916},"fuelLevel":0.9099999999999999,"lastAddress":"Wörthstraße 47, 81667 München, Germany"}
{"timestamp":"2016-10-13T04:40:00+0200","id":124038,"name":"Magda","coordinate":{"longitude":11.6008997,"latitude":48.1283989},"fuelLevel":0.67,"lastAddress":"Weißenburger Str. 35, 81667 München, Germany"}
{"timestamp":"2016-10-13T04:40:00+0200","id":124022,"name":"Anne","coordinate":{"longitude":11.59630013,"latitude":48.1271019},"fuelLevel":0.8300000000000001,"lastAddress":"Rosenheimer Str. 82, 81669 München, Germany"}
{"timestamp":"2016-10-13T04:40:00+0200","id":124000,"name":"Bertl","coordinate":{"longitude":11.59790039,"latitude":48.12630081},"fuelLevel":0.8,"lastAddress":"Rosenheimer Str. 117, 81667 München, Germany"}
{"timestamp":"2016-10-13T04:40:00+0200","id":124013,"name":"Poldi","coordinate":{"longitude":11.59440041,"latitude":48.12730026},"fuelLevel":0.79,"lastAddress":"Balanstraße 10, 81669 München, Germany"}
{"timestamp":"2016-10-13T04:40:00+0200","id":124011,"name":"Maxl","coordinate":{"longitude":11.59490013,"latitude":48.12770081},"fuelLevel":0.6699999999999999,"lastAddress":"Metzstraße 1, 81667 München, Germany"}
{"timestamp":"2016-10-13T04:40:00+0200","id":124003,"name":"Franzl","coordinate":{"longitude":11.5934,"latitude":48.12720108},"fuelLevel":0.8,"lastAddress":"Rablstraße 39, 81669 München, Germany"}
{"timestamp":"2016-10-13T04:40:00+0200","id":124010,"name":"Luitpold","coordinate":{"longitude":11.58440018,"latitude":48.12770081},"fuelLevel":0.9400000000000001,"lastAddress":"Lilienstraße 66, 81669 München, Germany"}
{"timestamp":"2016-10-13T04:40:00+0200","id":124006,"name":"Gustl","coordinate":{"longitude":11.57460022,"latitude":48.12039948},"fuelLevel":0.9500000000000001,"lastAddress":"Oefelestraße 8, 81543 München, Germany"}
{"timestamp":"2016-10-13T04:40:00+0200","id":124020,"name":"Vinzenz","coordinate":{"longitude":11.57789993,"latitude":48.12310028},"fuelLevel":0.8999999999999999,"lastAddress":"Schlotthauerstraße 16, 81541 München, Germany"}
{"timestamp":"2016-10-13T04:40:00+0200","id":124049,"name":"Marei","coordinate":{"longitude":11.57419968,"latitude":48.12239838},"fuelLevel":0.9400000000000001,"lastAddress":"Sommerstraße 8, 81543 München, Germany"}
{"timestamp":"2016-10-13T04:40:00+0200","id":124045,"name":"Vroni","coordinate":{"longitude":11.5649004,"latitude":48.12390137},"fuelLevel":0.64,"lastAddress":"Kapuzinerstraße 46, 80469 München, Germany"}
{"timestamp":"2016-10-13T04:40:00+0200","id":124018,"name":"Toni","coordinate":{"longitude":11.56989956,"latitude":48.12960052},"fuelLevel":0.66,"lastAddress":"Hans-Sachs-Straße 9-11, 80469 München, Germany"}
{"timestamp":"2016-10-13T04:40:00+0200","id":124004,"name":"Fridl","coordinate":{"longitude":11.55659962,"latitude":48.15480042},"fuelLevel":0.9600000000000001,"lastAddress":"Heßstraße 108, 80797 München, Germany"}
{"timestamp":"2016-10-13T04:40:00+0200","id":124031,"name":"Heidi","coordinate":{"longitude":11.56639957,"latitude":48.15190125},"fuelLevel":0.6499999999999999,"lastAddress":"Heßstraße 44, 80798 München, Germany"}
{"timestamp":"2016-10-13T04:40:00+0200","id":124047,"name":"Walli","coordinate":{"longitude":11.56989956,"latitude":48.15000153},"fuelLevel":0.71,"lastAddress":"Arcisstraße 32, 80799 München, Germany"}
{"timestamp":"2016-10-13T04:40:00+0200","id":124002,"name":"Ferdl","coordinate":{"longitude":11.56270027,"latitude":48.15499878},"fuelLevel":0.9444444444444444,"lastAddress":"Zentnerstraße 7, 80798 München, Germany"}
{"timestamp":"2016-10-13T04:40:00+0200","id":124048,"name":"Wiggerl","coordinate":{"longitude":11.58080006,"latitude":48.1629982},"fuelLevel":0.66,"lastAddress":"Herzogstraße 38, 80803 München, Germany"}
{"timestamp":"2016-10-13T04:40:00+0200","id":124028,"name":"Gitte","coordinate":{"longitude":11.57719994,"latitude":48.16009903},"fuelLevel":0.76,"lastAddress":"Hohenzollernstraße 41, 80801 München, Germany"}
{"timestamp":"2016-10-13T04:40:00+0200","id":124027,"name":"Fanni","coordinate":{"longitude":11.58500004,"latitude":48.16030121},"fuelLevel":0.7899999999999999,"lastAddress":"Kaiserstraße 3, 80801 München, Germany"}
{"timestamp":"2016-10-13T04:40:00+0200","id":124005,"name":"Georg","coordinate":{"longitude":11.57559967,"latitude":48.16199875},"fuelLevel":0.56,"lastAddress":"Viktor-Scheffel-Straße 19-21, 80803 München, Germany"}
{"timestamp":"2016-10-13T04:40:00+0200","id":124032,"name":"Irmi","coordinate":{"longitude":11.57339954,"latitude":48.16019821},"fuelLevel":0.64,"lastAddress":"Isabellastraße 46, 80796 München, Germany"}
{"timestamp":"2016-10-13T04:40:00+0200","id":124037,"name":"Luise","coordinate":{"longitude":11.5703001,"latitude":48.15739822},"fuelLevel":0.52,"lastAddress":"Agnesstraße 12-14, 80798 München, Germany"}
{"timestamp":"2016-10-13T04:40:00+0200","id":124017,"name":"Siggi","coordinate":{"longitude":11.57260036,"latitude":48.16070175},"fuelLevel":0.56,"lastAddress":"Hohenzollernstraße 102, 80796 München, Germany"}
{"timestamp":"2016-10-13T04:40:00+0200","id":124029,"name":"Hannah","coordinate":{"longitude":11.51039982,"latitude":48.04539871},"fuelLevel":0.7,"lastAddress":"Gistlstraße 159, 82049 Pullach im Isartal, Germany"}
{"timestamp":"2016-10-13T04:40:00+0200","id":124009,"name":"Ludwig","coordinate":{"longitude":11.58390045,"latitude":48.16230011},"fuelLevel":0.71,"lastAddress":"Herzogstraße 12, 80803 München, Germany"}
{"timestamp":"2016-10-13T04:40:00+0200","id":124007,"name":"Jakob","coordinate":{"longitude":11.57719994,"latitude":48.16699982},"fuelLevel":0.9400000000000001,"lastAddress":"Karl-Theodor-Straße 64, 80803 München, Germany"}