{"timestamp":"2016-10-11T01:20:00+0200","id":124041,"name":"Sophie","coordinate":{"longitude":11.57859993,"latitude":48.15119934},"fuelLevel":0.9400000000000001,"lastAddress":"Amalienstraße 81A, 80799 München, Germany"}
{"timestamp":"2016-10-11T01:20:00+0200","id":124026,"name":"Eva","coordinate":{"longitude":11.57849979,"latitude":48.15359879},"fuelLevel":0.61,"lastAddress":"Türkenstraße 95, 80799 München, Germany"}
{"timestamp":"2016-10-11T01:20:00+0200","id":124025,"name":"Elli","coordinate":{"longitude":11.57619953,"latitude":48.15769958},"fuelLevel":0.9,"lastAddress":"Franz-Joseph-Straße 46, 80801 München, Germany"}
{"timestamp":"2016-10-11T01:20:00+0200","id":124033,"name":"Johanna","coordinate":{"longitude":11.58090019,"latitude":48.15230179},"fuelLevel":0.76,"lastAddress":"Akademiestraße 5, 80799 München, Germany"}
{"timestamp":"2016-10-11T01:20:00+0200","id":124036,"name":"Liesel","coordinate":{"longitude":11.58150005,"latitude":48.15069962},"fuelLevel":0.5900000000000001,"lastAddress":"Ludwigstraße 29, 80539 München, Germany"}
{"timestamp":"2016-10-11T01:20:00+0200","id":124044,"name":"Uschi","coordinate":{"longitude":11.57250023,"latitude":48.13180161},"fuelLevel":0.9199999999999999,"lastAddress":"Müllerstraße 9, 80469 München, Germany"}
{"timestamp":"2016-10-11T01:20:00+0200","id":124024,"name":"Christl","coordinate":{"longitude":11.57479954,"latitude":48.13359833},"fuelLevel":0.69,"lastAddress":"Am Einlaß 1-3, 80469 München, Germany"}
{"timestamp":"2016-10-11T01:20:00+0200","id":124040,"name":"Reserl","coordinate":{"longitude":11.57190037,"latitude":48.13169861},"fuelLevel":0.83,"lastAddress":"Müllerstraße 24, 80469 München, Germany"}
{"timestamp":"2016-10-11T01:20:00+0200","id":124021,"name":"Xaver","coordinate":{"longitude":11.58059978,"latitude":48.12990189},"fuelLevel":0.9199999999999999,"lastAddress":"Erhardtstraße 27, 80469 München, Germany"}
{"timestamp":"2016-10-11T01:20:00+0200","id":124014,"name":"Quirin","coordinate":{"longitude":11.60519981,"latitude":48.13240051},"fuelLevel":0.6000000000000001,"lastAddress":"Elsässer Str. 4, 81667 München, Germany"}
{"timestamp":"2016-10-11T01:20:00+0200","id":124034,"name":"Kathi","coordinate":{"longitude":11.60480022,"latitude":48.13050079},"fuelLevel":0.81,"lastAddress":"Breisacher Str. 19, 81667 München, Germany"}
{"timestamp":"2016-10-11T01:20:00+0200","id":124023,"name":"Babsi","coordinate":{"longitude":11.56229973,"latitude":48.12620163},"fuelLevel":0.9,"lastAddress":"Thalkirchner Str. 76, 80337 München, Germany"}
{"timestamp":"2016-10-11T01:20:00+0200","id":124016,"name":"Sepp","coordinate":{"longitude":11.60249996,"latitude":48.12889862},"fuelLevel":0.9099999999999999,"lastAddress":"Wörthstraße 42, 81667 München, Germany"}
{"timestamp":"2016-10-11T01:20:00+0200","id":124038,"name":"Magda","coordinate":{"longitude":11.60039997,"latitude":48.12820053},"fuelLevel":0.67,"lastAddress":"Gravelottestraße 1, 81667 München, Germany"}
{"timestamp":"2016-10-11T01:20:00+0200","id":124022,"name":"Anne","coordinate":{"longitude":11.59609985,"latitude":48.12730026},"fuelLevel":0.8300000000000001,"lastAddress":"Rosenheimer Str. 76-78, 81667 München, Germany"}
{"timestamp":"2016-10-11T01:20:00+0200","id":124000,"name":"Bertl","coordinate":{"longitude":11.59809971,"latitude":48.12639999},"fuelLevel":0.8,"lastAddress":"Rosenheimer Str. 117, 81667 München, Germany"}
{"timestamp":"2016-10-11T01:20:00+0200","id":124013,"name":"Poldi","coordinate":{"longitude":11.59459972,"latitude":48.12770081},"fuelLevel":0.79,"lastAddress":"Balanstraße 6A, 81669 München, Germany"}
{"timestamp":"2016-10-11T01:20:00+0200","id":124011,"name":"Maxl","coordinate":{"longitude":11.59490013,"latitude":48.12779999},"fuelLevel":0.6699999999999999,"lastAddress":"Metzstraße 1, 81667 München, Germany"}
{"timestamp":"2016-10-11T01:20:00+0200","id":124003,"name":"Franzl","coordinate":{"longitude":11.59280014,"latitude":48.12720108},"fuelLevel":0.8,"lastAddress":"Rablstraße 37, 81669 München, Germany"}
{"timestamp":"2016-10-11T01:20:00+0200","id":124010,"name":"Luitpold","coordinate":{"longitude":11.58450031,"latitude":48.12749863},"fuelLevel":0.9500000000000001,"lastAddress":"Lilienstraße 75, 81669 München, Germany"}
{"timestamp":"2016-10-11T01:20:00+0200","id":124019,"name":"Valentin","coordinate":{"longitude":11.58530045,"latitude":48.12369919},"fuelLevel":0.87,"lastAddress":"Hochstraße 47A, 81541 München, Germany"}
{"timestamp":"2016-10-11T01:20:00+0200","id":124035,"name":"Leonie","coordinate":{"longitude":11.58570004,"latitude":48.1291008},"fuelLevel":0.76,"lastAddress":"Schwarzstraße 4, 81669 München, Germany"}
{"timestamp":"2016-10-11T01:20:00+0200","id":124006,"name":"Gustl","coordinate":{"longitude":11.57489967,"latitude":48.12009811},"fuelLevel":0.9500000000000001,"lastAddress":"Oefelestraße 5, 81543 München, Germany"}
{"timestamp":"2016-10-11T01:20:00+0200","id":124020,"name":"Vinzenz","coordinate":{"longitude":11.5777998,"latitude":48.1230011},"fuelLevel":0.8999999999999999,"lastAddress":"Schlotthauerstraße 16, 81541 München, Germany"}
{"timestamp":"2016-10-11T01:20:00+0200","id":124049,"name":"Marei","coordinate":{"longitude":11.57159996,"latitude":48.12070084},"fuelLevel":0.52,"lastAddress":"Humboldtstraße 4, 81543 München, Germany"}
{"timestamp":"2016-10-11T01:20:00+0200","id":124045,"name":"Vroni","coordinate":{"longitude":11.56499958,"latitude":48.12409973},"fuelLevel":0.6499999999999999,"lastAddress":"Kapuzinerstraße 37, 80469 München, Germany"}
{"timestamp":"2016-10-11T01:20:00+0200","id":124043,"name":"Traudl","coordinate":{"longitude":11.50269985,"latitude":48.10129929},"fuelLevel":0.71,"lastAddress":"Boschetsrieder Str., 81475 München, Germany"}
{"timestamp":"2016-10-11T01:20:00+0200","id":124018,"name":"Toni","coordinate":{"longitude":11.57079983,"latitude":48.12929916},"fuelLevel":0.66,"lastAddress":"Jahnstraße 17, 80469 München, Germany"}
{"timestamp":"2016-10-11T01:20:00+0200","id":124012,"name":"Peter","coordinate":{"longitude":11.5571003,"latitude":48.15629959},"fuelLevel":0.9600000000000001,"lastAddress":"Lothstraße 21, 80797 München, Germany"}
{"timestamp":"2016-10-11T01:20:00+0200","id":124004,"name":"Fridl","coordinate":{"longitude":11.55679989,"latitude":48.15480042},"fuelLevel":0.9600000000000001,"lastAddress":"Heßstraße 104, 80797 München, Germany"}
{"timestamp":"2016-10-11T01:20:00+0200","id":124031,"name":"Heidi","coordinate":{"longitude":11.56680012,"latitude":48.15169907},"fuelLevel":0.6499999999999999,"lastAddress":"Heßstraße 40-42, 80798 München, Germany"}
{"timestamp":"2016-10-11T01:20:00+0200","id":124047,"name":"Walli","coordinate":{"longitude":11.57019997,"latitude":48.14960098},"fuelLevel":0.71,"lastAddress":"Theresienstraße, 80333 München, Germany"}
{"timestamp":"2016-10-11T01:20:00+0200","id":124002,"name":"Ferdl","coordinate":{"longitude":11.56770039,"latitude":48.1515007},"fuelLevel":0.9861111111111112,"lastAddress":"Heßstraße 34, 80799 München, Germany"}
{"timestamp":"2016-10-11T01:20:00+0200","id":124048,"name":"Wiggerl","coordinate":{"longitude":11.57870007,"latitude":48.16149902},"fuelLevel":0.68,"lastAddress":"Kaiserstraße 38, 80801 München, Germany"}
{"timestamp":"2016-10-11T01:20:00+0200","id":124028,"name":"Gitte","coordinate":{"longitude":11.57719994,"latitude":48.16030121},"fuelLevel":0.75,"lastAddress":"Römerstraße 21, 80801 München, Germany"}
{"timestamp":"2016-10-11T01:20:00+0200","id":124027,"name":"Fanni","coordinate":{"longitude":11.57800007,"latitude":48.15890121},"fuelLevel":0.7899999999999999,"lastAddress":"Ainmillerstraße 31-33, 80801 München, Germany"}
{"timestamp":"2016-10-11T01:20:00+0200","id":124005,"name":"Georg","coordinate":{"longitude":11.57549953,"latitude":48.16180038},"fuelLevel":0.56,"lastAddress":"Viktor-Scheffel-Straße 19, 80803 München, Germany"}
{"timestamp":"2016-10-11T01:20:00+0200","id":124001,"name":"Edmund","coordinate":{"longitude":11.57909966,"latitude":48.15779877},"fuelLevel":0.5700000000000001,"lastAddress":"Franz-Joseph-Straße 27, 80801 München, Germany"}
{"timestamp":"2016-10-11T01:20:00+0200","id":124032,"name":"Irmi","coordinate":{"longitude":11.57320023,"latitude":48.16049957},"fuelLevel":0.64,"lastAddress":"Hohenzollernstraße 65, 80796 München, Germany"}
{"timestamp":"2016-10-11T01:20:00+0200","id":124037,"name":"Luise","coordinate":{"longitude":11.57009983,"latitude":48.15729904},"fuelLevel":0.52,"lastAddress":"Agnesstraße 15, 80798 München, Germany"}
{"timestamp":"2016-10-11T01:20:00+0200","id":124017,"name":"Siggi","coordinate":{"longitude":11.57110023,"latitude":48.16090012},"fuelLevel":0.56,"lastAddress":"Hohenzollernstraße 112, 80796 München, Germany"}
{"timestamp":"2016-10-11T01:20:00+0200","id":124029,"name":"Hannah","coordinate":{"longitude":11.51029968,"latitude":48.04539871},"fuelLevel":0.7,"lastAddress":"Gistlstraße 159, 82049 Pullach im Isartal, Germany"}
{"timestamp":"2016-10-11T01:20:00+0200","id":124008,"name":"Johann","coordinate":{"longitude":11.51000023,"latitude":48.04550171},"fuelLevel":0.87,"lastAddress":"Gistlstraße 159, 82049 Pullach im Isartal, Germany"}
{"timestamp":"2016-10-11T01:20:00+0200","id":124039,"name":"Marie","coordinate":{"longitude":11.50949955,"latitude":48.04570007},"fuelLevel":0.58,"lastAddress":"Franz-Höllriegel-Straße, 82049 Pullach im Isartal, Germany"}
{"timestamp":"2016-10-11T01:20:00+0200","id":124009,"name":"Ludwig","coordinate":{"longitude":11.58500004,"latitude":48.16210175},"fuelLevel":0.8999999999999999,"lastAddress":"Herzogstraße 2, 80803 München, Germany"}
{"timestamp":"2016-10-11T01:20:00+0200","id":124007,"name":"Jakob","coordinate":{"longitude":11.57419968,"latitude":48.167099},"fuelLevel":0.68,"lastAddress":"Karl-Theodor-Straße 79, 80803 München, Germany"}