{"timestamp":"2016-09-27T23:55:00+0200","id":124041,"name":"Sophie","coordinate":{"longitude":11.57759953,"latitude":48.14970016},"fuelLevel":0.93,"lastAddress":"Schellingstraße 11, 80799 München, Germany"}
{"timestamp":"2016-09-27T23:55:00+0200","id":124026,"name":"Eva","coordinate":{"longitude":11.57849979,"latitude":48.15380096},"fuelLevel":0.61,"lastAddress":"Türkenstraße 104, 80799 München, Germany"}
{"timestamp":"2016-09-27T23:55:00+0200","id":124025,"name":"Elli","coordinate":{"longitude":11.5781002,"latitude":48.15319824},"fuelLevel":0.85,"lastAddress":"Akademiestraße 25, 80799 München, Germany"}
{"timestamp":"2016-09-27T23:55:00+0200","id":124033,"name":"Johanna","coordinate":{"longitude":11.57970047,"latitude":48.15629959},"fuelLevel":0.89,"lastAddress":"Friedrichstraße 11, 80801 München, Germany"}
{"timestamp":"2016-09-27T23:55:00+0200","id":124036,"name":"Liesel","coordinate":{"longitude":11.57530022,"latitude":48.15629959},"fuelLevel":0.6699999999999999,"lastAddress":"Nordendstraße 36, 80801 München, Germany"}
{"timestamp":"2016-09-27T23:55:00+0200","id":124044,"name":"Uschi","coordinate":{"longitude":11.57629967,"latitude":48.1310997},"fuelLevel":0.51,"lastAddress":"Reichenbachstraße 23, 80469 München, Germany"}
{"timestamp":"2016-09-27T23:55:00+0200","id":124024,"name":"Christl","coordinate":{"longitude":11.58040047,"latitude":48.13209915},"fuelLevel":0.83,"lastAddress":"Baaderpl. 2, 80469 München, Germany"}
{"timestamp":"2016-09-27T23:55:00+0200","id":124021,"name":"Xaver","coordinate":{"longitude":11.58049965,"latitude":48.13219833},"fuelLevel":0.52,"lastAddress":"Baaderstraße 2, 80469 München, Germany"}
{"timestamp":"2016-09-27T23:55:00+0200","id":124014,"name":"Quirin","coordinate":{"longitude":11.60929966,"latitude":48.12559891},"fuelLevel":0.62,"lastAddress":"Haager Str. 14, 81671 München, Germany"}
{"timestamp":"2016-09-27T23:55:00+0200","id":124034,"name":"Kathi","coordinate":{"longitude":11.60509968,"latitude":48.13219833},"fuelLevel":0.67,"lastAddress":"Elsässer Str. 16, 81667 München, Germany"}
{"timestamp":"2016-09-27T23:55:00+0200","id":124030,"name":"Hedwig","coordinate":{"longitude":11.56289959,"latitude":48.12659836},"fuelLevel":0.9099999999999999,"lastAddress":"Thalkirchner Str. 68, 80337 München, Germany"}
{"timestamp":"2016-09-27T23:55:00+0200","id":124023,"name":"Babsi","coordinate":{"longitude":11.5635004,"latitude":48.1269989},"fuelLevel":0.93,"lastAddress":"Thalkirchner Str. 54, 80337 München, Germany"}
{"timestamp":"2016-09-27T23:55:00+0200","id":124016,"name":"Sepp","coordinate":{"longitude":11.59799957,"latitude":48.12599945},"fuelLevel":0.9199999999999999,"lastAddress":"Rosenheimer Str. 98, 81669 München, Germany"}
{"timestamp":"2016-09-27T23:55:00+0200","id":124022,"name":"Anne","coordinate":{"longitude":11.59689999,"latitude":48.12689972},"fuelLevel":0.8900000000000001,"lastAddress":"Rosenheimer Str. 109, 81667 München, Germany"}
{"timestamp":"2016-09-27T23:55:00+0200","id":124000,"name":"Bertl","coordinate":{"longitude":11.59449959,"latitude":48.12950134},"fuelLevel":0.8500000000000001,"lastAddress":"Steinstraße 70, 81667 München, Germany"}
{"timestamp":"2016-09-27T23:55:00+0200","id":124013,"name":"Poldi","coordinate":{"longitude":11.59469986,"latitude":48.1269989},"fuelLevel":0.83,"lastAddress":"Balanstraße 14, 81669 München, Germany"}
{"timestamp":"2016-09-27T23:55:00+0200","id":124011,"name":"Maxl","coordinate":{"longitude":11.59319973,"latitude":48.12540054},"fuelLevel":0.8099999999999999,"lastAddress":"Barnabasstraße 1, 81669 München, Germany"}
{"timestamp":"2016-09-27T23:55:00+0200","id":124003,"name":"Franzl","coordinate":{"longitude":11.58950043,"latitude":48.12490082},"fuelLevel":0.88,"lastAddress":"Franziskanerstraße 49, 81669 München, Germany"}
{"timestamp":"2016-09-27T23:55:00+0200","id":124010,"name":"Luitpold","coordinate":{"longitude":11.58570004,"latitude":48.12590027},"fuelLevel":0.88,"lastAddress":"Gebsattelstraße 2, 81541 München, Germany"}
{"timestamp":"2016-09-27T23:55:00+0200","id":124019,"name":"Valentin","coordinate":{"longitude":11.58520031,"latitude":48.12350082},"fuelLevel":0.9199999999999999,"lastAddress":"Hochstraße 49C, 81541 München, Germany"}
{"timestamp":"2016-09-27T23:55:00+0200","id":124035,"name":"Leonie","coordinate":{"longitude":11.58549976,"latitude":48.12919998},"fuelLevel":0.7899999999999999,"lastAddress":"Schwarzstraße 2, 81669 München, Germany"}
{"timestamp":"2016-09-27T23:55:00+0200","id":124006,"name":"Gustl","coordinate":{"longitude":11.57750034,"latitude":48.12049866},"fuelLevel":0.93,"lastAddress":"Dollmannstraße 4, 81541 München, Germany"}
{"timestamp":"2016-09-27T23:55:00+0200","id":124020,"name":"Vinzenz","coordinate":{"longitude":11.57940006,"latitude":48.1230011},"fuelLevel":0.9299999999999999,"lastAddress":"Falkenstraße 18, 81541 München, Germany"}
{"timestamp":"2016-09-27T23:55:00+0200","id":124049,"name":"Marei","coordinate":{"longitude":11.57400036,"latitude":48.11999893},"fuelLevel":0.7200000000000001,"lastAddress":"Humboldtstraße 22, 81543 München, Germany"}
{"timestamp":"2016-09-27T23:55:00+0200","id":124045,"name":"Vroni","coordinate":{"longitude":11.56700039,"latitude":48.12810135},"fuelLevel":0.9199999999999999,"lastAddress":"Pestalozzistraße 46, 80469 München, Germany"}
{"timestamp":"2016-09-27T23:55:00+0200","id":124018,"name":"Toni","coordinate":{"longitude":11.56900024,"latitude":48.12649918},"fuelLevel":0.9500000000000001,"lastAddress":"Baumstraße 18, 80469 München, Germany"}
{"timestamp":"2016-09-27T23:55:00+0200","id":124012,"name":"Peter","coordinate":{"longitude":11.57269955,"latitude":48.14989853},"fuelLevel":1,"lastAddress":"Barer Str. 54A, 80799 München, Germany"}
{"timestamp":"2016-09-27T23:55:00+0200","id":124031,"name":"Heidi","coordinate":{"longitude":11.56669998,"latitude":48.14799881},"fuelLevel":0.8500000000000001,"lastAddress":"Gabelsbergerstraße 47, 80333 München, Germany"}
{"timestamp":"2016-09-27T23:55:00+0200","id":124047,"name":"Walli","coordinate":{"longitude":11.57149982,"latitude":48.15610123},"fuelLevel":0.8999999999999999,"lastAddress":"Georgenstraße 63, 80799 München, Germany"}
{"timestamp":"2016-09-27T23:55:00+0200","id":124002,"name":"Ferdl","coordinate":{"longitude":11.5642004,"latitude":48.15060043},"fuelLevel":0.48000000000000004,"lastAddress":"Augustenstraße 80, 80333 München, Germany"}
{"timestamp":"2016-09-27T23:55:00+0200","id":124048,"name":"Wiggerl","coordinate":{"longitude":11.57649994,"latitude":48.16009903},"fuelLevel":0.7200000000000001,"lastAddress":"Hohenzollernstraße 45, 80801 München, Germany"}
{"timestamp":"2016-09-27T23:55:00+0200","id":124028,"name":"Gitte","coordinate":{"longitude":11.58030033,"latitude":48.15819931},"fuelLevel":0.81,"lastAddress":"Habsburgerpl. 2, 80801 München, Germany"}
{"timestamp":"2016-09-27T23:55:00+0200","id":124027,"name":"Fanni","coordinate":{"longitude":11.57689953,"latitude":48.15930176},"fuelLevel":0.85,"lastAddress":"Römerstraße 9, 80801 München, Germany"}
{"timestamp":"2016-09-27T23:55:00+0200","id":124005,"name":"Georg","coordinate":{"longitude":11.58100033,"latitude":48.15890121},"fuelLevel":0.69,"lastAddress":"Ainmillerstraße 22, 80801 München, Germany"}
{"timestamp":"2016-09-27T23:55:00+0200","id":124032,"name":"Irmi","coordinate":{"longitude":11.57320023,"latitude":48.16009903},"fuelLevel":0.64,"lastAddress":"Isabellastraße 44, 80796 München, Germany"}
{"timestamp":"2016-09-27T23:55:00+0200","id":124037,"name":"Luise","coordinate":{"longitude":11.56529999,"latitude":48.15980148},"fuelLevel":0.9400000000000001,"lastAddress":"Zentnerstraße 42, 80796 München, Germany"}
{"timestamp":"2016-09-27T23:55:00+0200","id":124017,"name":"Siggi","coordinate":{"longitude":11.57110023,"latitude":48.16040039},"fuelLevel":0.56,"lastAddress":"Jakob-Klar-Straße 11, 80796 München, Germany"}
{"timestamp":"2016-09-27T23:55:00+0200","id":124029,"name":"Hannah","coordinate":{"longitude":11.50990009,"latitude":48.04510117},"fuelLevel":0.7,"lastAddress":"Seitnerstraße 70, 82049 Pullach im Isartal, Germany"}
{"timestamp":"2016-09-27T23:55:00+0200","id":124039,"name":"Marie","coordinate":{"longitude":11.50959969,"latitude":48.04550171},"fuelLevel":0.89,"lastAddress":"Seitnerstraße 70, 82049 Pullach im Isartal, Germany"}
{"timestamp":"2016-09-27T23:55:00+0200","id":124009,"name":"Ludwig","coordinate":{"longitude":11.57859993,"latitude":48.16400146},"fuelLevel":0.9400000000000001,"lastAddress":"Clemensstraße 42, 80803 München, Germany"}
{"timestamp":"2016-09-27T23:55:00+0200","id":124007,"name":"Jakob","coordinate":{"longitude":11.5862999,"latitude":48.16379929},"fuelLevel":0.9500000000000001,"lastAddress":"Leopoldstraße 85, 80802 München, Germany"}