{"timestamp":"2016-10-14T07:25:00+0200","id":124041,"name":"Sophie","coordinate":{"longitude":11.57800007,"latitude":48.14989853},"fuelLevel":0.86,"lastAddress":"Amalienstraße 57, 80799 München, Germany"}
{"timestamp":"2016-10-14T07:25:00+0200","id":124025,"name":"Elli","coordinate":{"longitude":11.57660007,"latitude":48.15800095},"fuelLevel":0.87,"lastAddress":"Franz-Joseph-Straße 44, 80801 München, Germany"}
{"timestamp":"2016-10-14T07:25:00+0200","id":124033,"name":"Johanna","coordinate":{"longitude":11.57699966,"latitude":48.15029907},"fuelLevel":0.73,"lastAddress":"Schellingstraße 24, 80799 München, Germany"}
{"timestamp":"2016-10-14T07:25:00+0200","id":124036,"name":"Liesel","coordinate":{"longitude":11.5788002,"latitude":48.14979935},"fuelLevel":0.9400000000000001,"lastAddress":"Schellingstraße 12, 80799 München, Germany"}
{"timestamp":"2016-10-14T07:25:00+0200","id":124044,"name":"Uschi","coordinate":{"longitude":11.57250023,"latitude":48.13190079},"fuelLevel":0.9199999999999999,"lastAddress":"Müllerstraße 20, 80469 München, Germany"}
{"timestamp":"2016-10-14T07:25:00+0200","id":124024,"name":"Christl","coordinate":{"longitude":11.57530022,"latitude":48.12860107},"fuelLevel":0.9299999999999999,"lastAddress":"Fraunhoferstraße 39, 80469 München, Germany"}
{"timestamp":"2016-10-14T07:25:00+0200","id":124040,"name":"Reserl","coordinate":{"longitude":11.57190037,"latitude":48.13159943},"fuelLevel":0.83,"lastAddress":"Müllerstraße 26, 80469 München, Germany"}
{"timestamp":"2016-10-14T07:25:00+0200","id":124021,"name":"Xaver","coordinate":{"longitude":11.58059978,"latitude":48.12979889},"fuelLevel":0.9199999999999999,"lastAddress":"Erhardtstraße 27, 80469 München, Germany"}
{"timestamp":"2016-10-14T07:25:00+0200","id":124014,"name":"Quirin","coordinate":{"longitude":11.59729958,"latitude":48.13479996},"fuelLevel":0.57,"lastAddress":"Innere Wiener Straße 59, 81667 München, Germany"}
{"timestamp":"2016-10-14T07:25:00+0200","id":124034,"name":"Kathi","coordinate":{"longitude":11.60499954,"latitude":48.13370132},"fuelLevel":0.73,"lastAddress":"Flurstraße 2-4, 81675 München, Germany"}
{"timestamp":"2016-10-14T07:25:00+0200","id":124016,"name":"Sepp","coordinate":{"longitude":11.60219955,"latitude":48.13040161},"fuelLevel":0.9099999999999999,"lastAddress":"Wörthstraße 35, 81667 München, Germany"}
{"timestamp":"2016-10-14T07:25:00+0200","id":124038,"name":"Magda","coordinate":{"longitude":11.60029984,"latitude":48.1283989},"fuelLevel":0.67,"lastAddress":"Pariser Pl., 81667 München, Germany"}
{"timestamp":"2016-10-14T07:25:00+0200","id":124022,"name":"Anne","coordinate":{"longitude":11.60009956,"latitude":48.12590027},"fuelLevel":0.7999999999999999,"lastAddress":"Lothringer Str., 81667 München, Germany"}
{"timestamp":"2016-10-14T07:25:00+0200","id":124000,"name":"Bertl","coordinate":{"longitude":11.59809971,"latitude":48.12630081},"fuelLevel":0.8,"lastAddress":"Rosenheimer Str. 119, 81667 München, Germany"}
{"timestamp":"2016-10-14T07:25:00+0200","id":124013,"name":"Poldi","coordinate":{"longitude":11.59449959,"latitude":48.12749863},"fuelLevel":0.6000000000000001,"lastAddress":"Balanstraße 8, 81669 München, Germany"}
{"timestamp":"2016-10-14T07:25:00+0200","id":124011,"name":"Maxl","coordinate":{"longitude":11.59490013,"latitude":48.12789917},"fuelLevel":0.6699999999999999,"lastAddress":"Metzstraße 1, 81667 München, Germany"}
{"timestamp":"2016-10-14T07:25:00+0200","id":124003,"name":"Franzl","coordinate":{"longitude":11.59309959,"latitude":48.12739944},"fuelLevel":0.8,"lastAddress":"Franziskanerstraße 8, 81669 München, Germany"}
{"timestamp":"2016-10-14T07:25:00+0200","id":124010,"name":"Luitpold","coordinate":{"longitude":11.58450031,"latitude":48.12789917},"fuelLevel":0.9400000000000001,"lastAddress":"Lilienstraße 58, 81669 München, Germany"}
{"timestamp":"2016-10-14T07:25:00+0200","id":124020,"name":"Vinzenz","coordinate":{"longitude":11.57830048,"latitude":48.1228981},"fuelLevel":0.81,"lastAddress":"Entenbachstraße 27, 81541 München, Germany"}
{"timestamp":"2016-10-14T07:25:00+0200","id":124049,"name":"Marei","coordinate":{"longitude":11.57460022,"latitude":48.12210083},"fuelLevel":0.9400000000000001,"lastAddress":"Sommerstraße 11B, 81543 München, Germany"}
{"timestamp":"2016-10-14T07:25:00+0200","id":124045,"name":"Vroni","coordinate":{"longitude":11.56499958,"latitude":48.12409973},"fuelLevel":0.64,"lastAddress":"Kapuzinerstraße 37, 80469 München, Germany"}
{"timestamp":"2016-10-14T07:25:00+0200","id":124018,"name":"Toni","coordinate":{"longitude":11.56960011,"latitude":48.12969971},"fuelLevel":0.66,"lastAddress":"Hans-Sachs-Straße 12, 80469 München, Germany"}
{"timestamp":"2016-10-14T07:25:00+0200","id":124012,"name":"Peter","coordinate":{"longitude":11.56140041,"latitude":48.15470123},"fuelLevel":0.9500000000000001,"lastAddress":"Schleißheimer Str. 86, 80797 München, Germany"}
{"timestamp":"2016-10-14T07:25:00+0200","id":124047,"name":"Walli","coordinate":{"longitude":11.57019997,"latitude":48.14929962},"fuelLevel":0.71,"lastAddress":"Theresienstraße, 80333 München, Germany"}
{"timestamp":"2016-10-14T07:25:00+0200","id":124002,"name":"Ferdl","coordinate":{"longitude":11.56400013,"latitude":48.15439987},"fuelLevel":0.9444444444444444,"lastAddress":"Schwindstraße 19, 80798 München, Germany"}
{"timestamp":"2016-10-14T07:25:00+0200","id":124048,"name":"Wiggerl","coordinate":{"longitude":11.58069992,"latitude":48.16270065},"fuelLevel":0.66,"lastAddress":"Herzogstraße 36-38, 80803 München, Germany"}
{"timestamp":"2016-10-14T07:25:00+0200","id":124028,"name":"Gitte","coordinate":{"longitude":11.57569981,"latitude":48.16059875},"fuelLevel":0.7200000000000001,"lastAddress":"Hohenzollernstraße 78, 80801 München, Germany"}
{"timestamp":"2016-10-14T07:25:00+0200","id":124027,"name":"Fanni","coordinate":{"longitude":11.58450031,"latitude":48.16070175},"fuelLevel":0.7899999999999999,"lastAddress":"Kaiserstraße 12, 80801 München, Germany"}
{"timestamp":"2016-10-14T07:25:00+0200","id":124005,"name":"Georg","coordinate":{"longitude":11.57549953,"latitude":48.16189957},"fuelLevel":0.56,"lastAddress":"Viktor-Scheffel-Straße 19, 80803 München, Germany"}
{"timestamp":"2016-10-14T07:25:00+0200","id":124032,"name":"Irmi","coordinate":{"longitude":11.57310009,"latitude":48.16019821},"fuelLevel":0.64,"lastAddress":"Isabellastraße 49, 80796 München, Germany"}
{"timestamp":"2016-10-14T07:25:00+0200","id":124037,"name":"Luise","coordinate":{"longitude":11.5703001,"latitude":48.15750122},"fuelLevel":0.52,"lastAddress":"Agnesstraße 14, 80798 München, Germany"}
{"timestamp":"2016-10-14T07:25:00+0200","id":124017,"name":"Siggi","coordinate":{"longitude":11.57250023,"latitude":48.16030121},"fuelLevel":0.56,"lastAddress":"Hohenzollernstraße 67, 80796 München, Germany"}
{"timestamp":"2016-10-14T07:25:00+0200","id":124029,"name":"Hannah","coordinate":{"longitude":11.51029968,"latitude":48.04539871},"fuelLevel":0.7,"lastAddress":"Gistlstraße 159, 82049 Pullach im Isartal, Germany"}
{"timestamp":"2016-10-14T07:25:00+0200","id":124008,"name":"Johann","coordinate":{"longitude":11.55840015,"latitude":48.12820053},"fuelLevel":0.87,"lastAddress":"Häberlstraße 10-12, 80337 München, Germany"}
{"timestamp":"2016-10-14T07:25:00+0200","id":124039,"name":"Marie","coordinate":{"longitude":11.50949955,"latitude":48.04539871},"fuelLevel":0.9099999999999999,"lastAddress":"Seitnerstraße 70, 82049 Pullach im Isartal, Germany"}
{"timestamp":"2016-10-14T07:25:00+0200","id":124007,"name":"Jakob","coordinate":{"longitude":11.57689953,"latitude":48.16669846},"fuelLevel":0.9400000000000001,"lastAddress":"Karl-Theodor-Straße 63, 80803 München, Germany"}