{"timestamp":"2016-10-06T18:55:00+0200","id":124041,"name":"Sophie","coordinate":{"longitude":11.57830048,"latitude":48.15010071},"fuelLevel":0.93,"lastAddress":"Amalienstraße 63, 80799 München, Germany"}
{"timestamp":"2016-10-06T18:55:00+0200","id":124026,"name":"Eva","coordinate":{"longitude":11.57859993,"latitude":48.15380096},"fuelLevel":0.61,"lastAddress":"Türkenstraße 104, 80799 München, Germany"}
{"timestamp":"2016-10-06T18:55:00+0200","id":124025,"name":"Elli","coordinate":{"longitude":11.57610035,"latitude":48.15769958},"fuelLevel":0.9,"lastAddress":"Franz-Joseph-Straße 46, 80801 München, Germany"}
{"timestamp":"2016-10-06T18:55:00+0200","id":124033,"name":"Johanna","coordinate":{"longitude":11.58199978,"latitude":48.15159988},"fuelLevel":0.82,"lastAddress":"Leopoldstraße, 80539 München, Germany"}
{"timestamp":"2016-10-06T18:55:00+0200","id":124036,"name":"Liesel","coordinate":{"longitude":11.57520008,"latitude":48.15629959},"fuelLevel":0.6699999999999999,"lastAddress":"Nordendstraße 36, 80801 München, Germany"}
{"timestamp":"2016-10-06T18:55:00+0200","id":124044,"name":"Uschi","coordinate":{"longitude":11.57299995,"latitude":48.13190079},"fuelLevel":0.9199999999999999,"lastAddress":"Müllerstraße 7, 80469 München, Germany"}
{"timestamp":"2016-10-06T18:55:00+0200","id":124024,"name":"Christl","coordinate":{"longitude":11.57919979,"latitude":48.13380051},"fuelLevel":0.8,"lastAddress":"Rumfordstraße 11, 80469 München, Germany"}
{"timestamp":"2016-10-06T18:55:00+0200","id":124040,"name":"Reserl","coordinate":{"longitude":11.57199955,"latitude":48.13169861},"fuelLevel":0.83,"lastAddress":"Müllerstraße 24, 80469 München, Germany"}
{"timestamp":"2016-10-06T18:55:00+0200","id":124021,"name":"Xaver","coordinate":{"longitude":11.58170033,"latitude":48.13069916},"fuelLevel":0.9500000000000001,"lastAddress":"Erhardtstraße 27, 80469 München, Germany"}
{"timestamp":"2016-10-06T18:55:00+0200","id":124014,"name":"Quirin","coordinate":{"longitude":11.60529995,"latitude":48.13249969},"fuelLevel":0.6000000000000001,"lastAddress":"Kirchenstraße 70, 81675 München, Germany"}
{"timestamp":"2016-10-06T18:55:00+0200","id":124034,"name":"Kathi","coordinate":{"longitude":11.60480022,"latitude":48.13230133},"fuelLevel":0.66,"lastAddress":"Elsässer Str. 6, 81667 München, Germany"}
{"timestamp":"2016-10-06T18:55:00+0200","id":124016,"name":"Sepp","coordinate":{"longitude":11.59829998,"latitude":48.12580109},"fuelLevel":0.9299999999999999,"lastAddress":"Rosenheimer Str. 100, 81669 München, Germany"}
{"timestamp":"2016-10-06T18:55:00+0200","id":124038,"name":"Magda","coordinate":{"longitude":11.6001997,"latitude":48.12870026},"fuelLevel":0.67,"lastAddress":"Pariser Str. 31, 81667 München, Germany"}
{"timestamp":"2016-10-06T18:55:00+0200","id":124022,"name":"Anne","coordinate":{"longitude":11.59640026,"latitude":48.12689972},"fuelLevel":0.8800000000000001,"lastAddress":"Rosenheimer Str. 84, 81669 München, Germany"}
{"timestamp":"2016-10-06T18:55:00+0200","id":124000,"name":"Bertl","coordinate":{"longitude":11.59459972,"latitude":48.12810135},"fuelLevel":0.82,"lastAddress":"Rosenheimer Str. 62, 81669 München, Germany"}
{"timestamp":"2016-10-06T18:55:00+0200","id":124013,"name":"Poldi","coordinate":{"longitude":11.59370041,"latitude":48.12760162},"fuelLevel":0.79,"lastAddress":"Franziskanerstraße 11, 81669 München, Germany"}
{"timestamp":"2016-10-06T18:55:00+0200","id":124011,"name":"Maxl","coordinate":{"longitude":11.59350014,"latitude":48.12530136},"fuelLevel":0.73,"lastAddress":"Barnabasstraße 3, 81669 München, Germany"}
{"timestamp":"2016-10-06T18:55:00+0200","id":124003,"name":"Franzl","coordinate":{"longitude":11.59300041,"latitude":48.12739944},"fuelLevel":0.8,"lastAddress":"Franziskanerstraße 8, 81669 München, Germany"}
{"timestamp":"2016-10-06T18:55:00+0200","id":124010,"name":"Luitpold","coordinate":{"longitude":11.58450031,"latitude":48.12770081},"fuelLevel":0.9500000000000001,"lastAddress":"Lilienstraße 66, 81669 München, Germany"}
{"timestamp":"2016-10-06T18:55:00+0200","id":124019,"name":"Valentin","coordinate":{"longitude":11.58530045,"latitude":48.12369919},"fuelLevel":0.87,"lastAddress":"Hochstraße 47A, 81541 München, Germany"}
{"timestamp":"2016-10-06T18:55:00+0200","id":124035,"name":"Leonie","coordinate":{"longitude":11.5866003,"latitude":48.12919998},"fuelLevel":0.7899999999999999,"lastAddress":"Paulanerpl. 1, 81669 München, Germany"}
{"timestamp":"2016-10-06T18:55:00+0200","id":124006,"name":"Gustl","coordinate":{"longitude":11.57750034,"latitude":48.12099838},"fuelLevel":0.9400000000000001,"lastAddress":"Falkenstraße 44, 81541 München, Germany"}
{"timestamp":"2016-10-06T18:55:00+0200","id":124020,"name":"Vinzenz","coordinate":{"longitude":11.57689953,"latitude":48.12440109},"fuelLevel":0.8999999999999999,"lastAddress":"Albanistraße 5, 81541 München, Germany"}
{"timestamp":"2016-10-06T18:55:00+0200","id":124049,"name":"Marei","coordinate":{"longitude":11.57429981,"latitude":48.11959839},"fuelLevel":0.69,"lastAddress":"Humboldtstraße 28, 81543 München, Germany"}
{"timestamp":"2016-10-06T18:55:00+0200","id":124045,"name":"Vroni","coordinate":{"longitude":11.56750011,"latitude":48.12779999},"fuelLevel":0.9199999999999999,"lastAddress":"Holzstraße 34, 80469 München, Germany"}
{"timestamp":"2016-10-06T18:55:00+0200","id":124018,"name":"Toni","coordinate":{"longitude":11.56989956,"latitude":48.1310997},"fuelLevel":0.9199999999999999,"lastAddress":"Angertorstraße 4, 80469 München, Germany"}
{"timestamp":"2016-10-06T18:55:00+0200","id":124012,"name":"Peter","coordinate":{"longitude":11.57250023,"latitude":48.14979935},"fuelLevel":1,"lastAddress":"Barer Str. 48-50, 80799 München, Germany"}
{"timestamp":"2016-10-06T18:55:00+0200","id":124004,"name":"Fridl","coordinate":{"longitude":11.56579971,"latitude":48.15639877},"fuelLevel":0.55,"lastAddress":"Hiltenspergerstraße 6, 80798 München, Germany"}
{"timestamp":"2016-10-06T18:55:00+0200","id":124031,"name":"Heidi","coordinate":{"longitude":11.56649971,"latitude":48.14979935},"fuelLevel":0.8,"lastAddress":"Luisenstraße 51-53, 80333 München, Germany"}
{"timestamp":"2016-10-06T18:55:00+0200","id":124047,"name":"Walli","coordinate":{"longitude":11.56999969,"latitude":48.15029907},"fuelLevel":0.83,"lastAddress":"Arcisstraße 32, 80799 München, Germany"}
{"timestamp":"2016-10-06T18:55:00+0200","id":124002,"name":"Ferdl","coordinate":{"longitude":11.56509972,"latitude":48.15200043},"fuelLevel":0.9500000000000001,"lastAddress":"Augustenstraße 94, 80798 München, Germany"}
{"timestamp":"2016-10-06T18:55:00+0200","id":124048,"name":"Wiggerl","coordinate":{"longitude":11.57890034,"latitude":48.16139984},"fuelLevel":0.68,"lastAddress":"Kaiserstraße 36, 80801 München, Germany"}
{"timestamp":"2016-10-06T18:55:00+0200","id":124028,"name":"Gitte","coordinate":{"longitude":11.57719994,"latitude":48.16019821},"fuelLevel":0.75,"lastAddress":"Hohenzollernstraße 70, 80801 München, Germany"}
{"timestamp":"2016-10-06T18:55:00+0200","id":124027,"name":"Fanni","coordinate":{"longitude":11.5777998,"latitude":48.15890121},"fuelLevel":0.7899999999999999,"lastAddress":"Ainmillerstraße 33, 80801 München, Germany"}
{"timestamp":"2016-10-06T18:55:00+0200","id":124005,"name":"Georg","coordinate":{"longitude":11.58129978,"latitude":48.15850067},"fuelLevel":0.66,"lastAddress":"Ainmillerstraße 17, 80801 München, Germany"}
{"timestamp":"2016-10-06T18:55:00+0200","id":124001,"name":"Edmund","coordinate":{"longitude":11.57919979,"latitude":48.15810013},"fuelLevel":0.5700000000000001,"lastAddress":"Franz-Joseph-Straße 28, 80801 München, Germany"}
{"timestamp":"2016-10-06T18:55:00+0200","id":124032,"name":"Irmi","coordinate":{"longitude":11.57279968,"latitude":48.16030121},"fuelLevel":0.64,"lastAddress":"Isabellastraße 49, 80796 München, Germany"}
{"timestamp":"2016-10-06T18:55:00+0200","id":124037,"name":"Luise","coordinate":{"longitude":11.56620026,"latitude":48.15779877},"fuelLevel":0.58,"lastAddress":"Hiltenspergerstraße 23, 80798 München, Germany"}
{"timestamp":"2016-10-06T18:55:00+0200","id":124017,"name":"Siggi","coordinate":{"longitude":11.57120037,"latitude":48.16070175},"fuelLevel":0.56,"lastAddress":"Hohenzollernstraße 79, 80796 München, Germany"}
{"timestamp":"2016-10-06T18:55:00+0200","id":124029,"name":"Hannah","coordinate":{"longitude":11.51019955,"latitude":48.04550171},"fuelLevel":0.7,"lastAddress":"Gistlstraße 159, 82049 Pullach im Isartal, Germany"}
{"timestamp":"2016-10-06T18:55:00+0200","id":124008,"name":"Johann","coordinate":{"longitude":11.50990009,"latitude":48.04539871},"fuelLevel":0.87,"lastAddress":"Gistlstraße 159, 82049 Pullach im Isartal, Germany"}
{"timestamp":"2016-10-06T18:55:00+0200","id":124009,"name":"Ludwig","coordinate":{"longitude":11.58479977,"latitude":48.16189957},"fuelLevel":0.8999999999999999,"lastAddress":"Herzogstraße 5, 80803 München, Germany"}
{"timestamp":"2016-10-06T18:55:00+0200","id":124007,"name":"Jakob","coordinate":{"longitude":11.57470036,"latitude":48.16730118},"fuelLevel":0.9400000000000001,"lastAddress":"Karl-Theodor-Straße 82, 80803 München, Germany"}