{"timestamp":"2016-11-23T08:20:00+0100","id":124041,"name":"Sophie","coordinate":{"longitude":11.57891846,"latitude":48.15301514},"fuelLevel":0.5599999999999999,"lastAddress":"Akademiestraße 2, 80799 München, Germany"}
{"timestamp":"2016-11-23T08:20:00+0100","id":124026,"name":"Eva","coordinate":{"longitude":11.58129883,"latitude":48.15240479},"fuelLevel":0.75,"lastAddress":"Akademiestraße 3, 80799 München, Germany"}
{"timestamp":"2016-11-23T08:20:00+0100","id":124025,"name":"Elli","coordinate":{"longitude":11.58129883,"latitude":48.15249634},"fuelLevel":0.8400000000000001,"lastAddress":"Akademiestraße 3, 80799 München, Germany"}
{"timestamp":"2016-11-23T08:20:00+0100","id":124033,"name":"Johanna","coordinate":{"longitude":11.57980347,"latitude":48.15280151},"fuelLevel":0.7799999999999999,"lastAddress":"Akademiestraße 11, 80799 München, Germany"}
{"timestamp":"2016-11-23T08:20:00+0100","id":124024,"name":"Christl","coordinate":{"longitude":11.57699585,"latitude":48.13279724},"fuelLevel":0.6499999999999999,"lastAddress":"Buttermelcherstraße 4, 80469 München, Germany"}
{"timestamp":"2016-11-23T08:20:00+0100","id":124040,"name":"Reserl","coordinate":{"longitude":11.57478333,"latitude":48.1290741},"fuelLevel":0.83,"lastAddress":"Fraunhoferstraße 31, 80469 München, Germany"}
{"timestamp":"2016-11-23T08:20:00+0100","id":124021,"name":"Xaver","coordinate":{"longitude":11.58198547,"latitude":48.13110352},"fuelLevel":0.77,"lastAddress":"Kohlstraße 11, 80469 München, Germany"}
{"timestamp":"2016-11-23T08:20:00+0100","id":124014,"name":"Quirin","coordinate":{"longitude":11.60040283,"latitude":48.13400269},"fuelLevel":0.87,"lastAddress":"Kirchenstraße 12, 81675 München, Germany"}
{"timestamp":"2016-11-23T08:20:00+0100","id":124034,"name":"Kathi","coordinate":{"longitude":11.60577393,"latitude":48.13079834},"fuelLevel":0.75,"lastAddress":"Breisacher Str. 24, 81667 München, Germany"}
{"timestamp":"2016-11-23T08:20:00+0100","id":124000,"name":"Bertl","coordinate":{"longitude":11.59489441,"latitude":48.13098145},"fuelLevel":0.8999999999999999,"lastAddress":"Milchstraße 2, 81667 München, Germany"}
{"timestamp":"2016-11-23T08:20:00+0100","id":124013,"name":"Poldi","coordinate":{"longitude":11.58958435,"latitude":48.12498474},"fuelLevel":0.79,"lastAddress":"Franziskanerstraße 47, 81669 München, Germany"}
{"timestamp":"2016-11-23T08:20:00+0100","id":124011,"name":"Maxl","coordinate":{"longitude":11.59000015,"latitude":48.12509918},"fuelLevel":0.5599999999999999,"lastAddress":"Franziskanerstraße 43, 81669 München, Germany"}
{"timestamp":"2016-11-23T08:20:00+0100","id":124003,"name":"Franzl","coordinate":{"longitude":11.58808899,"latitude":48.12538147},"fuelLevel":0.7200000000000001,"lastAddress":"Gebsattelstraße 16, 81541 München, Germany"}
{"timestamp":"2016-11-23T08:20:00+0100","id":124010,"name":"Luitpold","coordinate":{"longitude":11.58770752,"latitude":48.12791443},"fuelLevel":0.87,"lastAddress":"Hochstraße 19, 81669 München, Germany"}
{"timestamp":"2016-11-23T08:20:00+0100","id":124019,"name":"Valentin","coordinate":{"longitude":11.58198547,"latitude":48.12098694},"fuelLevel":0.64,"lastAddress":"Hochstraße 81, 81541 München, Germany"}
{"timestamp":"2016-11-23T08:20:00+0100","id":124035,"name":"Leonie","coordinate":{"longitude":11.58348083,"latitude":48.12770081},"fuelLevel":0.8800000000000001,"lastAddress":"Zeppelinstraße 39, 81669 München, Germany"}
{"timestamp":"2016-11-23T08:20:00+0100","id":124006,"name":"Gustl","coordinate":{"longitude":11.57600021,"latitude":48.12099838},"fuelLevel":0.86,"lastAddress":"Kolumbusstraße 22, 81543 München, Germany"}
{"timestamp":"2016-11-23T08:20:00+0100","id":124020,"name":"Vinzenz","coordinate":{"longitude":11.57710266,"latitude":48.12319946},"fuelLevel":0.86,"lastAddress":"Schlotthauerstraße 13, 81541 München, Germany"}
{"timestamp":"2016-11-23T08:20:00+0100","id":124049,"name":"Marei","coordinate":{"longitude":11.5776062,"latitude":48.12039185},"fuelLevel":0.8999999999999999,"lastAddress":"Dollmannstraße 4, 81541 München, Germany"}
{"timestamp":"2016-11-23T08:20:00+0100","id":124018,"name":"Toni","coordinate":{"longitude":11.56910706,"latitude":48.12390137},"fuelLevel":0.9099999999999999,"lastAddress":"Wittelsbacherstraße 10-11, 80469 München, Germany"}
{"timestamp":"2016-11-23T08:20:00+0100","id":124012,"name":"Peter","coordinate":{"longitude":11.56001282,"latitude":48.15501404},"fuelLevel":0.6,"lastAddress":"Schellingstraße 138, 80797 München, Germany"}
{"timestamp":"2016-11-23T08:20:00+0100","id":124004,"name":"Fridl","coordinate":{"longitude":11.55909729,"latitude":48.15388489},"fuelLevel":0.86,"lastAddress":"Heßstraße 79, 80797 München, Germany"}
{"timestamp":"2016-11-23T08:20:00+0100","id":124031,"name":"Heidi","coordinate":{"longitude":11.57020569,"latitude":48.14950562},"fuelLevel":0.51,"lastAddress":"Theresienstraße, 80333 München, Germany"}
{"timestamp":"2016-11-23T08:20:00+0100","id":124047,"name":"Walli","coordinate":{"longitude":11.56719971,"latitude":48.15078735},"fuelLevel":0.75,"lastAddress":"Luisenstraße 63, 80798 München, Germany"}
{"timestamp":"2016-11-23T08:20:00+0100","id":124002,"name":"Ferdl","coordinate":{"longitude":11.56399536,"latitude":48.15029907},"fuelLevel":0.8999999999999999,"lastAddress":"Augustenstraße 76, 80333 München, Germany"}
{"timestamp":"2016-11-23T08:20:00+0100","id":124048,"name":"Wiggerl","coordinate":{"longitude":11.57740784,"latitude":48.15901184},"fuelLevel":0.8,"lastAddress":"Ainmillerstraße 33, 80801 München, Germany"}
{"timestamp":"2016-11-23T08:20:00+0100","id":124028,"name":"Gitte","coordinate":{"longitude":11.57946777,"latitude":48.15757751},"fuelLevel":0.9099999999999999,"lastAddress":"Franz-Joseph-Straße 25, 80801 München, Germany"}
{"timestamp":"2016-11-23T08:20:00+0100","id":124027,"name":"Fanni","coordinate":{"longitude":11.58338928,"latitude":48.16091919},"fuelLevel":0.8800000000000001,"lastAddress":"Kaiserstraße 22, 80801 München, Germany"}
{"timestamp":"2016-11-23T08:20:00+0100","id":124005,"name":"Georg","coordinate":{"longitude":11.5769043,"latitude":48.15829468},"fuelLevel":0.8,"lastAddress":"Römerstraße 3, 80801 München, Germany"}
{"timestamp":"2016-11-23T08:20:00+0100","id":124001,"name":"Edmund","coordinate":{"longitude":11.58059692,"latitude":48.16088867},"fuelLevel":0.5599999999999999,"lastAddress":"Friedrichstraße 36, 80801 München, Germany"}
{"timestamp":"2016-11-23T08:20:00+0100","id":124032,"name":"Irmi","coordinate":{"longitude":11.57499695,"latitude":48.15971375},"fuelLevel":0.61,"lastAddress":"Kurfürstenpl. 1A, 80796 München, Germany"}
{"timestamp":"2016-11-23T08:20:00+0100","id":124037,"name":"Luise","coordinate":{"longitude":11.56229973,"latitude":48.15729904},"fuelLevel":0.55,"lastAddress":"Schleißheimer Str. 79, 80797 München, Germany"}
{"timestamp":"2016-11-23T08:20:00+0100","id":124017,"name":"Siggi","coordinate":{"longitude":11.56930542,"latitude":48.15919495},"fuelLevel":0.63,"lastAddress":"Elisabethstraße 30, 80796 München, Germany"}
{"timestamp":"2016-11-23T08:20:00+0100","id":124039,"name":"Marie","coordinate":{"longitude":11.50570011,"latitude":48.04430008},"fuelLevel":0.76,"lastAddress":"Wolfratshauser Str. 138, 82049 Pullach im Isartal, Germany"}
{"timestamp":"2016-11-23T08:20:00+0100","id":124009,"name":"Ludwig","coordinate":{"longitude":11.5823822,"latitude":48.16560364},"fuelLevel":0.7200000000000001,"lastAddress":"Muffatstraße 8, 80803 München, Germany"}
{"timestamp":"2016-11-23T08:20:00+0100","id":124007,"name":"Jakob","coordinate":{"longitude":11.57650757,"latitude":48.16668701},"fuelLevel":0.6499999999999999,"lastAddress":"Karl-Theodor-Straße 63, 80803 München, Germany"}