{"timestamp":"2016-09-28T14:55:00+0200","id":124041,"name":"Sophie","coordinate":{"longitude":11.57759953,"latitude":48.14960098},"fuelLevel":0.93,"lastAddress":"Schellingstraße 11, 80799 München, Germany"}
{"timestamp":"2016-09-28T14:55:00+0200","id":124026,"name":"Eva","coordinate":{"longitude":11.57849979,"latitude":48.15399933},"fuelLevel":0.61,"lastAddress":"Türkenstraße 104, 80799 München, Germany"}
{"timestamp":"2016-09-28T14:55:00+0200","id":124025,"name":"Elli","coordinate":{"longitude":11.57820034,"latitude":48.1534996},"fuelLevel":0.85,"lastAddress":"Türkenstraße 93, 80799 München, Germany"}
{"timestamp":"2016-09-28T14:55:00+0200","id":124033,"name":"Johanna","coordinate":{"longitude":11.57929993,"latitude":48.15670013},"fuelLevel":0.89,"lastAddress":"Hohenstaufenstraße 13, 80801 München, Germany"}
{"timestamp":"2016-09-28T14:55:00+0200","id":124036,"name":"Liesel","coordinate":{"longitude":11.57540035,"latitude":48.15639877},"fuelLevel":0.6699999999999999,"lastAddress":"Nordendstraße 38, 80801 München, Germany"}
{"timestamp":"2016-09-28T14:55:00+0200","id":124044,"name":"Uschi","coordinate":{"longitude":11.57559967,"latitude":48.13029861},"fuelLevel":0.51,"lastAddress":"Reichenbachstraße 22, 80469 München, Germany"}
{"timestamp":"2016-09-28T14:55:00+0200","id":124024,"name":"Christl","coordinate":{"longitude":11.58059978,"latitude":48.13209915},"fuelLevel":0.83,"lastAddress":"Baaderstraße 2, 80469 München, Germany"}
{"timestamp":"2016-09-28T14:55:00+0200","id":124021,"name":"Xaver","coordinate":{"longitude":11.58040047,"latitude":48.13199997},"fuelLevel":0.52,"lastAddress":"Kohlstraße 3, 80469 München, Germany"}
{"timestamp":"2016-09-28T14:55:00+0200","id":124014,"name":"Quirin","coordinate":{"longitude":11.60919952,"latitude":48.1257019},"fuelLevel":0.62,"lastAddress":"Haager Str. 14, 81671 München, Germany"}
{"timestamp":"2016-09-28T14:55:00+0200","id":124034,"name":"Kathi","coordinate":{"longitude":11.60499954,"latitude":48.13249969},"fuelLevel":0.67,"lastAddress":"Elsässer Str. 4, 81667 München, Germany"}
{"timestamp":"2016-09-28T14:55:00+0200","id":124030,"name":"Hedwig","coordinate":{"longitude":11.56289959,"latitude":48.12659836},"fuelLevel":0.9099999999999999,"lastAddress":"Thalkirchner Str. 68, 80337 München, Germany"}
{"timestamp":"2016-09-28T14:55:00+0200","id":124023,"name":"Babsi","coordinate":{"longitude":11.56359959,"latitude":48.12739944},"fuelLevel":0.93,"lastAddress":"Thalkirchner Str. 54, 80337 München, Germany"}
{"timestamp":"2016-09-28T14:55:00+0200","id":124016,"name":"Sepp","coordinate":{"longitude":11.59700012,"latitude":48.12480164},"fuelLevel":0.9199999999999999,"lastAddress":"Orleansstraße 3, 81669 München, Germany"}
{"timestamp":"2016-09-28T14:55:00+0200","id":124038,"name":"Magda","coordinate":{"longitude":11.59990025,"latitude":48.12810135},"fuelLevel":0.76,"lastAddress":"Pariser Str. 38, 81667 München, Germany"}
{"timestamp":"2016-09-28T14:55:00+0200","id":124022,"name":"Anne","coordinate":{"longitude":11.59689999,"latitude":48.12659836},"fuelLevel":0.8900000000000001,"lastAddress":"Rosenheimer Str. 90, 81669 München, Germany"}
{"timestamp":"2016-09-28T14:55:00+0200","id":124000,"name":"Bertl","coordinate":{"longitude":11.59459972,"latitude":48.12979889},"fuelLevel":0.8500000000000001,"lastAddress":"Steinstraße 62, 81667 München, Germany"}
{"timestamp":"2016-09-28T14:55:00+0200","id":124013,"name":"Poldi","coordinate":{"longitude":11.5934,"latitude":48.12749863},"fuelLevel":0.83,"lastAddress":"Franziskanerstraße 13, 81669 München, Germany"}
{"timestamp":"2016-09-28T14:55:00+0200","id":124011,"name":"Maxl","coordinate":{"longitude":11.5927,"latitude":48.12599945},"fuelLevel":0.8099999999999999,"lastAddress":"Sieboldstraße 2, 81669 München, Germany"}
{"timestamp":"2016-09-28T14:55:00+0200","id":124003,"name":"Franzl","coordinate":{"longitude":11.58940029,"latitude":48.125},"fuelLevel":0.88,"lastAddress":"Franziskanerstraße 49, 81669 München, Germany"}
{"timestamp":"2016-09-28T14:55:00+0200","id":124010,"name":"Luitpold","coordinate":{"longitude":11.58609962,"latitude":48.12580109},"fuelLevel":0.88,"lastAddress":"Gebsattelstraße 2, 81541 München, Germany"}
{"timestamp":"2016-09-28T14:55:00+0200","id":124019,"name":"Valentin","coordinate":{"longitude":11.58510017,"latitude":48.12360001},"fuelLevel":0.9199999999999999,"lastAddress":"Hochstraße 49C, 81541 München, Germany"}
{"timestamp":"2016-09-28T14:55:00+0200","id":124035,"name":"Leonie","coordinate":{"longitude":11.58570004,"latitude":48.12950134},"fuelLevel":0.7899999999999999,"lastAddress":"Zeppelinstraße 63, 81669 München, Germany"}
{"timestamp":"2016-09-28T14:55:00+0200","id":124006,"name":"Gustl","coordinate":{"longitude":11.57789993,"latitude":48.12099838},"fuelLevel":0.93,"lastAddress":"Falkenstraße 43, 81541 München, Germany"}
{"timestamp":"2016-09-28T14:55:00+0200","id":124020,"name":"Vinzenz","coordinate":{"longitude":11.57970047,"latitude":48.1228981},"fuelLevel":0.9299999999999999,"lastAddress":"Falkenstraße 16, 81541 München, Germany"}
{"timestamp":"2016-09-28T14:55:00+0200","id":124049,"name":"Marei","coordinate":{"longitude":11.57409954,"latitude":48.11999893},"fuelLevel":0.7200000000000001,"lastAddress":"Humboldtstraße 23, 81543 München, Germany"}
{"timestamp":"2016-09-28T14:55:00+0200","id":124045,"name":"Vroni","coordinate":{"longitude":11.56750011,"latitude":48.12730026},"fuelLevel":0.9199999999999999,"lastAddress":"Holzstraße 47, 80469 München, Germany"}
{"timestamp":"2016-09-28T14:55:00+0200","id":124018,"name":"Toni","coordinate":{"longitude":11.56970024,"latitude":48.12590027},"fuelLevel":0.9500000000000001,"lastAddress":"Körnerstraße 1, 80469 München, Germany"}
{"timestamp":"2016-09-28T14:55:00+0200","id":124004,"name":"Fridl","coordinate":{"longitude":11.56610012,"latitude":48.1568985},"fuelLevel":0.9500000000000001,"lastAddress":"Georgenstraße 116, 80798 München, Germany"}
{"timestamp":"2016-09-28T14:55:00+0200","id":124031,"name":"Heidi","coordinate":{"longitude":11.56630039,"latitude":48.14799881},"fuelLevel":0.8500000000000001,"lastAddress":"Gabelsbergerstraße 51, 80333 München, Germany"}
{"timestamp":"2016-09-28T14:55:00+0200","id":124047,"name":"Walli","coordinate":{"longitude":11.57129955,"latitude":48.15639877},"fuelLevel":0.8999999999999999,"lastAddress":"Georgenstraße 80, 80799 München, Germany"}
{"timestamp":"2016-09-28T14:55:00+0200","id":124002,"name":"Ferdl","coordinate":{"longitude":11.56389999,"latitude":48.1507988},"fuelLevel":0.9500000000000001,"lastAddress":"Augustenstraße 79, 80333 München, Germany"}
{"timestamp":"2016-09-28T14:55:00+0200","id":124048,"name":"Wiggerl","coordinate":{"longitude":11.5763998,"latitude":48.15950012},"fuelLevel":0.7200000000000001,"lastAddress":"Ainmillerstraße 48, 80801 München, Germany"}
{"timestamp":"2016-09-28T14:55:00+0200","id":124028,"name":"Gitte","coordinate":{"longitude":11.5802002,"latitude":48.15819931},"fuelLevel":0.81,"lastAddress":"Habsburgerpl. 2, 80801 München, Germany"}
{"timestamp":"2016-09-28T14:55:00+0200","id":124027,"name":"Fanni","coordinate":{"longitude":11.57689953,"latitude":48.15919876},"fuelLevel":0.85,"lastAddress":"Römerstraße 9, 80801 München, Germany"}
{"timestamp":"2016-09-28T14:55:00+0200","id":124005,"name":"Georg","coordinate":{"longitude":11.58129978,"latitude":48.15909958},"fuelLevel":0.69,"lastAddress":"Ainmillerstraße 20, 80801 München, Germany"}
{"timestamp":"2016-09-28T14:55:00+0200","id":124032,"name":"Irmi","coordinate":{"longitude":11.57180023,"latitude":48.16090012},"fuelLevel":0.64,"lastAddress":"Hohenzollernstraße 108, 80796 München, Germany"}
{"timestamp":"2016-09-28T14:55:00+0200","id":124037,"name":"Luise","coordinate":{"longitude":11.56550026,"latitude":48.15990067},"fuelLevel":0.9400000000000001,"lastAddress":"Zentnerstraße 42, 80796 München, Germany"}
{"timestamp":"2016-09-28T14:55:00+0200","id":124017,"name":"Siggi","coordinate":{"longitude":11.57120037,"latitude":48.16080093},"fuelLevel":0.56,"lastAddress":"Hohenzollernstraße 110, 80796 München, Germany"}
{"timestamp":"2016-09-28T14:55:00+0200","id":124029,"name":"Hannah","coordinate":{"longitude":11.51000023,"latitude":48.04529953},"fuelLevel":0.7,"lastAddress":"Gistlstraße 159, 82049 Pullach im Isartal, Germany"}
{"timestamp":"2016-09-28T14:55:00+0200","id":124042,"name":"Tilli","coordinate":{"longitude":11.50949955,"latitude":48.04539871},"fuelLevel":0.81,"lastAddress":"Seitnerstraße 70, 82049 Pullach im Isartal, Germany"}
{"timestamp":"2016-09-28T14:55:00+0200","id":124039,"name":"Marie","coordinate":{"longitude":11.50949955,"latitude":48.04550171},"fuelLevel":0.89,"lastAddress":"Seitnerstraße 70, 82049 Pullach im Isartal, Germany"}
{"timestamp":"2016-09-28T14:55:00+0200","id":124009,"name":"Ludwig","coordinate":{"longitude":11.57830048,"latitude":48.16400146},"fuelLevel":0.9400000000000001,"lastAddress":"Cherubinistraße 2, 80803 München, Germany"}
{"timestamp":"2016-09-28T14:55:00+0200","id":124007,"name":"Jakob","coordinate":{"longitude":11.58640003,"latitude":48.16389847},"fuelLevel":0.9500000000000001,"lastAddress":"Leopoldstraße 85, 80802 München, Germany"}