{"timestamp":"2016-11-09T17:45:00+0100","id":124041,"name":"Sophie","coordinate":{"longitude":11.58040047,"latitude":48.1515007},"fuelLevel":0.64,"lastAddress":"Hauptgebäude, Geschwister-Scholl-Platz 1, 80539 München, Germany"}
{"timestamp":"2016-11-09T17:45:00+0100","id":124026,"name":"Eva","coordinate":{"longitude":11.57980347,"latitude":48.15267944},"fuelLevel":0.89,"lastAddress":"Akademiestraße 11, 80799 München, Germany"}
{"timestamp":"2016-11-09T17:45:00+0100","id":124025,"name":"Elli","coordinate":{"longitude":11.57780457,"latitude":48.1499176},"fuelLevel":0.5700000000000001,"lastAddress":"Schellingstraße 16, 80799 München, Germany"}
{"timestamp":"2016-11-09T17:45:00+0100","id":124033,"name":"Johanna","coordinate":{"longitude":11.57841492,"latitude":48.15312195},"fuelLevel":0.55,"lastAddress":"Akademiestraße 4, 80799 München, Germany"}
{"timestamp":"2016-11-09T17:45:00+0100","id":124040,"name":"Reserl","coordinate":{"longitude":11.57489967,"latitude":48.12879944},"fuelLevel":0.79,"lastAddress":"Fraunhoferstraße 34, 80469 München, Germany"}
{"timestamp":"2016-11-09T17:45:00+0100","id":124021,"name":"Xaver","coordinate":{"longitude":11.57249451,"latitude":48.13272095},"fuelLevel":0.75,"lastAddress":"Theklastraße 1, 80469 München, Germany"}
{"timestamp":"2016-11-09T17:45:00+0100","id":124014,"name":"Quirin","coordinate":{"longitude":11.59786987,"latitude":48.13812256},"fuelLevel":0.9583333333333334,"lastAddress":"Maria-Theresia-Straße 4A, 81675 München, Germany"}
{"timestamp":"2016-11-09T17:45:00+0100","id":124034,"name":"Kathi","coordinate":{"longitude":11.6053009,"latitude":48.12968445},"fuelLevel":0.9099999999999999,"lastAddress":"Elsässer Str. 31, 81667 München, Germany"}
{"timestamp":"2016-11-09T17:45:00+0100","id":124023,"name":"Babsi","coordinate":{"longitude":11.56738281,"latitude":48.13108826},"fuelLevel":0.72,"lastAddress":"Pestalozzistraße 14, 80469 München, Germany"}
{"timestamp":"2016-11-09T17:45:00+0100","id":124016,"name":"Sepp","coordinate":{"longitude":11.59918213,"latitude":48.13041687},"fuelLevel":0.59,"lastAddress":"Metzstraße 32, 81667 München, Germany"}
{"timestamp":"2016-11-09T17:45:00+0100","id":124000,"name":"Bertl","coordinate":{"longitude":11.59700012,"latitude":48.12797546},"fuelLevel":0.58,"lastAddress":"Lothringer Str. 4-6, 81667 München, Germany"}
{"timestamp":"2016-11-09T17:45:00+0100","id":124003,"name":"Franzl","coordinate":{"longitude":11.58988953,"latitude":48.12518311},"fuelLevel":0.79,"lastAddress":"Franziskanerstraße 43, 81669 München, Germany"}
{"timestamp":"2016-11-09T17:45:00+0100","id":124019,"name":"Valentin","coordinate":{"longitude":11.58189392,"latitude":48.1210022},"fuelLevel":0.6499999999999999,"lastAddress":"Hochstraße 81, 81541 München, Germany"}
{"timestamp":"2016-11-09T17:45:00+0100","id":124035,"name":"Leonie","coordinate":{"longitude":11.58129978,"latitude":48.12749863},"fuelLevel":0.64,"lastAddress":"Schweigerstraße 4, 81541 München, Germany"}
{"timestamp":"2016-11-09T17:45:00+0100","id":124006,"name":"Gustl","coordinate":{"longitude":11.57800293,"latitude":48.12280273},"fuelLevel":0.5900000000000001,"lastAddress":"Entenbachstraße 26, 81541 München, Germany"}
{"timestamp":"2016-11-09T17:45:00+0100","id":124045,"name":"Vroni","coordinate":{"longitude":11.57180023,"latitude":48.12720108},"fuelLevel":0.8500000000000001,"lastAddress":"Westermühlstraße 30, 80469 München, Germany"}
{"timestamp":"2016-11-09T17:45:00+0100","id":124004,"name":"Fridl","coordinate":{"longitude":11.56195068,"latitude":48.15673828},"fuelLevel":0.9199999999999999,"lastAddress":"Schleißheimer Str. 75, 80797 München, Germany"}
{"timestamp":"2016-11-09T17:45:00+0100","id":124031,"name":"Heidi","coordinate":{"longitude":11.56391907,"latitude":48.15060425},"fuelLevel":0.55,"lastAddress":"Augustenstraße 77-79, 80333 München, Germany"}
{"timestamp":"2016-11-09T17:45:00+0100","id":124047,"name":"Walli","coordinate":{"longitude":11.5664978,"latitude":48.14929199},"fuelLevel":0.8,"lastAddress":"Luisenstraße 47A, 80333 München, Germany"}
{"timestamp":"2016-11-09T17:45:00+0100","id":124002,"name":"Ferdl","coordinate":{"longitude":11.56350708,"latitude":48.14970398},"fuelLevel":0.76,"lastAddress":"Augustenstraße 72, 80333 München, Germany"}
{"timestamp":"2016-11-09T17:45:00+0100","id":124028,"name":"Gitte","coordinate":{"longitude":11.57821655,"latitude":48.15786743},"fuelLevel":0.58,"lastAddress":"Franz-Joseph-Straße 34, 80801 München, Germany"}
{"timestamp":"2016-11-09T17:45:00+0100","id":124005,"name":"Georg","coordinate":{"longitude":11.57680035,"latitude":48.15800095},"fuelLevel":0.87,"lastAddress":"Römerstraße 1, 80801 München, Germany"}
{"timestamp":"2016-11-09T17:45:00+0100","id":124001,"name":"Edmund","coordinate":{"longitude":11.57669067,"latitude":48.16130066},"fuelLevel":0.63,"lastAddress":"Kaiserstraße 59-61, 80801 München, Germany"}
{"timestamp":"2016-11-09T17:45:00+0100","id":124032,"name":"Irmi","coordinate":{"longitude":11.57498169,"latitude":48.15950012},"fuelLevel":0.87,"lastAddress":"Kurfürstenpl. 2, 80796 München, Germany"}
{"timestamp":"2016-11-09T17:45:00+0100","id":124017,"name":"Siggi","coordinate":{"longitude":11.56900024,"latitude":48.15939331},"fuelLevel":0.9099999999999999,"lastAddress":"Tengstraße 31, 80796 München, Germany"}
{"timestamp":"2016-11-09T17:45:00+0100","id":124029,"name":"Hannah","coordinate":{"longitude":11.50961304,"latitude":48.04550171},"fuelLevel":0.71,"lastAddress":"Seitnerstraße 70, 82049 Pullach im Isartal, Germany"}
{"timestamp":"2016-11-09T17:45:00+0100","id":124009,"name":"Ludwig","coordinate":{"longitude":11.58268738,"latitude":48.16529846},"fuelLevel":0.66,"lastAddress":"Muffatstraße 3, 80803 München, Germany"}
{"timestamp":"2016-11-09T17:45:00+0100","id":124007,"name":"Jakob","coordinate":{"longitude":11.57409668,"latitude":48.16430664},"fuelLevel":0.84,"lastAddress":"Belgradstraße 37, 80796 München, Germany"}