{"timestamp":"2016-11-08T23:15:00+0100","id":124041,"name":"Sophie","coordinate":{"longitude":11.58040047,"latitude":48.1515007},"fuelLevel":0.64,"lastAddress":"Hauptgebäude, Geschwister-Scholl-Platz 1, 80539 München, Germany"}
{"timestamp":"2016-11-08T23:15:00+0100","id":124026,"name":"Eva","coordinate":{"longitude":11.57980347,"latitude":48.15270996},"fuelLevel":0.89,"lastAddress":"Akademiestraße 11, 80799 München, Germany"}
{"timestamp":"2016-11-08T23:15:00+0100","id":124025,"name":"Elli","coordinate":{"longitude":11.57780457,"latitude":48.14990234},"fuelLevel":0.5700000000000001,"lastAddress":"Schellingstraße 16, 80799 München, Germany"}
{"timestamp":"2016-11-08T23:15:00+0100","id":124033,"name":"Johanna","coordinate":{"longitude":11.5783844,"latitude":48.15310669},"fuelLevel":0.55,"lastAddress":"Akademiestraße 4, 80799 München, Germany"}
{"timestamp":"2016-11-08T23:15:00+0100","id":124044,"name":"Uschi","coordinate":{"longitude":11.57185364,"latitude":48.13243103},"fuelLevel":0.34,"lastAddress":"Blumenstraße 19, 80331 München, Germany"}
{"timestamp":"2016-11-08T23:15:00+0100","id":124040,"name":"Reserl","coordinate":{"longitude":11.57489967,"latitude":48.12879944},"fuelLevel":0.79,"lastAddress":"Fraunhoferstraße 34, 80469 München, Germany"}
{"timestamp":"2016-11-08T23:15:00+0100","id":124021,"name":"Xaver","coordinate":{"longitude":11.57260132,"latitude":48.13310242},"fuelLevel":0.82,"lastAddress":"Blumenstraße 28, 80331 München, Germany"}
{"timestamp":"2016-11-08T23:15:00+0100","id":124014,"name":"Quirin","coordinate":{"longitude":11.59133911,"latitude":48.14871216},"fuelLevel":0.9583333333333334,"lastAddress":"Oettingenstraße 39, 80538 München, Germany"}
{"timestamp":"2016-11-08T23:15:00+0100","id":124034,"name":"Kathi","coordinate":{"longitude":11.6053009,"latitude":48.12969971},"fuelLevel":0.9099999999999999,"lastAddress":"Elsässer Str. 31, 81667 München, Germany"}
{"timestamp":"2016-11-08T23:15:00+0100","id":124030,"name":"Hedwig","coordinate":{"longitude":11.56288147,"latitude":48.12660217},"fuelLevel":0.66,"lastAddress":"Thalkirchner Str. 68, 80337 München, Germany"}
{"timestamp":"2016-11-08T23:15:00+0100","id":124023,"name":"Babsi","coordinate":{"longitude":11.56738281,"latitude":48.13110352},"fuelLevel":0.72,"lastAddress":"Pestalozzistraße 14, 80469 München, Germany"}
{"timestamp":"2016-11-08T23:15:00+0100","id":124016,"name":"Sepp","coordinate":{"longitude":11.59918213,"latitude":48.13040161},"fuelLevel":0.59,"lastAddress":"Metzstraße 32, 81667 München, Germany"}
{"timestamp":"2016-11-08T23:15:00+0100","id":124000,"name":"Bertl","coordinate":{"longitude":11.59701538,"latitude":48.12791443},"fuelLevel":0.58,"lastAddress":"Lothringer Str. 6, 81667 München, Germany"}
{"timestamp":"2016-11-08T23:15:00+0100","id":124003,"name":"Franzl","coordinate":{"longitude":11.58988953,"latitude":48.12518311},"fuelLevel":0.79,"lastAddress":"Franziskanerstraße 43, 81669 München, Germany"}
{"timestamp":"2016-11-08T23:15:00+0100","id":124010,"name":"Luitpold","coordinate":{"longitude":11.58380032,"latitude":48.12670135},"fuelLevel":0.63,"lastAddress":"Lilienstraße 83, 81669 München, Germany"}
{"timestamp":"2016-11-08T23:15:00+0100","id":124019,"name":"Valentin","coordinate":{"longitude":11.58189392,"latitude":48.1210022},"fuelLevel":0.6499999999999999,"lastAddress":"Hochstraße 81, 81541 München, Germany"}
{"timestamp":"2016-11-08T23:15:00+0100","id":124035,"name":"Leonie","coordinate":{"longitude":11.58131409,"latitude":48.12748718},"fuelLevel":0.64,"lastAddress":"Schweigerstraße 4, 81541 München, Germany"}
{"timestamp":"2016-11-08T23:15:00+0100","id":124006,"name":"Gustl","coordinate":{"longitude":11.57800007,"latitude":48.12279892},"fuelLevel":0.5900000000000001,"lastAddress":"Entenbachstraße 26, 81541 München, Germany"}
{"timestamp":"2016-11-08T23:15:00+0100","id":124045,"name":"Vroni","coordinate":{"longitude":11.57299995,"latitude":48.12649918},"fuelLevel":0.8500000000000001,"lastAddress":"Deutingerstraße 4, 80469 München, Germany"}
{"timestamp":"2016-11-08T23:15:00+0100","id":124018,"name":"Toni","coordinate":{"longitude":11.56907654,"latitude":48.12399292},"fuelLevel":0.58,"lastAddress":"Wittelsbacherstraße 10-11, 80469 München, Germany"}
{"timestamp":"2016-11-08T23:15:00+0100","id":124004,"name":"Fridl","coordinate":{"longitude":11.56202698,"latitude":48.15673828},"fuelLevel":0.9199999999999999,"lastAddress":"Schleißheimer Str. 75, 80797 München, Germany"}
{"timestamp":"2016-11-08T23:15:00+0100","id":124031,"name":"Heidi","coordinate":{"longitude":11.56388855,"latitude":48.15060425},"fuelLevel":0.55,"lastAddress":"Augustenstraße 77-79, 80333 München, Germany"}
{"timestamp":"2016-11-08T23:15:00+0100","id":124047,"name":"Walli","coordinate":{"longitude":11.56651306,"latitude":48.14930725},"fuelLevel":0.8,"lastAddress":"Luisenstraße 47A, 80333 München, Germany"}
{"timestamp":"2016-11-08T23:15:00+0100","id":124002,"name":"Ferdl","coordinate":{"longitude":11.56349182,"latitude":48.14971924},"fuelLevel":0.76,"lastAddress":"Augustenstraße 72, 80333 München, Germany"}
{"timestamp":"2016-11-08T23:15:00+0100","id":124048,"name":"Wiggerl","coordinate":{"longitude":11.57820129,"latitude":48.15789795},"fuelLevel":0.44999999999999996,"lastAddress":"Franz-Joseph-Straße 34, 80801 München, Germany"}
{"timestamp":"2016-11-08T23:15:00+0100","id":124028,"name":"Gitte","coordinate":{"longitude":11.57719421,"latitude":48.15788269},"fuelLevel":0.62,"lastAddress":"Römerstraße 4, 80801 München, Germany"}
{"timestamp":"2016-11-08T23:15:00+0100","id":124027,"name":"Fanni","coordinate":{"longitude":11.58450317,"latitude":48.16217041},"fuelLevel":0.48000000000000004,"lastAddress":"Herzogstraße 8, 80803 München, Germany"}
{"timestamp":"2016-11-08T23:15:00+0100","id":124005,"name":"Georg","coordinate":{"longitude":11.57680035,"latitude":48.15800095},"fuelLevel":0.8500000000000001,"lastAddress":"Römerstraße 1, 80801 München, Germany"}
{"timestamp":"2016-11-08T23:15:00+0100","id":124001,"name":"Edmund","coordinate":{"longitude":11.57669067,"latitude":48.16130066},"fuelLevel":0.63,"lastAddress":"Kaiserstraße 59-61, 80801 München, Germany"}
{"timestamp":"2016-11-08T23:15:00+0100","id":124032,"name":"Irmi","coordinate":{"longitude":11.57440186,"latitude":48.15814209},"fuelLevel":0.5138888888888888,"lastAddress":"Nordendstraße 43, 80801 München, Germany"}
{"timestamp":"2016-11-08T23:15:00+0100","id":124017,"name":"Siggi","coordinate":{"longitude":11.56889343,"latitude":48.16052246},"fuelLevel":0.47000000000000003,"lastAddress":"Tengstraße 38, 80796 München, Germany"}
{"timestamp":"2016-11-08T23:15:00+0100","id":124029,"name":"Hannah","coordinate":{"longitude":11.50959778,"latitude":48.04551697},"fuelLevel":0.71,"lastAddress":"Seitnerstraße 70, 82049 Pullach im Isartal, Germany"}
{"timestamp":"2016-11-08T23:15:00+0100","id":124008,"name":"Johann","coordinate":{"longitude":11.50978088,"latitude":48.04519653},"fuelLevel":0.44999999999999996,"lastAddress":"Seitnerstraße 70, 82049 Pullach im Isartal, Germany"}
{"timestamp":"2016-11-08T23:15:00+0100","id":124009,"name":"Ludwig","coordinate":{"longitude":11.58268738,"latitude":48.16529846},"fuelLevel":0.66,"lastAddress":"Muffatstraße 3, 80803 München, Germany"}
{"timestamp":"2016-11-08T23:15:00+0100","id":124007,"name":"Jakob","coordinate":{"longitude":11.57409668,"latitude":48.16429138},"fuelLevel":0.84,"lastAddress":"Belgradstraße 37, 80796 München, Germany"}