{"timestamp":"2016-10-07T08:45:00+0200","id":124041,"name":"Sophie","coordinate":{"longitude":11.57769966,"latitude":48.15019989},"fuelLevel":0.9400000000000001,"lastAddress":"Schellingstraße 20, 80799 München, Germany"}
{"timestamp":"2016-10-07T08:45:00+0200","id":124026,"name":"Eva","coordinate":{"longitude":11.57820034,"latitude":48.15370178},"fuelLevel":0.61,"lastAddress":"Türkenstraße 95, 80799 München, Germany"}
{"timestamp":"2016-10-07T08:45:00+0200","id":124025,"name":"Elli","coordinate":{"longitude":11.57610035,"latitude":48.15750122},"fuelLevel":0.9,"lastAddress":"Franz-Joseph-Straße 45, 80801 München, Germany"}
{"timestamp":"2016-10-07T08:45:00+0200","id":124033,"name":"Johanna","coordinate":{"longitude":11.58170033,"latitude":48.15159988},"fuelLevel":0.82,"lastAddress":"Ludwigstraße 29, 80539 München, Germany"}
{"timestamp":"2016-10-07T08:45:00+0200","id":124036,"name":"Liesel","coordinate":{"longitude":11.57520008,"latitude":48.15629959},"fuelLevel":0.6699999999999999,"lastAddress":"Nordendstraße 36, 80801 München, Germany"}
{"timestamp":"2016-10-07T08:45:00+0200","id":124044,"name":"Uschi","coordinate":{"longitude":11.57209969,"latitude":48.13240051},"fuelLevel":0.9199999999999999,"lastAddress":"Blumenstraße 19, 80331 München, Germany"}
{"timestamp":"2016-10-07T08:45:00+0200","id":124024,"name":"Christl","coordinate":{"longitude":11.57940006,"latitude":48.13389969},"fuelLevel":0.8,"lastAddress":"Rumfordstraße 30, 80469 München, Germany"}
{"timestamp":"2016-10-07T08:45:00+0200","id":124040,"name":"Reserl","coordinate":{"longitude":11.57199955,"latitude":48.13190079},"fuelLevel":0.83,"lastAddress":"Müllerstraße 24, 80469 München, Germany"}
{"timestamp":"2016-10-07T08:45:00+0200","id":124021,"name":"Xaver","coordinate":{"longitude":11.58170033,"latitude":48.13069916},"fuelLevel":0.9500000000000001,"lastAddress":"Erhardtstraße 27, 80469 München, Germany"}
{"timestamp":"2016-10-07T08:45:00+0200","id":124014,"name":"Quirin","coordinate":{"longitude":11.60509968,"latitude":48.13240051},"fuelLevel":0.6000000000000001,"lastAddress":"Elsässer Str. 4, 81667 München, Germany"}
{"timestamp":"2016-10-07T08:45:00+0200","id":124034,"name":"Kathi","coordinate":{"longitude":11.60490036,"latitude":48.13259888},"fuelLevel":0.66,"lastAddress":"Elsässer Str. 4, 81667 München, Germany"}
{"timestamp":"2016-10-07T08:45:00+0200","id":124016,"name":"Sepp","coordinate":{"longitude":11.59829998,"latitude":48.12590027},"fuelLevel":0.9299999999999999,"lastAddress":"Bazeillesstraße 8, 81669 München, Germany"}
{"timestamp":"2016-10-07T08:45:00+0200","id":124038,"name":"Magda","coordinate":{"longitude":11.60029984,"latitude":48.12829971},"fuelLevel":0.67,"lastAddress":"Pariser Pl., 81667 München, Germany"}
{"timestamp":"2016-10-07T08:45:00+0200","id":124022,"name":"Anne","coordinate":{"longitude":11.5951004,"latitude":48.12850189},"fuelLevel":0.86,"lastAddress":"Weißenburger Str. 8, 81667 München, Germany"}
{"timestamp":"2016-10-07T08:45:00+0200","id":124000,"name":"Bertl","coordinate":{"longitude":11.59459972,"latitude":48.12810135},"fuelLevel":0.82,"lastAddress":"Rosenheimer Str. 62, 81669 München, Germany"}
{"timestamp":"2016-10-07T08:45:00+0200","id":124013,"name":"Poldi","coordinate":{"longitude":11.59389973,"latitude":48.12730026},"fuelLevel":0.79,"lastAddress":"Rablstraße 41, 81669 München, Germany"}
{"timestamp":"2016-10-07T08:45:00+0200","id":124011,"name":"Maxl","coordinate":{"longitude":11.59319973,"latitude":48.12530136},"fuelLevel":0.73,"lastAddress":"Barnabasstraße 1, 81669 München, Germany"}
{"timestamp":"2016-10-07T08:45:00+0200","id":124003,"name":"Franzl","coordinate":{"longitude":11.59309959,"latitude":48.12720108},"fuelLevel":0.8,"lastAddress":"Franziskanerstraße 17, 81669 München, Germany"}
{"timestamp":"2016-10-07T08:45:00+0200","id":124010,"name":"Luitpold","coordinate":{"longitude":11.58380032,"latitude":48.12820053},"fuelLevel":0.9500000000000001,"lastAddress":"Eduard-Schmid-Straße 1, 81541 München, Germany"}
{"timestamp":"2016-10-07T08:45:00+0200","id":124019,"name":"Valentin","coordinate":{"longitude":11.58520031,"latitude":48.12369919},"fuelLevel":0.87,"lastAddress":"Hochstraße 49C, 81541 München, Germany"}
{"timestamp":"2016-10-07T08:45:00+0200","id":124035,"name":"Leonie","coordinate":{"longitude":11.58670044,"latitude":48.12950134},"fuelLevel":0.7899999999999999,"lastAddress":"Lilienstraße 47, 81669 München, Germany"}
{"timestamp":"2016-10-07T08:45:00+0200","id":124006,"name":"Gustl","coordinate":{"longitude":11.57740021,"latitude":48.1208992},"fuelLevel":0.9400000000000001,"lastAddress":"Falkenstraße 46, 81541 München, Germany"}
{"timestamp":"2016-10-07T08:45:00+0200","id":124020,"name":"Vinzenz","coordinate":{"longitude":11.57649994,"latitude":48.12369919},"fuelLevel":0.8999999999999999,"lastAddress":"Asamstraße 22, 81541 München, Germany"}
{"timestamp":"2016-10-07T08:45:00+0200","id":124049,"name":"Marei","coordinate":{"longitude":11.57439995,"latitude":48.11970139},"fuelLevel":0.69,"lastAddress":"Humboldtstraße 28, 81543 München, Germany"}
{"timestamp":"2016-10-07T08:45:00+0200","id":124045,"name":"Vroni","coordinate":{"longitude":11.56700039,"latitude":48.1271019},"fuelLevel":0.9199999999999999,"lastAddress":"Holzstraße 49-51, 80469 München, Germany"}
{"timestamp":"2016-10-07T08:45:00+0200","id":124018,"name":"Toni","coordinate":{"longitude":11.57009983,"latitude":48.13090134},"fuelLevel":0.9199999999999999,"lastAddress":"Müllerstraße 31, 80469 München, Germany"}
{"timestamp":"2016-10-07T08:45:00+0200","id":124012,"name":"Peter","coordinate":{"longitude":11.57260036,"latitude":48.14960098},"fuelLevel":1,"lastAddress":"Barer Str. 48, 80799 München, Germany"}
{"timestamp":"2016-10-07T08:45:00+0200","id":124004,"name":"Fridl","coordinate":{"longitude":11.5656004,"latitude":48.15639877},"fuelLevel":0.55,"lastAddress":"Hiltenspergerstraße 11, 80798 München, Germany"}
{"timestamp":"2016-10-07T08:45:00+0200","id":124031,"name":"Heidi","coordinate":{"longitude":11.57289982,"latitude":48.14979935},"fuelLevel":0.8,"lastAddress":"Barer Str. 54, 80799 München, Germany"}
{"timestamp":"2016-10-07T08:45:00+0200","id":124047,"name":"Walli","coordinate":{"longitude":11.57009983,"latitude":48.15060043},"fuelLevel":0.83,"lastAddress":"Arcisstraße 32, 80799 München, Germany"}
{"timestamp":"2016-10-07T08:45:00+0200","id":124002,"name":"Ferdl","coordinate":{"longitude":11.56529999,"latitude":48.15259933},"fuelLevel":0.9500000000000001,"lastAddress":"Augustenstraße 96A, 80798 München, Germany"}
{"timestamp":"2016-10-07T08:45:00+0200","id":124048,"name":"Wiggerl","coordinate":{"longitude":11.57870007,"latitude":48.16130066},"fuelLevel":0.68,"lastAddress":"Kaiserstraße 38, 80801 München, Germany"}
{"timestamp":"2016-10-07T08:45:00+0200","id":124028,"name":"Gitte","coordinate":{"longitude":11.57719994,"latitude":48.15980148},"fuelLevel":0.75,"lastAddress":"Römerstraße 17, 80801 München, Germany"}
{"timestamp":"2016-10-07T08:45:00+0200","id":124027,"name":"Fanni","coordinate":{"longitude":11.5777998,"latitude":48.15869904},"fuelLevel":0.7899999999999999,"lastAddress":"Ainmillerstraße 33, 80801 München, Germany"}
{"timestamp":"2016-10-07T08:45:00+0200","id":124005,"name":"Georg","coordinate":{"longitude":11.58150005,"latitude":48.15859985},"fuelLevel":0.66,"lastAddress":"Ainmillerstraße 15, 80801 München, Germany"}
{"timestamp":"2016-10-07T08:45:00+0200","id":124001,"name":"Edmund","coordinate":{"longitude":11.57940006,"latitude":48.1576004},"fuelLevel":0.5700000000000001,"lastAddress":"Franz-Joseph-Straße 25, 80801 München, Germany"}
{"timestamp":"2016-10-07T08:45:00+0200","id":124032,"name":"Irmi","coordinate":{"longitude":11.57310009,"latitude":48.16030121},"fuelLevel":0.64,"lastAddress":"Isabellastraße 49, 80796 München, Germany"}
{"timestamp":"2016-10-07T08:45:00+0200","id":124037,"name":"Luise","coordinate":{"longitude":11.56649971,"latitude":48.15779877},"fuelLevel":0.58,"lastAddress":"Agnesstraße 35, 80798 München, Germany"}
{"timestamp":"2016-10-07T08:45:00+0200","id":124017,"name":"Siggi","coordinate":{"longitude":11.57089996,"latitude":48.16090012},"fuelLevel":0.56,"lastAddress":"Hohenzollernstraße 112, 80796 München, Germany"}
{"timestamp":"2016-10-07T08:45:00+0200","id":124029,"name":"Hannah","coordinate":{"longitude":11.51019955,"latitude":48.04529953},"fuelLevel":0.7,"lastAddress":"Gistlstraße 159, 82049 Pullach im Isartal, Germany"}
{"timestamp":"2016-10-07T08:45:00+0200","id":124008,"name":"Johann","coordinate":{"longitude":11.50990009,"latitude":48.04539871},"fuelLevel":0.87,"lastAddress":"Gistlstraße 159, 82049 Pullach im Isartal, Germany"}
{"timestamp":"2016-10-07T08:45:00+0200","id":124039,"name":"Marie","coordinate":{"longitude":11.50959969,"latitude":48.04529953},"fuelLevel":0.58,"lastAddress":"Seitnerstraße 70, 82049 Pullach im Isartal, Germany"}
{"timestamp":"2016-10-07T08:45:00+0200","id":124009,"name":"Ludwig","coordinate":{"longitude":11.58469963,"latitude":48.16159821},"fuelLevel":0.8999999999999999,"lastAddress":"Herzogstraße 5, 80803 München, Germany"}
{"timestamp":"2016-10-07T08:45:00+0200","id":124007,"name":"Jakob","coordinate":{"longitude":11.57439995,"latitude":48.16690063},"fuelLevel":0.9400000000000001,"lastAddress":"Karl-Theodor-Straße 79, 80803 München, Germany"}