{"timestamp":"2016-10-15T13:55:00+0200","id":124025,"name":"Elli","coordinate":{"longitude":11.57670021,"latitude":48.15769958},"fuelLevel":0.87,"lastAddress":"Franz-Joseph-Straße 41, 80801 München, Germany"}
{"timestamp":"2016-10-15T13:55:00+0200","id":124033,"name":"Johanna","coordinate":{"longitude":11.57680035,"latitude":48.15000153},"fuelLevel":0.73,"lastAddress":"Schellingstraße 19, 80799 München, Germany"}
{"timestamp":"2016-10-15T13:55:00+0200","id":124044,"name":"Uschi","coordinate":{"longitude":11.57289982,"latitude":48.13190079},"fuelLevel":0.9199999999999999,"lastAddress":"Müllerstraße 7, 80469 München, Germany"}
{"timestamp":"2016-10-15T13:55:00+0200","id":124024,"name":"Christl","coordinate":{"longitude":11.57540035,"latitude":48.12870026},"fuelLevel":0.9299999999999999,"lastAddress":"Fraunhoferstraße 39, 80469 München, Germany"}
{"timestamp":"2016-10-15T13:55:00+0200","id":124040,"name":"Reserl","coordinate":{"longitude":11.57269955,"latitude":48.13190079},"fuelLevel":0.79,"lastAddress":"Müllerstraße 7, 80469 München, Germany"}
{"timestamp":"2016-10-15T13:55:00+0200","id":124021,"name":"Xaver","coordinate":{"longitude":11.58049965,"latitude":48.13010025},"fuelLevel":0.9199999999999999,"lastAddress":"Erhardtstraße 27, 80469 München, Germany"}
{"timestamp":"2016-10-15T13:55:00+0200","id":124014,"name":"Quirin","coordinate":{"longitude":11.59729958,"latitude":48.13479996},"fuelLevel":0.57,"lastAddress":"Innere Wiener Straße 59, 81667 München, Germany"}
{"timestamp":"2016-10-15T13:55:00+0200","id":124034,"name":"Kathi","coordinate":{"longitude":11.60900021,"latitude":48.13280106},"fuelLevel":0.57,"lastAddress":"Kirchenstraße 91A, 81675 München, Germany"}
{"timestamp":"2016-10-15T13:55:00+0200","id":124016,"name":"Sepp","coordinate":{"longitude":11.59720039,"latitude":48.12659836},"fuelLevel":0.88,"lastAddress":"Rosenheimer Str. 90, 81667 München, Germany"}
{"timestamp":"2016-10-15T13:55:00+0200","id":124038,"name":"Magda","coordinate":{"longitude":11.6001997,"latitude":48.1283989},"fuelLevel":0.67,"lastAddress":"Pariser Pl., 81667 München, Germany"}
{"timestamp":"2016-10-15T13:55:00+0200","id":124022,"name":"Anne","coordinate":{"longitude":11.60000038,"latitude":48.12630081},"fuelLevel":0.7999999999999999,"lastAddress":"Lothringer Str. 32, 81667 München, Germany"}
{"timestamp":"2016-10-15T13:55:00+0200","id":124013,"name":"Poldi","coordinate":{"longitude":11.59430027,"latitude":48.12779999},"fuelLevel":0.61,"lastAddress":"Balanstraße 4, 81669 München, Germany"}
{"timestamp":"2016-10-15T13:55:00+0200","id":124011,"name":"Maxl","coordinate":{"longitude":11.59449959,"latitude":48.12779999},"fuelLevel":0.6699999999999999,"lastAddress":"Balanstraße 4, 81669 München, Germany"}
{"timestamp":"2016-10-15T13:55:00+0200","id":124003,"name":"Franzl","coordinate":{"longitude":11.59300041,"latitude":48.12730026},"fuelLevel":0.8,"lastAddress":"Franziskanerstraße 8, 81669 München, Germany"}
{"timestamp":"2016-10-15T13:55:00+0200","id":124010,"name":"Luitpold","coordinate":{"longitude":11.58460045,"latitude":48.12779999},"fuelLevel":0.9400000000000001,"lastAddress":"Lilienstraße 58, 81669 München, Germany"}
{"timestamp":"2016-10-15T13:55:00+0200","id":124020,"name":"Vinzenz","coordinate":{"longitude":11.5781002,"latitude":48.12279892},"fuelLevel":0.81,"lastAddress":"Entenbachstraße 27, 81541 München, Germany"}
{"timestamp":"2016-10-15T13:55:00+0200","id":124049,"name":"Marei","coordinate":{"longitude":11.57409954,"latitude":48.12260056},"fuelLevel":0.9400000000000001,"lastAddress":"Eduard-Schmid-Straße 34, 81541 München, Germany"}
{"timestamp":"2016-10-15T13:55:00+0200","id":124045,"name":"Vroni","coordinate":{"longitude":11.56499958,"latitude":48.12419891},"fuelLevel":0.64,"lastAddress":"Kapuzinerstraße 37, 80469 München, Germany"}
{"timestamp":"2016-10-15T13:55:00+0200","id":124012,"name":"Peter","coordinate":{"longitude":11.56040001,"latitude":48.15520096},"fuelLevel":0.9600000000000001,"lastAddress":"Winzererstraße 32, 80797 München, Germany"}
{"timestamp":"2016-10-15T13:55:00+0200","id":124004,"name":"Fridl","coordinate":{"longitude":11.55580044,"latitude":48.15520096},"fuelLevel":0.58,"lastAddress":"Lothstraße 64, 80335 München, Germany"}
{"timestamp":"2016-10-15T13:55:00+0200","id":124031,"name":"Heidi","coordinate":{"longitude":11.56649971,"latitude":48.15159988},"fuelLevel":0.63,"lastAddress":"Heßstraße 23, 80798 München, Germany"}
{"timestamp":"2016-10-15T13:55:00+0200","id":124047,"name":"Walli","coordinate":{"longitude":11.57139969,"latitude":48.15050125},"fuelLevel":0.71,"lastAddress":"Schraudolphstraße 2A, 80799 München, Germany"}
{"timestamp":"2016-10-15T13:55:00+0200","id":124048,"name":"Wiggerl","coordinate":{"longitude":11.58090019,"latitude":48.1631012},"fuelLevel":0.67,"lastAddress":"Herzogstraße 38, 80803 München, Germany"}
{"timestamp":"2016-10-15T13:55:00+0200","id":124028,"name":"Gitte","coordinate":{"longitude":11.57579994,"latitude":48.16040039},"fuelLevel":0.7200000000000001,"lastAddress":"Hohenzollernstraße 78, 80801 München, Germany"}
{"timestamp":"2016-10-15T13:55:00+0200","id":124027,"name":"Fanni","coordinate":{"longitude":11.58430004,"latitude":48.16059875},"fuelLevel":0.7899999999999999,"lastAddress":"Kaiserstraße 9, 80801 München, Germany"}
{"timestamp":"2016-10-15T13:55:00+0200","id":124005,"name":"Georg","coordinate":{"longitude":11.57549953,"latitude":48.16379929},"fuelLevel":0.56,"lastAddress":"Clemensstraße 58, 80803 München, Germany"}
{"timestamp":"2016-10-15T13:55:00+0200","id":124032,"name":"Irmi","coordinate":{"longitude":11.57289982,"latitude":48.16030121},"fuelLevel":0.64,"lastAddress":"Isabellastraße 49, 80796 München, Germany"}
{"timestamp":"2016-10-15T13:55:00+0200","id":124037,"name":"Luise","coordinate":{"longitude":11.57059956,"latitude":48.15769958},"fuelLevel":0.52,"lastAddress":"Agnesstraße 10, 80798 München, Germany"}
{"timestamp":"2016-10-15T13:55:00+0200","id":124017,"name":"Siggi","coordinate":{"longitude":11.57240009,"latitude":48.16049957},"fuelLevel":0.56,"lastAddress":"Hohenzollernstraße 69, 80796 München, Germany"}
{"timestamp":"2016-10-15T13:55:00+0200","id":124039,"name":"Marie","coordinate":{"longitude":11.50469971,"latitude":48.03710175},"fuelLevel":0.9099999999999999,"lastAddress":"Zugspitzstraße 15, 82049 Pullach im Isartal, Germany"}