{"timestamp":"2016-09-27T20:20:00+0200","id":124041,"name":"Sophie","coordinate":{"longitude":11.57769966,"latitude":48.14979935},"fuelLevel":0.93,"lastAddress":"Schellingstraße 16, 80799 München, Germany"}
{"timestamp":"2016-09-27T20:20:00+0200","id":124026,"name":"Eva","coordinate":{"longitude":11.57789993,"latitude":48.15359879},"fuelLevel":0.61,"lastAddress":"Türkenstraße 95, 80799 München, Germany"}
{"timestamp":"2016-09-27T20:20:00+0200","id":124025,"name":"Elli","coordinate":{"longitude":11.5781002,"latitude":48.15319824},"fuelLevel":0.85,"lastAddress":"Akademiestraße 25, 80799 München, Germany"}
{"timestamp":"2016-09-27T20:20:00+0200","id":124033,"name":"Johanna","coordinate":{"longitude":11.5795002,"latitude":48.15660095},"fuelLevel":0.89,"lastAddress":"Hohenstaufenstraße 14, 80801 München, Germany"}
{"timestamp":"2016-09-27T20:20:00+0200","id":124036,"name":"Liesel","coordinate":{"longitude":11.57530022,"latitude":48.15620041},"fuelLevel":0.6699999999999999,"lastAddress":"Nordendstraße 34, 80801 München, Germany"}
{"timestamp":"2016-09-27T20:20:00+0200","id":124044,"name":"Uschi","coordinate":{"longitude":11.57559967,"latitude":48.13010025},"fuelLevel":0.51,"lastAddress":"Reichenbachstraße 24, 80469 München, Germany"}
{"timestamp":"2016-09-27T20:20:00+0200","id":124024,"name":"Christl","coordinate":{"longitude":11.58040047,"latitude":48.13180161},"fuelLevel":0.83,"lastAddress":"Kohlstraße 4, 80469 München, Germany"}
{"timestamp":"2016-09-27T20:20:00+0200","id":124021,"name":"Xaver","coordinate":{"longitude":11.58069992,"latitude":48.13190079},"fuelLevel":0.52,"lastAddress":"Kohlstraße 3, 80469 München, Germany"}
{"timestamp":"2016-09-27T20:20:00+0200","id":124014,"name":"Quirin","coordinate":{"longitude":11.60929966,"latitude":48.12549973},"fuelLevel":0.62,"lastAddress":"Haager Str. 14, 81671 München, Germany"}
{"timestamp":"2016-09-27T20:20:00+0200","id":124034,"name":"Kathi","coordinate":{"longitude":11.60519981,"latitude":48.13209915},"fuelLevel":0.67,"lastAddress":"Spicherenstraße 1, 81667 München, Germany"}
{"timestamp":"2016-09-27T20:20:00+0200","id":124030,"name":"Hedwig","coordinate":{"longitude":11.56289959,"latitude":48.12659836},"fuelLevel":0.9099999999999999,"lastAddress":"Thalkirchner Str. 68, 80337 München, Germany"}
{"timestamp":"2016-09-27T20:20:00+0200","id":124023,"name":"Babsi","coordinate":{"longitude":11.56400013,"latitude":48.1269989},"fuelLevel":0.93,"lastAddress":"Thalkirchner Str. 54, 80337 München, Germany"}
{"timestamp":"2016-09-27T20:20:00+0200","id":124016,"name":"Sepp","coordinate":{"longitude":11.59920025,"latitude":48.12609863},"fuelLevel":0.9199999999999999,"lastAddress":"Lothringer Str. 28A, 81667 München, Germany"}
{"timestamp":"2016-09-27T20:20:00+0200","id":124022,"name":"Anne","coordinate":{"longitude":11.59700012,"latitude":48.12689972},"fuelLevel":0.8900000000000001,"lastAddress":"Rosenheimer Str. 109, 81667 München, Germany"}
{"timestamp":"2016-09-27T20:20:00+0200","id":124000,"name":"Bertl","coordinate":{"longitude":11.5948,"latitude":48.12950134},"fuelLevel":0.8500000000000001,"lastAddress":"Steinstraße 79, 81667 München, Germany"}
{"timestamp":"2016-09-27T20:20:00+0200","id":124013,"name":"Poldi","coordinate":{"longitude":11.5948,"latitude":48.12689972},"fuelLevel":0.83,"lastAddress":"Balanstraße 14, 81669 München, Germany"}
{"timestamp":"2016-09-27T20:20:00+0200","id":124011,"name":"Maxl","coordinate":{"longitude":11.59300041,"latitude":48.12620163},"fuelLevel":0.8099999999999999,"lastAddress":"Enzenspergerstraße 2, 81669 München, Germany"}
{"timestamp":"2016-09-27T20:20:00+0200","id":124003,"name":"Franzl","coordinate":{"longitude":11.58969975,"latitude":48.125},"fuelLevel":0.88,"lastAddress":"Franziskanerstraße 47, 81669 München, Germany"}
{"timestamp":"2016-09-27T20:20:00+0200","id":124010,"name":"Luitpold","coordinate":{"longitude":11.58590031,"latitude":48.12559891},"fuelLevel":0.88,"lastAddress":"Gebsattelstraße 2, 81541 München, Germany"}
{"timestamp":"2016-09-27T20:20:00+0200","id":124019,"name":"Valentin","coordinate":{"longitude":11.58510017,"latitude":48.12390137},"fuelLevel":0.9199999999999999,"lastAddress":"Hochstraße 47A, 81541 München, Germany"}
{"timestamp":"2016-09-27T20:20:00+0200","id":124035,"name":"Leonie","coordinate":{"longitude":11.5855999,"latitude":48.12929916},"fuelLevel":0.7899999999999999,"lastAddress":"Schwarzstraße 1, 81669 München, Germany"}
{"timestamp":"2016-09-27T20:20:00+0200","id":124006,"name":"Gustl","coordinate":{"longitude":11.57750034,"latitude":48.1208992},"fuelLevel":0.93,"lastAddress":"Falkenstraße 46, 81541 München, Germany"}
{"timestamp":"2016-09-27T20:20:00+0200","id":124020,"name":"Vinzenz","coordinate":{"longitude":11.57960033,"latitude":48.12279892},"fuelLevel":0.9299999999999999,"lastAddress":"Falkenstraße 17, 81541 München, Germany"}
{"timestamp":"2016-09-27T20:20:00+0200","id":124049,"name":"Marei","coordinate":{"longitude":11.57409954,"latitude":48.12030029},"fuelLevel":0.7200000000000001,"lastAddress":"Oefelestraße 12, 81543 München, Germany"}
{"timestamp":"2016-09-27T20:20:00+0200","id":124045,"name":"Vroni","coordinate":{"longitude":11.56729984,"latitude":48.12789917},"fuelLevel":0.9199999999999999,"lastAddress":"Pestalozzistraße 52A, 80469 München, Germany"}
{"timestamp":"2016-09-27T20:20:00+0200","id":124018,"name":"Toni","coordinate":{"longitude":11.56919956,"latitude":48.12649918},"fuelLevel":0.9500000000000001,"lastAddress":"Baumstraße 18, 80469 München, Germany"}
{"timestamp":"2016-09-27T20:20:00+0200","id":124012,"name":"Peter","coordinate":{"longitude":11.57279968,"latitude":48.14960098},"fuelLevel":1,"lastAddress":"Barer Str. 48, 80799 München, Germany"}
{"timestamp":"2016-09-27T20:20:00+0200","id":124031,"name":"Heidi","coordinate":{"longitude":11.56639957,"latitude":48.14810181},"fuelLevel":0.8500000000000001,"lastAddress":"Gabelsbergerstraße 49, 80333 München, Germany"}
{"timestamp":"2016-09-27T20:20:00+0200","id":124047,"name":"Walli","coordinate":{"longitude":11.5710001,"latitude":48.15610123},"fuelLevel":0.8999999999999999,"lastAddress":"Georgenstraße 67, 80799 München, Germany"}
{"timestamp":"2016-09-27T20:20:00+0200","id":124002,"name":"Ferdl","coordinate":{"longitude":11.56369972,"latitude":48.15060043},"fuelLevel":0.48000000000000004,"lastAddress":"Augustenstraße 77, 80333 München, Germany"}
{"timestamp":"2016-09-27T20:20:00+0200","id":124048,"name":"Wiggerl","coordinate":{"longitude":11.57730007,"latitude":48.15909958},"fuelLevel":0.7200000000000001,"lastAddress":"Römerstraße 10, 80801 München, Germany"}
{"timestamp":"2016-09-27T20:20:00+0200","id":124028,"name":"Gitte","coordinate":{"longitude":11.58010006,"latitude":48.15819931},"fuelLevel":0.81,"lastAddress":"Habsburgerpl. 3, 80801 München, Germany"}
{"timestamp":"2016-09-27T20:20:00+0200","id":124027,"name":"Fanni","coordinate":{"longitude":11.57750034,"latitude":48.1590004},"fuelLevel":0.85,"lastAddress":"Ainmillerstraße 33, 80801 München, Germany"}
{"timestamp":"2016-09-27T20:20:00+0200","id":124005,"name":"Georg","coordinate":{"longitude":11.58119965,"latitude":48.15890121},"fuelLevel":0.69,"lastAddress":"Ainmillerstraße 20, 80801 München, Germany"}
{"timestamp":"2016-09-27T20:20:00+0200","id":124032,"name":"Irmi","coordinate":{"longitude":11.57330036,"latitude":48.16040039},"fuelLevel":0.64,"lastAddress":"Hohenzollernstraße 63, 80796 München, Germany"}
{"timestamp":"2016-09-27T20:20:00+0200","id":124037,"name":"Luise","coordinate":{"longitude":11.56569958,"latitude":48.1595993},"fuelLevel":0.9400000000000001,"lastAddress":"Elisabethstraße 50, 80796 München, Germany"}
{"timestamp":"2016-09-27T20:20:00+0200","id":124017,"name":"Siggi","coordinate":{"longitude":11.5710001,"latitude":48.16090012},"fuelLevel":0.56,"lastAddress":"Hohenzollernstraße 112, 80796 München, Germany"}
{"timestamp":"2016-09-27T20:20:00+0200","id":124029,"name":"Hannah","coordinate":{"longitude":11.51049995,"latitude":48.04520035},"fuelLevel":0.7,"lastAddress":"Gistlstraße 159, 82049 Pullach im Isartal, Germany"}
{"timestamp":"2016-09-27T20:20:00+0200","id":124042,"name":"Tilli","coordinate":{"longitude":11.50969982,"latitude":48.04539871},"fuelLevel":0.84,"lastAddress":"Seitnerstraße 70, 82049 Pullach im Isartal, Germany"}
{"timestamp":"2016-09-27T20:20:00+0200","id":124039,"name":"Marie","coordinate":{"longitude":11.50949955,"latitude":48.04550171},"fuelLevel":0.89,"lastAddress":"Seitnerstraße 70, 82049 Pullach im Isartal, Germany"}
{"timestamp":"2016-09-27T20:20:00+0200","id":124009,"name":"Ludwig","coordinate":{"longitude":11.57820034,"latitude":48.16410065},"fuelLevel":0.9400000000000001,"lastAddress":"Cherubinistraße 2, 80803 München, Germany"}
{"timestamp":"2016-09-27T20:20:00+0200","id":124007,"name":"Jakob","coordinate":{"longitude":11.58600044,"latitude":48.16389847},"fuelLevel":0.9500000000000001,"lastAddress":"Leopoldstraße 87, 80802 München, Germany"}