{"timestamp":"2016-10-24T10:20:32+0200","id":124041,"name":"Sophie","coordinate":{"longitude":11.5796051,"latitude":48.15280151},"fuelLevel":0.72,"lastAddress":"Akademiestraße 11, 80799 München, Germany"}
{"timestamp":"2016-10-24T10:20:32+0200","id":124025,"name":"Elli","coordinate":{"longitude":11.57580566,"latitude":48.15719604},"fuelLevel":0.8300000000000001,"lastAddress":"Kurfürstenstraße 20, 80801 München, Germany"}
{"timestamp":"2016-10-24T10:20:32+0200","id":124033,"name":"Johanna","coordinate":{"longitude":11.57746887,"latitude":48.14996338},"fuelLevel":0.57,"lastAddress":"Schellingstraße 20, 80799 München, Germany"}
{"timestamp":"2016-10-24T10:20:32+0200","id":124014,"name":"Quirin","coordinate":{"longitude":11.59710693,"latitude":48.13449097},"fuelLevel":0.5299999999999999,"lastAddress":"Innere Wiener Straße 55, 81667 München, Germany"}
{"timestamp":"2016-10-24T10:20:32+0200","id":124038,"name":"Magda","coordinate":{"longitude":11.59899902,"latitude":48.12759399},"fuelLevel":0.54,"lastAddress":"Pariser Str. 30, 81667 München, Germany"}
{"timestamp":"2016-10-24T10:20:32+0200","id":124022,"name":"Anne","coordinate":{"longitude":11.59719849,"latitude":48.13238525},"fuelLevel":0.65,"lastAddress":"Preysingstraße 35, 81667 München, Germany"}
{"timestamp":"2016-10-24T10:20:32+0200","id":124013,"name":"Poldi","coordinate":{"longitude":11.59179974,"latitude":48.12799835},"fuelLevel":0.61,"lastAddress":"Gallmayerstraße 8, 81669 München, Germany"}
{"timestamp":"2016-10-24T10:20:32+0200","id":124011,"name":"Maxl","coordinate":{"longitude":11.59761047,"latitude":48.12420654},"fuelLevel":0.61,"lastAddress":"Orleansstraße 1, 81669 München, Germany"}
{"timestamp":"2016-10-24T10:20:32+0200","id":124019,"name":"Valentin","coordinate":{"longitude":11.58180237,"latitude":48.12519836},"fuelLevel":0.76,"lastAddress":"Mariahilfpl. 23, 81541 München, Germany"}
{"timestamp":"2016-10-24T10:20:32+0200","id":124020,"name":"Vinzenz","coordinate":{"longitude":11.57940674,"latitude":48.12440491},"fuelLevel":0.43,"lastAddress":"Entenbachstraße 5, 81541 München, Germany"}
{"timestamp":"2016-10-24T10:20:32+0200","id":124049,"name":"Marei","coordinate":{"longitude":11.57919979,"latitude":48.12459946},"fuelLevel":0.62,"lastAddress":"Boosstraße 17, 81541 München, Germany"}
{"timestamp":"2016-10-24T10:20:32+0200","id":124045,"name":"Vroni","coordinate":{"longitude":11.56640625,"latitude":48.12719727},"fuelLevel":0.59,"lastAddress":"Pestalozzistraße 60, 80469 München, Germany"}
{"timestamp":"2016-10-24T10:20:32+0200","id":124004,"name":"Fridl","coordinate":{"longitude":11.55630493,"latitude":48.1559906},"fuelLevel":0.58,"lastAddress":"Lothstraße 19, 80797 München, Germany"}
{"timestamp":"2016-10-24T10:20:32+0200","id":124031,"name":"Heidi","coordinate":{"longitude":11.57043457,"latitude":48.14938354},"fuelLevel":0.82,"lastAddress":"Theresienstraße, 80333 München, Germany"}
{"timestamp":"2016-10-24T10:20:32+0200","id":124048,"name":"Wiggerl","coordinate":{"longitude":11.57530212,"latitude":48.15890503},"fuelLevel":0.6000000000000001,"lastAddress":"Nordendstraße 62, 80801 München, Germany"}
{"timestamp":"2016-10-24T10:20:32+0200","id":124028,"name":"Gitte","coordinate":{"longitude":11.5758667,"latitude":48.15965271},"fuelLevel":0.7200000000000001,"lastAddress":"Kurfürstenpl. 2, 80796 München, Germany"}
{"timestamp":"2016-10-24T10:20:32+0200","id":124005,"name":"Georg","coordinate":{"longitude":11.57679749,"latitude":48.15791321},"fuelLevel":0.8500000000000001,"lastAddress":"Franz-Joseph-Straße 44, 80801 München, Germany"}
{"timestamp":"2016-10-24T10:20:32+0200","id":124001,"name":"Edmund","coordinate":{"longitude":11.57901001,"latitude":48.15802002},"fuelLevel":0.7999999999999999,"lastAddress":"Franz-Joseph-Straße 28, 80801 München, Germany"}
{"timestamp":"2016-10-24T10:20:32+0200","id":124032,"name":"Irmi","coordinate":{"longitude":11.56561279,"latitude":48.15939331},"fuelLevel":0.64,"lastAddress":"Zentnerstraße 38, 80798 München, Germany"}
{"timestamp":"2016-10-24T10:20:32+0200","id":124037,"name":"Luise","coordinate":{"longitude":11.57089996,"latitude":48.15679932},"fuelLevel":0.9099999999999999,"lastAddress":"Isabellastraße 17, 80798 München, Germany"}
{"timestamp":"2016-10-24T10:20:32+0200","id":124017,"name":"Siggi","coordinate":{"longitude":11.56799316,"latitude":48.1592865},"fuelLevel":0.54,"lastAddress":"Adelheidstraße 32, 80796 München, Germany"}
{"timestamp":"2016-10-24T10:20:32+0200","id":124029,"name":"Hannah","coordinate":{"longitude":11.5098877,"latitude":48.04550171},"fuelLevel":0.81,"lastAddress":"Gistlstraße 159, 82049 Pullach im Isartal, Germany"}
{"timestamp":"2016-10-24T10:20:32+0200","id":124039,"name":"Marie","coordinate":{"longitude":11.50991821,"latitude":48.0453186},"fuelLevel":0.82,"lastAddress":"Gistlstraße 159, 82049 Pullach im Isartal, Germany"}
{"timestamp":"2016-10-24T10:20:32+0200","id":124009,"name":"Ludwig","coordinate":{"longitude":11.58560181,"latitude":48.16537476},"fuelLevel":0.87,"lastAddress":"Karl-Theodor-Straße 4, 80803 München, Germany"}