{"timestamp":"2016-09-26T22:30:00+0200","id":124041,"name":"Sophie","coordinate":{"longitude":11.57769966,"latitude":48.1495018},"fuelLevel":0.93,"lastAddress":"Amalienstraße 55, 80799 München, Germany"}
{"timestamp":"2016-09-26T22:30:00+0200","id":124026,"name":"Eva","coordinate":{"longitude":11.57830048,"latitude":48.1534996},"fuelLevel":0.61,"lastAddress":"Türkenstraße 93, 80799 München, Germany"}
{"timestamp":"2016-09-26T22:30:00+0200","id":124025,"name":"Elli","coordinate":{"longitude":11.5781002,"latitude":48.15280151},"fuelLevel":0.85,"lastAddress":"Amalienstraße 101, 80799 München, Germany"}
{"timestamp":"2016-09-26T22:30:00+0200","id":124033,"name":"Johanna","coordinate":{"longitude":11.57569981,"latitude":48.15790176},"fuelLevel":0.89,"lastAddress":"Kurfürstenstraße 22, 80801 München, Germany"}
{"timestamp":"2016-09-26T22:30:00+0200","id":124036,"name":"Liesel","coordinate":{"longitude":11.57520008,"latitude":48.15620041},"fuelLevel":0.6699999999999999,"lastAddress":"Nordendstraße 34, 80801 München, Germany"}
{"timestamp":"2016-09-26T22:30:00+0200","id":124044,"name":"Uschi","coordinate":{"longitude":11.57569981,"latitude":48.13019943},"fuelLevel":0.51,"lastAddress":"Reichenbachstraße 24, 80469 München, Germany"}
{"timestamp":"2016-09-26T22:30:00+0200","id":124024,"name":"Christl","coordinate":{"longitude":11.58040047,"latitude":48.13199997},"fuelLevel":0.83,"lastAddress":"Kohlstraße 3, 80469 München, Germany"}
{"timestamp":"2016-09-26T22:30:00+0200","id":124040,"name":"Reserl","coordinate":{"longitude":11.58279991,"latitude":48.13169861},"fuelLevel":0.9099999999999999,"lastAddress":"Morassistraße 18, 80469 München, Germany"}
{"timestamp":"2016-09-26T22:30:00+0200","id":124021,"name":"Xaver","coordinate":{"longitude":11.58069992,"latitude":48.13190079},"fuelLevel":0.52,"lastAddress":"Kohlstraße 3, 80469 München, Germany"}
{"timestamp":"2016-09-26T22:30:00+0200","id":124014,"name":"Quirin","coordinate":{"longitude":11.60340023,"latitude":48.13349915},"fuelLevel":0.63,"lastAddress":"Kirchenstraße 37, 81675 München, Germany"}
{"timestamp":"2016-09-26T22:30:00+0200","id":124034,"name":"Kathi","coordinate":{"longitude":11.60470009,"latitude":48.13199997},"fuelLevel":0.67,"lastAddress":"Elsässer Str. 16, 81667 München, Germany"}
{"timestamp":"2016-09-26T22:30:00+0200","id":124030,"name":"Hedwig","coordinate":{"longitude":11.56309986,"latitude":48.12649918},"fuelLevel":0.9099999999999999,"lastAddress":"Thalkirchner Str. 17, 80337 München, Germany"}
{"timestamp":"2016-09-26T22:30:00+0200","id":124023,"name":"Babsi","coordinate":{"longitude":11.5635004,"latitude":48.1271019},"fuelLevel":0.93,"lastAddress":"Thalkirchner Str. 54, 80337 München, Germany"}
{"timestamp":"2016-09-26T22:30:00+0200","id":124016,"name":"Sepp","coordinate":{"longitude":11.59860039,"latitude":48.12580109},"fuelLevel":0.9199999999999999,"lastAddress":"Rosenheimer Str. 125, 81667 München, Germany"}
{"timestamp":"2016-09-26T22:30:00+0200","id":124038,"name":"Magda","coordinate":{"longitude":11.60000038,"latitude":48.12820053},"fuelLevel":0.76,"lastAddress":"Pariser Str. 38, 81667 München, Germany"}
{"timestamp":"2016-09-26T22:30:00+0200","id":124022,"name":"Anne","coordinate":{"longitude":11.59659958,"latitude":48.12680054},"fuelLevel":0.8900000000000001,"lastAddress":"Rosenheimer Str. 86, 81669 München, Germany"}
{"timestamp":"2016-09-26T22:30:00+0200","id":124000,"name":"Bertl","coordinate":{"longitude":11.59469986,"latitude":48.12969971},"fuelLevel":0.8500000000000001,"lastAddress":"Steinstraße 68, 81667 München, Germany"}
{"timestamp":"2016-09-26T22:30:00+0200","id":124013,"name":"Poldi","coordinate":{"longitude":11.59459972,"latitude":48.12609863},"fuelLevel":0.83,"lastAddress":"St.-Wolfgangs-Platz 7, 81669 München, Germany"}
{"timestamp":"2016-09-26T22:30:00+0200","id":124011,"name":"Maxl","coordinate":{"longitude":11.5927,"latitude":48.12580109},"fuelLevel":0.8099999999999999,"lastAddress":"Sieboldstraße 2, 81669 München, Germany"}
{"timestamp":"2016-09-26T22:30:00+0200","id":124003,"name":"Franzl","coordinate":{"longitude":11.58940029,"latitude":48.12490082},"fuelLevel":0.88,"lastAddress":"Franziskanerstraße 49, 81669 München, Germany"}
{"timestamp":"2016-09-26T22:30:00+0200","id":124010,"name":"Luitpold","coordinate":{"longitude":11.58600044,"latitude":48.12580109},"fuelLevel":0.88,"lastAddress":"Gebsattelstraße 2, 81541 München, Germany"}
{"timestamp":"2016-09-26T22:30:00+0200","id":124019,"name":"Valentin","coordinate":{"longitude":11.5848999,"latitude":48.12350082},"fuelLevel":0.9199999999999999,"lastAddress":"Hochstraße 49C, 81541 München, Germany"}
{"timestamp":"2016-09-26T22:30:00+0200","id":124035,"name":"Leonie","coordinate":{"longitude":11.58580017,"latitude":48.12929916},"fuelLevel":0.7899999999999999,"lastAddress":"Schwarzstraße 1, 81669 München, Germany"}
{"timestamp":"2016-09-26T22:30:00+0200","id":124006,"name":"Gustl","coordinate":{"longitude":11.57730007,"latitude":48.12110138},"fuelLevel":0.93,"lastAddress":"Falkenstraße 44, 81541 München, Germany"}
{"timestamp":"2016-09-26T22:30:00+0200","id":124020,"name":"Vinzenz","coordinate":{"longitude":11.57989979,"latitude":48.12250137},"fuelLevel":0.9299999999999999,"lastAddress":"Falkenstraße 17, 81541 München, Germany"}
{"timestamp":"2016-09-26T22:30:00+0200","id":124049,"name":"Marei","coordinate":{"longitude":11.57400036,"latitude":48.12009811},"fuelLevel":0.7200000000000001,"lastAddress":"Humboldtstraße 22, 81543 München, Germany"}
{"timestamp":"2016-09-26T22:30:00+0200","id":124045,"name":"Vroni","coordinate":{"longitude":11.56760025,"latitude":48.12760162},"fuelLevel":0.9199999999999999,"lastAddress":"Holzstraße 43, 80469 München, Germany"}
{"timestamp":"2016-09-26T22:30:00+0200","id":124043,"name":"Traudl","coordinate":{"longitude":11.57489967,"latitude":48.12799835},"fuelLevel":0.71,"lastAddress":"Baaderstraße 67, 80469 München, Germany"}
{"timestamp":"2016-09-26T22:30:00+0200","id":124018,"name":"Toni","coordinate":{"longitude":11.56910038,"latitude":48.12659836},"fuelLevel":0.9500000000000001,"lastAddress":"Jahnstraße 45, 80469 München, Germany"}
{"timestamp":"2016-09-26T22:30:00+0200","id":124012,"name":"Peter","coordinate":{"longitude":11.57279968,"latitude":48.14979935},"fuelLevel":1,"lastAddress":"Barer Str. 48, 80799 München, Germany"}
{"timestamp":"2016-09-26T22:30:00+0200","id":124004,"name":"Fridl","coordinate":{"longitude":11.56589985,"latitude":48.15579987},"fuelLevel":0.7799999999999999,"lastAddress":"Hiltenspergerstraße 3, 80798 München, Germany"}
{"timestamp":"2016-09-26T22:30:00+0200","id":124031,"name":"Heidi","coordinate":{"longitude":11.56639957,"latitude":48.14799881},"fuelLevel":0.8500000000000001,"lastAddress":"Gabelsbergerstraße 49, 80333 München, Germany"}
{"timestamp":"2016-09-26T22:30:00+0200","id":124047,"name":"Walli","coordinate":{"longitude":11.57139969,"latitude":48.15639877},"fuelLevel":0.8999999999999999,"lastAddress":"Georgenstraße 80, 80799 München, Germany"}
{"timestamp":"2016-09-26T22:30:00+0200","id":124002,"name":"Ferdl","coordinate":{"longitude":11.56400013,"latitude":48.15069962},"fuelLevel":0.61,"lastAddress":"Augustenstraße 82, 80333 München, Germany"}
{"timestamp":"2016-09-26T22:30:00+0200","id":124048,"name":"Wiggerl","coordinate":{"longitude":11.57699966,"latitude":48.15909958},"fuelLevel":0.7200000000000001,"lastAddress":"Ainmillerstraße 44, 80801 München, Germany"}
{"timestamp":"2016-09-26T22:30:00+0200","id":124028,"name":"Gitte","coordinate":{"longitude":11.58049965,"latitude":48.15819931},"fuelLevel":0.81,"lastAddress":"Habsburgerpl. 2, 80801 München, Germany"}
{"timestamp":"2016-09-26T22:30:00+0200","id":124027,"name":"Fanni","coordinate":{"longitude":11.5770998,"latitude":48.15909958},"fuelLevel":0.85,"lastAddress":"Ainmillerstraße 44, 80801 München, Germany"}
{"timestamp":"2016-09-26T22:30:00+0200","id":124005,"name":"Georg","coordinate":{"longitude":11.58110046,"latitude":48.15859985},"fuelLevel":0.69,"lastAddress":"Ainmillerstraße 17, 80801 München, Germany"}
{"timestamp":"2016-09-26T22:30:00+0200","id":124032,"name":"Irmi","coordinate":{"longitude":11.57320023,"latitude":48.16030121},"fuelLevel":0.64,"lastAddress":"Isabellastraße 46-48, 80796 München, Germany"}
{"timestamp":"2016-09-26T22:30:00+0200","id":124017,"name":"Siggi","coordinate":{"longitude":11.5710001,"latitude":48.16109848},"fuelLevel":0.56,"lastAddress":"Hohenzollernstraße 112, 80796 München, Germany"}
{"timestamp":"2016-09-26T22:30:00+0200","id":124029,"name":"Hannah","coordinate":{"longitude":11.51010036,"latitude":48.04539871},"fuelLevel":0.7,"lastAddress":"Gistlstraße 159, 82049 Pullach im Isartal, Germany"}
{"timestamp":"2016-09-26T22:30:00+0200","id":124042,"name":"Tilli","coordinate":{"longitude":11.50870037,"latitude":48.04679871},"fuelLevel":0.84,"lastAddress":"Flurstraße 8A, 82049 Pullach im Isartal, Germany"}
{"timestamp":"2016-09-26T22:30:00+0200","id":124039,"name":"Marie","coordinate":{"longitude":11.50949955,"latitude":48.04550171},"fuelLevel":0.89,"lastAddress":"Seitnerstraße 70, 82049 Pullach im Isartal, Germany"}
{"timestamp":"2016-09-26T22:30:00+0200","id":124009,"name":"Ludwig","coordinate":{"longitude":11.57839966,"latitude":48.16400146},"fuelLevel":0.9400000000000001,"lastAddress":"Clemensstraße 42, 80803 München, Germany"}
{"timestamp":"2016-09-26T22:30:00+0200","id":124007,"name":"Jakob","coordinate":{"longitude":11.58640003,"latitude":48.1637001},"fuelLevel":0.9500000000000001,"lastAddress":"Leopoldstraße 85, 80802 München, Germany"}