{"timestamp":"2016-10-05T09:55:00+0200","id":124041,"name":"Sophie","coordinate":{"longitude":11.5777998,"latitude":48.14979935},"fuelLevel":0.93,"lastAddress":"Schellingstraße 16, 80799 München, Germany"}
{"timestamp":"2016-10-05T09:55:00+0200","id":124026,"name":"Eva","coordinate":{"longitude":11.57820034,"latitude":48.15359879},"fuelLevel":0.61,"lastAddress":"Türkenstraße 95, 80799 München, Germany"}
{"timestamp":"2016-10-05T09:55:00+0200","id":124033,"name":"Johanna","coordinate":{"longitude":11.58160019,"latitude":48.15190125},"fuelLevel":0.84,"lastAddress":"Ludwigstraße 31, 80539 München, Germany"}
{"timestamp":"2016-10-05T09:55:00+0200","id":124036,"name":"Liesel","coordinate":{"longitude":11.57569981,"latitude":48.15629959},"fuelLevel":0.6699999999999999,"lastAddress":"Kurfürstenstraße 33, 80801 München, Germany"}
{"timestamp":"2016-10-05T09:55:00+0200","id":124044,"name":"Uschi","coordinate":{"longitude":11.57209969,"latitude":48.13209915},"fuelLevel":0.9199999999999999,"lastAddress":"Blumenstraße 21, 80331 München, Germany"}
{"timestamp":"2016-10-05T09:55:00+0200","id":124024,"name":"Christl","coordinate":{"longitude":11.5795002,"latitude":48.1332016},"fuelLevel":0.8,"lastAddress":"Aventinstraße 3, 80469 München, Germany"}
{"timestamp":"2016-10-05T09:55:00+0200","id":124040,"name":"Reserl","coordinate":{"longitude":11.57269955,"latitude":48.13290024},"fuelLevel":0.8999999999999999,"lastAddress":"Blumenstraße 17, 80331 München, Germany"}
{"timestamp":"2016-10-05T09:55:00+0200","id":124021,"name":"Xaver","coordinate":{"longitude":11.58160019,"latitude":48.13069916},"fuelLevel":0.9500000000000001,"lastAddress":"Erhardtstraße 27, 80469 München, Germany"}
{"timestamp":"2016-10-05T09:55:00+0200","id":124014,"name":"Quirin","coordinate":{"longitude":11.60840034,"latitude":48.13290024},"fuelLevel":0.63,"lastAddress":"Kirchenstraße 87, 81675 München, Germany"}
{"timestamp":"2016-10-05T09:55:00+0200","id":124034,"name":"Kathi","coordinate":{"longitude":11.60499954,"latitude":48.13180161},"fuelLevel":0.67,"lastAddress":"Elsässer Str. 9, 81667 München, Germany"}
{"timestamp":"2016-10-05T09:55:00+0200","id":124030,"name":"Hedwig","coordinate":{"longitude":11.56359959,"latitude":48.12739944},"fuelLevel":0.9199999999999999,"lastAddress":"Thalkirchner Str. 54, 80337 München, Germany"}
{"timestamp":"2016-10-05T09:55:00+0200","id":124023,"name":"Babsi","coordinate":{"longitude":11.56389999,"latitude":48.12689972},"fuelLevel":0.93,"lastAddress":"Thalkirchner Str. 54, 80337 München, Germany"}
{"timestamp":"2016-10-05T09:55:00+0200","id":124016,"name":"Sepp","coordinate":{"longitude":11.59860039,"latitude":48.12590027},"fuelLevel":0.9199999999999999,"lastAddress":"Rosenheimer Str. 125, 81667 München, Germany"}
{"timestamp":"2016-10-05T09:55:00+0200","id":124038,"name":"Magda","coordinate":{"longitude":11.6001997,"latitude":48.12820053},"fuelLevel":0.67,"lastAddress":"Pariser Pl., 81667 München, Germany"}
{"timestamp":"2016-10-05T09:55:00+0200","id":124022,"name":"Anne","coordinate":{"longitude":11.5965004,"latitude":48.12730026},"fuelLevel":0.87,"lastAddress":"Rosenheimer Str. 87, 81667 München, Germany"}
{"timestamp":"2016-10-05T09:55:00+0200","id":124000,"name":"Bertl","coordinate":{"longitude":11.59669971,"latitude":48.12969971},"fuelLevel":0.82,"lastAddress":"Kellerstraße 39, 81667 München, Germany"}
{"timestamp":"2016-10-05T09:55:00+0200","id":124013,"name":"Poldi","coordinate":{"longitude":11.59449959,"latitude":48.12770081},"fuelLevel":0.79,"lastAddress":"Balanstraße 6A, 81669 München, Germany"}
{"timestamp":"2016-10-05T09:55:00+0200","id":124011,"name":"Maxl","coordinate":{"longitude":11.59290028,"latitude":48.12440109},"fuelLevel":0.7899999999999999,"lastAddress":"Sieboldstraße 11, 81669 München, Germany"}
{"timestamp":"2016-10-05T09:55:00+0200","id":124003,"name":"Franzl","coordinate":{"longitude":11.59280014,"latitude":48.12720108},"fuelLevel":0.79,"lastAddress":"Rablstraße 37, 81669 München, Germany"}
{"timestamp":"2016-10-05T09:55:00+0200","id":124035,"name":"Leonie","coordinate":{"longitude":11.58539963,"latitude":48.12870026},"fuelLevel":0.7899999999999999,"lastAddress":"Lilienstraße 44, 81669 München, Germany"}
{"timestamp":"2016-10-05T09:55:00+0200","id":124006,"name":"Gustl","coordinate":{"longitude":11.57750034,"latitude":48.12099838},"fuelLevel":0.9400000000000001,"lastAddress":"Falkenstraße 44, 81541 München, Germany"}
{"timestamp":"2016-10-05T09:55:00+0200","id":124020,"name":"Vinzenz","coordinate":{"longitude":11.57670021,"latitude":48.12459946},"fuelLevel":0.8999999999999999,"lastAddress":"Albanistraße 3, 81541 München, Germany"}
{"timestamp":"2016-10-05T09:55:00+0200","id":124049,"name":"Marei","coordinate":{"longitude":11.57479954,"latitude":48.11999893},"fuelLevel":0.69,"lastAddress":"Humboldtstraße 25, 81543 München, Germany"}
{"timestamp":"2016-10-05T09:55:00+0200","id":124045,"name":"Vroni","coordinate":{"longitude":11.56719971,"latitude":48.1269989},"fuelLevel":0.9199999999999999,"lastAddress":"Holzstraße 49-51, 80469 München, Germany"}
{"timestamp":"2016-10-05T09:55:00+0200","id":124018,"name":"Toni","coordinate":{"longitude":11.5703001,"latitude":48.13100052},"fuelLevel":0.9099999999999999,"lastAddress":"Müllerstraße 34, 80469 München, Germany"}
{"timestamp":"2016-10-05T09:55:00+0200","id":124012,"name":"Peter","coordinate":{"longitude":11.57260036,"latitude":48.14989853},"fuelLevel":1,"lastAddress":"Barer Str. 50-52, 80799 München, Germany"}
{"timestamp":"2016-10-05T09:55:00+0200","id":124004,"name":"Fridl","coordinate":{"longitude":11.56589985,"latitude":48.15660095},"fuelLevel":0.55,"lastAddress":"Hiltenspergerstraße 8/I, 80798 München, Germany"}
{"timestamp":"2016-10-05T09:55:00+0200","id":124031,"name":"Heidi","coordinate":{"longitude":11.56620026,"latitude":48.15019989},"fuelLevel":0.8,"lastAddress":"Luisenstraße 55, 80333 München, Germany"}
{"timestamp":"2016-10-05T09:55:00+0200","id":124047,"name":"Walli","coordinate":{"longitude":11.56999969,"latitude":48.15050125},"fuelLevel":0.83,"lastAddress":"Arcisstraße 32, 80799 München, Germany"}
{"timestamp":"2016-10-05T09:55:00+0200","id":124002,"name":"Ferdl","coordinate":{"longitude":11.56449986,"latitude":48.15230179},"fuelLevel":0.9500000000000001,"lastAddress":"Heßstraße 39/41, 80798 München, Germany"}
{"timestamp":"2016-10-05T09:55:00+0200","id":124048,"name":"Wiggerl","coordinate":{"longitude":11.57849979,"latitude":48.16180038},"fuelLevel":0.68,"lastAddress":"Viktor-Scheffel-Straße 5, 80803 München, Germany"}
{"timestamp":"2016-10-05T09:55:00+0200","id":124028,"name":"Gitte","coordinate":{"longitude":11.57740021,"latitude":48.16030121},"fuelLevel":0.75,"lastAddress":"Römerstraße 21, 80801 München, Germany"}
{"timestamp":"2016-10-05T09:55:00+0200","id":124027,"name":"Fanni","coordinate":{"longitude":11.5777998,"latitude":48.1590004},"fuelLevel":0.7899999999999999,"lastAddress":"Ainmillerstraße 40, 80801 München, Germany"}
{"timestamp":"2016-10-05T09:55:00+0200","id":124005,"name":"Georg","coordinate":{"longitude":11.58180046,"latitude":48.15879822},"fuelLevel":0.66,"lastAddress":"Ainmillerstraße 18, 80801 München, Germany"}
{"timestamp":"2016-10-05T09:55:00+0200","id":124032,"name":"Irmi","coordinate":{"longitude":11.57310009,"latitude":48.16030121},"fuelLevel":0.64,"lastAddress":"Isabellastraße 49, 80796 München, Germany"}
{"timestamp":"2016-10-05T09:55:00+0200","id":124037,"name":"Luise","coordinate":{"longitude":11.56620026,"latitude":48.15779877},"fuelLevel":0.58,"lastAddress":"Hiltenspergerstraße 23, 80798 München, Germany"}
{"timestamp":"2016-10-05T09:55:00+0200","id":124017,"name":"Siggi","coordinate":{"longitude":11.57110023,"latitude":48.1609993},"fuelLevel":0.56,"lastAddress":"Hohenzollernstraße 112, 80796 München, Germany"}
{"timestamp":"2016-10-05T09:55:00+0200","id":124029,"name":"Hannah","coordinate":{"longitude":11.51019955,"latitude":48.04539871},"fuelLevel":0.7,"lastAddress":"Gistlstraße 159, 82049 Pullach im Isartal, Germany"}
{"timestamp":"2016-10-05T09:55:00+0200","id":124008,"name":"Johann","coordinate":{"longitude":11.50990009,"latitude":48.04550171},"fuelLevel":0.87,"lastAddress":"Gistlstraße 159, 82049 Pullach im Isartal, Germany"}
{"timestamp":"2016-10-05T09:55:00+0200","id":124039,"name":"Marie","coordinate":{"longitude":11.50959969,"latitude":48.04560089},"fuelLevel":0.58,"lastAddress":"Seitnerstraße 70, 82049 Pullach im Isartal, Germany"}
{"timestamp":"2016-10-05T09:55:00+0200","id":124009,"name":"Ludwig","coordinate":{"longitude":11.58479977,"latitude":48.16220093},"fuelLevel":0.8999999999999999,"lastAddress":"Herzogstraße 4, 80803 München, Germany"}
{"timestamp":"2016-10-05T09:55:00+0200","id":124007,"name":"Jakob","coordinate":{"longitude":11.57450008,"latitude":48.16680145},"fuelLevel":0.9400000000000001,"lastAddress":"Belgradstraße 56, 80796 München, Germany"}