{"timestamp":"2016-10-03T22:05:00+0200","id":124041,"name":"Sophie","coordinate":{"longitude":11.5777998,"latitude":48.14970016},"fuelLevel":0.93,"lastAddress":"Schellingstraße 11, 80799 München, Germany"}
{"timestamp":"2016-10-03T22:05:00+0200","id":124026,"name":"Eva","coordinate":{"longitude":11.57820034,"latitude":48.15359879},"fuelLevel":0.61,"lastAddress":"Türkenstraße 95, 80799 München, Germany"}
{"timestamp":"2016-10-03T22:05:00+0200","id":124025,"name":"Elli","coordinate":{"longitude":11.57600021,"latitude":48.15169907},"fuelLevel":0.9500000000000001,"lastAddress":"Blütenstraße 5, 80799 München, Germany"}
{"timestamp":"2016-10-03T22:05:00+0200","id":124033,"name":"Johanna","coordinate":{"longitude":11.58189964,"latitude":48.15129852},"fuelLevel":0.84,"lastAddress":"Ludwigstraße 28, 80539 München, Germany"}
{"timestamp":"2016-10-03T22:05:00+0200","id":124036,"name":"Liesel","coordinate":{"longitude":11.57520008,"latitude":48.15629959},"fuelLevel":0.6699999999999999,"lastAddress":"Nordendstraße 36, 80801 München, Germany"}
{"timestamp":"2016-10-03T22:05:00+0200","id":124024,"name":"Christl","coordinate":{"longitude":11.5795002,"latitude":48.13370132},"fuelLevel":0.8,"lastAddress":"Klenzestraße 1A, 80469 München, Germany"}
{"timestamp":"2016-10-03T22:05:00+0200","id":124040,"name":"Reserl","coordinate":{"longitude":11.57180023,"latitude":48.13180161},"fuelLevel":0.89,"lastAddress":"Müllerstraße 24, 80469 München, Germany"}
{"timestamp":"2016-10-03T22:05:00+0200","id":124021,"name":"Xaver","coordinate":{"longitude":11.58069992,"latitude":48.13199997},"fuelLevel":0.5,"lastAddress":"Kohlstraße 3, 80469 München, Germany"}
{"timestamp":"2016-10-03T22:05:00+0200","id":124014,"name":"Quirin","coordinate":{"longitude":11.60830021,"latitude":48.13299942},"fuelLevel":0.63,"lastAddress":"Kirchenstraße 85, 81675 München, Germany"}
{"timestamp":"2016-10-03T22:05:00+0200","id":124034,"name":"Kathi","coordinate":{"longitude":11.60509968,"latitude":48.13230133},"fuelLevel":0.67,"lastAddress":"Elsässer Str. 6, 81667 München, Germany"}
{"timestamp":"2016-10-03T22:05:00+0200","id":124030,"name":"Hedwig","coordinate":{"longitude":11.56359959,"latitude":48.12760162},"fuelLevel":0.9199999999999999,"lastAddress":"Thalkirchner Str. 52, 80337 München, Germany"}
{"timestamp":"2016-10-03T22:05:00+0200","id":124023,"name":"Babsi","coordinate":{"longitude":11.56369972,"latitude":48.1271019},"fuelLevel":0.93,"lastAddress":"Thalkirchner Str. 54, 80337 München, Germany"}
{"timestamp":"2016-10-03T22:05:00+0200","id":124016,"name":"Sepp","coordinate":{"longitude":11.59840012,"latitude":48.12580109},"fuelLevel":0.9199999999999999,"lastAddress":"Rosenheimer Str. 100, 81669 München, Germany"}
{"timestamp":"2016-10-03T22:05:00+0200","id":124022,"name":"Anne","coordinate":{"longitude":11.59659958,"latitude":48.1269989},"fuelLevel":0.87,"lastAddress":"Rosenheimer Str. 84-86, 81667 München, Germany"}
{"timestamp":"2016-10-03T22:05:00+0200","id":124000,"name":"Bertl","coordinate":{"longitude":11.59689999,"latitude":48.12939835},"fuelLevel":0.82,"lastAddress":"Kellerstraße 36, 81667 München, Germany"}
{"timestamp":"2016-10-03T22:05:00+0200","id":124013,"name":"Poldi","coordinate":{"longitude":11.59440041,"latitude":48.12799835},"fuelLevel":0.79,"lastAddress":"Balanstraße 2, 81669 München, Germany"}
{"timestamp":"2016-10-03T22:05:00+0200","id":124011,"name":"Maxl","coordinate":{"longitude":11.59300041,"latitude":48.12540054},"fuelLevel":0.78,"lastAddress":"Barnabasstraße 1, 81669 München, Germany"}
{"timestamp":"2016-10-03T22:05:00+0200","id":124003,"name":"Franzl","coordinate":{"longitude":11.59319973,"latitude":48.1271019},"fuelLevel":0.79,"lastAddress":"Franziskanerstraße 17, 81669 München, Germany"}
{"timestamp":"2016-10-03T22:05:00+0200","id":124010,"name":"Luitpold","coordinate":{"longitude":11.58590031,"latitude":48.1257019},"fuelLevel":0.88,"lastAddress":"Gebsattelstraße 2, 81541 München, Germany"}
{"timestamp":"2016-10-03T22:05:00+0200","id":124019,"name":"Valentin","coordinate":{"longitude":11.58500004,"latitude":48.12350082},"fuelLevel":0.9199999999999999,"lastAddress":"Hochstraße 49C, 81541 München, Germany"}
{"timestamp":"2016-10-03T22:05:00+0200","id":124035,"name":"Leonie","coordinate":{"longitude":11.58530045,"latitude":48.12960052},"fuelLevel":0.7899999999999999,"lastAddress":"Zeppelinstraße 63, 81669 München, Germany"}
{"timestamp":"2016-10-03T22:05:00+0200","id":124006,"name":"Gustl","coordinate":{"longitude":11.57740021,"latitude":48.12120056},"fuelLevel":0.9400000000000001,"lastAddress":"Falkenstraße 44, 81541 München, Germany"}
{"timestamp":"2016-10-03T22:05:00+0200","id":124020,"name":"Vinzenz","coordinate":{"longitude":11.57890034,"latitude":48.12319946},"fuelLevel":0.9099999999999999,"lastAddress":"Albanistraße 17, 81541 München, Germany"}
{"timestamp":"2016-10-03T22:05:00+0200","id":124049,"name":"Marei","coordinate":{"longitude":11.57429981,"latitude":48.11989975},"fuelLevel":0.69,"lastAddress":"Humboldtstraße 24-26, 81543 München, Germany"}
{"timestamp":"2016-10-03T22:05:00+0200","id":124045,"name":"Vroni","coordinate":{"longitude":11.56750011,"latitude":48.12770081},"fuelLevel":0.9199999999999999,"lastAddress":"Holzstraße 43, 80469 München, Germany"}
{"timestamp":"2016-10-03T22:05:00+0200","id":124043,"name":"Traudl","coordinate":{"longitude":11.50269985,"latitude":48.10129929},"fuelLevel":0.71,"lastAddress":"Boschetsrieder Str., 81475 München, Germany"}
{"timestamp":"2016-10-03T22:05:00+0200","id":124018,"name":"Toni","coordinate":{"longitude":11.56999969,"latitude":48.13119888},"fuelLevel":0.9099999999999999,"lastAddress":"Angertorstraße 4, 80469 München, Germany"}
{"timestamp":"2016-10-03T22:05:00+0200","id":124012,"name":"Peter","coordinate":{"longitude":11.57240009,"latitude":48.15000153},"fuelLevel":1,"lastAddress":"Barer Str. 29, 80799 München, Germany"}
{"timestamp":"2016-10-03T22:05:00+0200","id":124004,"name":"Fridl","coordinate":{"longitude":11.56599998,"latitude":48.15660095},"fuelLevel":0.55,"lastAddress":"Hiltenspergerstraße 8, 80798 München, Germany"}
{"timestamp":"2016-10-03T22:05:00+0200","id":124031,"name":"Heidi","coordinate":{"longitude":11.56630039,"latitude":48.14970016},"fuelLevel":0.8,"lastAddress":"Luisenstraße 49, 80333 München, Germany"}
{"timestamp":"2016-10-03T22:05:00+0200","id":124047,"name":"Walli","coordinate":{"longitude":11.60879993,"latitude":48.12620163},"fuelLevel":0.8999999999999999,"lastAddress":"Haager Str. 12-14, 81671 München, Germany"}
{"timestamp":"2016-10-03T22:05:00+0200","id":124002,"name":"Ferdl","coordinate":{"longitude":11.56470013,"latitude":48.15219879},"fuelLevel":0.9500000000000001,"lastAddress":"Heßstraße 39/41, 80798 München, Germany"}
{"timestamp":"2016-10-03T22:05:00+0200","id":124048,"name":"Wiggerl","coordinate":{"longitude":11.57870007,"latitude":48.16130066},"fuelLevel":0.68,"lastAddress":"Kaiserstraße 38, 80801 München, Germany"}
{"timestamp":"2016-10-03T22:05:00+0200","id":124028,"name":"Gitte","coordinate":{"longitude":11.57740021,"latitude":48.16059875},"fuelLevel":0.75,"lastAddress":"Römerstraße 23, 80801 München, Germany"}
{"timestamp":"2016-10-03T22:05:00+0200","id":124027,"name":"Fanni","coordinate":{"longitude":11.5777998,"latitude":48.15890121},"fuelLevel":0.7899999999999999,"lastAddress":"Ainmillerstraße 33, 80801 München, Germany"}
{"timestamp":"2016-10-03T22:05:00+0200","id":124005,"name":"Georg","coordinate":{"longitude":11.58150005,"latitude":48.15859985},"fuelLevel":0.66,"lastAddress":"Ainmillerstraße 15, 80801 München, Germany"}
{"timestamp":"2016-10-03T22:05:00+0200","id":124032,"name":"Irmi","coordinate":{"longitude":11.57310009,"latitude":48.15999985},"fuelLevel":0.64,"lastAddress":"Isabellastraße 42, 80796 München, Germany"}
{"timestamp":"2016-10-03T22:05:00+0200","id":124037,"name":"Luise","coordinate":{"longitude":11.56620026,"latitude":48.15779877},"fuelLevel":0.58,"lastAddress":"Hiltenspergerstraße 23, 80798 München, Germany"}
{"timestamp":"2016-10-03T22:05:00+0200","id":124017,"name":"Siggi","coordinate":{"longitude":11.57110023,"latitude":48.16090012},"fuelLevel":0.56,"lastAddress":"Hohenzollernstraße 112, 80796 München, Germany"}
{"timestamp":"2016-10-03T22:05:00+0200","id":124029,"name":"Hannah","coordinate":{"longitude":11.51000023,"latitude":48.04529953},"fuelLevel":0.71,"lastAddress":"Gistlstraße 159, 82049 Pullach im Isartal, Germany"}
{"timestamp":"2016-10-03T22:05:00+0200","id":124042,"name":"Tilli","coordinate":{"longitude":11.50979996,"latitude":48.04570007},"fuelLevel":0.77,"lastAddress":"Gistlstraße 159, 82049 Pullach im Isartal, Germany"}
{"timestamp":"2016-10-03T22:05:00+0200","id":124008,"name":"Johann","coordinate":{"longitude":11.50990009,"latitude":48.04550171},"fuelLevel":0.87,"lastAddress":"Gistlstraße 159, 82049 Pullach im Isartal, Germany"}
{"timestamp":"2016-10-03T22:05:00+0200","id":124039,"name":"Marie","coordinate":{"longitude":11.75329971,"latitude":46.55680084},"fuelLevel":0.5555555555555556,"lastAddress":"Str. Rainell, 65, 39048 Selva di Val Gardena BZ, Italy"}
{"timestamp":"2016-10-03T22:05:00+0200","id":124009,"name":"Ludwig","coordinate":{"longitude":11.58469963,"latitude":48.16210175},"fuelLevel":0.8999999999999999,"lastAddress":"Herzogstraße 5-7, 80803 München, Germany"}
{"timestamp":"2016-10-03T22:05:00+0200","id":124007,"name":"Jakob","coordinate":{"longitude":11.5788002,"latitude":48.16719818},"fuelLevel":0.47000000000000003,"lastAddress":"Bonner Pl. 4, 80803 München, Germany"}