{"timestamp":"2016-10-06T10:05:00+0200","id":124041,"name":"Sophie","coordinate":{"longitude":11.57789993,"latitude":48.14989853},"fuelLevel":0.93,"lastAddress":"Amalienstraße 57, 80799 München, Germany"}
{"timestamp":"2016-10-06T10:05:00+0200","id":124026,"name":"Eva","coordinate":{"longitude":11.57839966,"latitude":48.15319824},"fuelLevel":0.61,"lastAddress":"Akademiestraße 4, 80799 München, Germany"}
{"timestamp":"2016-10-06T10:05:00+0200","id":124044,"name":"Uschi","coordinate":{"longitude":11.57260036,"latitude":48.13190079},"fuelLevel":0.9199999999999999,"lastAddress":"Müllerstraße 9, 80469 München, Germany"}
{"timestamp":"2016-10-06T10:05:00+0200","id":124024,"name":"Christl","coordinate":{"longitude":11.57919979,"latitude":48.13399887},"fuelLevel":0.8,"lastAddress":"Rumfordstraße 31, 80469 München, Germany"}
{"timestamp":"2016-10-06T10:05:00+0200","id":124021,"name":"Xaver","coordinate":{"longitude":11.58160019,"latitude":48.13069916},"fuelLevel":0.9500000000000001,"lastAddress":"Erhardtstraße 27, 80469 München, Germany"}
{"timestamp":"2016-10-06T10:05:00+0200","id":124034,"name":"Kathi","coordinate":{"longitude":11.60499954,"latitude":48.13219833},"fuelLevel":0.67,"lastAddress":"Elsässer Str. 16, 81667 München, Germany"}
{"timestamp":"2016-10-06T10:05:00+0200","id":124030,"name":"Hedwig","coordinate":{"longitude":11.56330013,"latitude":48.12760162},"fuelLevel":0.9199999999999999,"lastAddress":"Thalkirchner Str. 56, 80337 München, Germany"}
{"timestamp":"2016-10-06T10:05:00+0200","id":124023,"name":"Babsi","coordinate":{"longitude":11.5635004,"latitude":48.12720108},"fuelLevel":0.93,"lastAddress":"Thalkirchner Str. 54, 80337 München, Germany"}
{"timestamp":"2016-10-06T10:05:00+0200","id":124016,"name":"Sepp","coordinate":{"longitude":11.59860039,"latitude":48.12580109},"fuelLevel":0.9199999999999999,"lastAddress":"Rosenheimer Str. 125, 81667 München, Germany"}
{"timestamp":"2016-10-06T10:05:00+0200","id":124038,"name":"Magda","coordinate":{"longitude":11.60000038,"latitude":48.1283989},"fuelLevel":0.67,"lastAddress":"Pariser Pl., 81667 München, Germany"}
{"timestamp":"2016-10-06T10:05:00+0200","id":124022,"name":"Anne","coordinate":{"longitude":11.59659958,"latitude":48.1269989},"fuelLevel":0.8800000000000001,"lastAddress":"Rosenheimer Str. 84-86, 81667 München, Germany"}
{"timestamp":"2016-10-06T10:05:00+0200","id":124000,"name":"Bertl","coordinate":{"longitude":11.59689999,"latitude":48.12950134},"fuelLevel":0.82,"lastAddress":"Kellerstraße 34, 81667 München, Germany"}
{"timestamp":"2016-10-06T10:05:00+0200","id":124013,"name":"Poldi","coordinate":{"longitude":11.5941,"latitude":48.12799835},"fuelLevel":0.79,"lastAddress":"Franziskanerstraße 3, 81669 München, Germany"}
{"timestamp":"2016-10-06T10:05:00+0200","id":124011,"name":"Maxl","coordinate":{"longitude":11.5934,"latitude":48.12559891},"fuelLevel":0.7899999999999999,"lastAddress":"Barnabasstraße 3, 81669 München, Germany"}
{"timestamp":"2016-10-06T10:05:00+0200","id":124003,"name":"Franzl","coordinate":{"longitude":11.59280014,"latitude":48.12739944},"fuelLevel":0.8,"lastAddress":"Franziskanerstraße 8, 81669 München, Germany"}
{"timestamp":"2016-10-06T10:05:00+0200","id":124010,"name":"Luitpold","coordinate":{"longitude":11.58450031,"latitude":48.12770081},"fuelLevel":0.9500000000000001,"lastAddress":"Lilienstraße 66, 81669 München, Germany"}
{"timestamp":"2016-10-06T10:05:00+0200","id":124006,"name":"Gustl","coordinate":{"longitude":11.57740021,"latitude":48.12110138},"fuelLevel":0.9400000000000001,"lastAddress":"Falkenstraße 44, 81541 München, Germany"}
{"timestamp":"2016-10-06T10:05:00+0200","id":124020,"name":"Vinzenz","coordinate":{"longitude":11.57689953,"latitude":48.12459946},"fuelLevel":0.8999999999999999,"lastAddress":"Albanistraße 3, 81541 München, Germany"}
{"timestamp":"2016-10-06T10:05:00+0200","id":124049,"name":"Marei","coordinate":{"longitude":11.57460022,"latitude":48.11970139},"fuelLevel":0.69,"lastAddress":"Humboldtstraße 30, 81543 München, Germany"}
{"timestamp":"2016-10-06T10:05:00+0200","id":124045,"name":"Vroni","coordinate":{"longitude":11.56729984,"latitude":48.12779999},"fuelLevel":0.9199999999999999,"lastAddress":"Pestalozzistraße 54, 80469 München, Germany"}
{"timestamp":"2016-10-06T10:05:00+0200","id":124018,"name":"Toni","coordinate":{"longitude":11.56989956,"latitude":48.13059998},"fuelLevel":0.9199999999999999,"lastAddress":"Hans-Sachs-Straße 2A, 80469 München, Germany"}
{"timestamp":"2016-10-06T10:05:00+0200","id":124012,"name":"Peter","coordinate":{"longitude":11.57250023,"latitude":48.1495018},"fuelLevel":1,"lastAddress":"Barer Str. 46, 80799 München, Germany"}
{"timestamp":"2016-10-06T10:05:00+0200","id":124004,"name":"Fridl","coordinate":{"longitude":11.56610012,"latitude":48.15650177},"fuelLevel":0.55,"lastAddress":"Hiltenspergerstraße 6, 80798 München, Germany"}
{"timestamp":"2016-10-06T10:05:00+0200","id":124031,"name":"Heidi","coordinate":{"longitude":11.56639957,"latitude":48.15010071},"fuelLevel":0.8,"lastAddress":"Luisenstraße 55, 80333 München, Germany"}
{"timestamp":"2016-10-06T10:05:00+0200","id":124047,"name":"Walli","coordinate":{"longitude":11.56999969,"latitude":48.15050125},"fuelLevel":0.83,"lastAddress":"Arcisstraße 32, 80799 München, Germany"}
{"timestamp":"2016-10-06T10:05:00+0200","id":124002,"name":"Ferdl","coordinate":{"longitude":11.56439972,"latitude":48.15209961},"fuelLevel":0.9500000000000001,"lastAddress":"Heßstraße 39/41, 80798 München, Germany"}
{"timestamp":"2016-10-06T10:05:00+0200","id":124048,"name":"Wiggerl","coordinate":{"longitude":11.57870007,"latitude":48.16080093},"fuelLevel":0.68,"lastAddress":"Kaiserstraße 47, 80801 München, Germany"}
{"timestamp":"2016-10-06T10:05:00+0200","id":124028,"name":"Gitte","coordinate":{"longitude":11.5770998,"latitude":48.16009903},"fuelLevel":0.75,"lastAddress":"Hohenzollernstraße 41, 80801 München, Germany"}
{"timestamp":"2016-10-06T10:05:00+0200","id":124027,"name":"Fanni","coordinate":{"longitude":11.57789993,"latitude":48.15950012},"fuelLevel":0.7899999999999999,"lastAddress":"Römerstraße 14, 80801 München, Germany"}
{"timestamp":"2016-10-06T10:05:00+0200","id":124005,"name":"Georg","coordinate":{"longitude":11.58160019,"latitude":48.15869904},"fuelLevel":0.66,"lastAddress":"Ainmillerstraße 15, 80801 München, Germany"}
{"timestamp":"2016-10-06T10:05:00+0200","id":124032,"name":"Irmi","coordinate":{"longitude":11.57320023,"latitude":48.16040039},"fuelLevel":0.64,"lastAddress":"Isabellastraße 49, 80796 München, Germany"}
{"timestamp":"2016-10-06T10:05:00+0200","id":124037,"name":"Luise","coordinate":{"longitude":11.56630039,"latitude":48.15779877},"fuelLevel":0.58,"lastAddress":"Agnesstraße 35, 80798 München, Germany"}
{"timestamp":"2016-10-06T10:05:00+0200","id":124017,"name":"Siggi","coordinate":{"longitude":11.57129955,"latitude":48.16120148},"fuelLevel":0.56,"lastAddress":"Emanuelstraße 13, 80796 München, Germany"}
{"timestamp":"2016-10-06T10:05:00+0200","id":124029,"name":"Hannah","coordinate":{"longitude":11.51029968,"latitude":48.04539871},"fuelLevel":0.7,"lastAddress":"Gistlstraße 159, 82049 Pullach im Isartal, Germany"}
{"timestamp":"2016-10-06T10:05:00+0200","id":124008,"name":"Johann","coordinate":{"longitude":11.51000023,"latitude":48.04539871},"fuelLevel":0.87,"lastAddress":"Gistlstraße 159, 82049 Pullach im Isartal, Germany"}
{"timestamp":"2016-10-06T10:05:00+0200","id":124039,"name":"Marie","coordinate":{"longitude":11.50959969,"latitude":48.04560089},"fuelLevel":0.58,"lastAddress":"Seitnerstraße 70, 82049 Pullach im Isartal, Germany"}
{"timestamp":"2016-10-06T10:05:00+0200","id":124009,"name":"Ludwig","coordinate":{"longitude":11.58469963,"latitude":48.16210175},"fuelLevel":0.8999999999999999,"lastAddress":"Herzogstraße 5-7, 80803 München, Germany"}
{"timestamp":"2016-10-06T10:05:00+0200","id":124007,"name":"Jakob","coordinate":{"longitude":11.57479954,"latitude":48.16719818},"fuelLevel":0.9400000000000001,"lastAddress":"Karl-Theodor-Straße 80, 80803 München, Germany"}