{"timestamp":"2016-09-28T18:05:00+0200","id":124041,"name":"Sophie","coordinate":{"longitude":11.57769966,"latitude":48.15000153},"fuelLevel":0.93,"lastAddress":"Schellingstraße 18, 80799 München, Germany"}
{"timestamp":"2016-09-28T18:05:00+0200","id":124026,"name":"Eva","coordinate":{"longitude":11.57820034,"latitude":48.15359879},"fuelLevel":0.61,"lastAddress":"Türkenstraße 95, 80799 München, Germany"}
{"timestamp":"2016-09-28T18:05:00+0200","id":124025,"name":"Elli","coordinate":{"longitude":11.57820034,"latitude":48.15319824},"fuelLevel":0.85,"lastAddress":"Akademiestraße 25, 80799 München, Germany"}
{"timestamp":"2016-09-28T18:05:00+0200","id":124033,"name":"Johanna","coordinate":{"longitude":11.57929993,"latitude":48.15650177},"fuelLevel":0.89,"lastAddress":"Hohenstaufenstraße 14, 80801 München, Germany"}
{"timestamp":"2016-09-28T18:05:00+0200","id":124036,"name":"Liesel","coordinate":{"longitude":11.57509995,"latitude":48.15629959},"fuelLevel":0.6699999999999999,"lastAddress":"Nordendstraße 29, 80801 München, Germany"}
{"timestamp":"2016-09-28T18:05:00+0200","id":124044,"name":"Uschi","coordinate":{"longitude":11.57579994,"latitude":48.13019943},"fuelLevel":0.51,"lastAddress":"Reichenbachstraße 24, 80469 München, Germany"}
{"timestamp":"2016-09-28T18:05:00+0200","id":124021,"name":"Xaver","coordinate":{"longitude":11.58049965,"latitude":48.13169861},"fuelLevel":0.52,"lastAddress":"Kohlstraße 4, 80469 München, Germany"}
{"timestamp":"2016-09-28T18:05:00+0200","id":124014,"name":"Quirin","coordinate":{"longitude":11.60929966,"latitude":48.1257019},"fuelLevel":0.62,"lastAddress":"Haager Str. 14, 81671 München, Germany"}
{"timestamp":"2016-09-28T18:05:00+0200","id":124034,"name":"Kathi","coordinate":{"longitude":11.60499954,"latitude":48.13230133},"fuelLevel":0.67,"lastAddress":"Elsässer Str. 6, 81667 München, Germany"}
{"timestamp":"2016-09-28T18:05:00+0200","id":124030,"name":"Hedwig","coordinate":{"longitude":11.56299973,"latitude":48.12670135},"fuelLevel":0.9099999999999999,"lastAddress":"Thalkirchner Str. 66-68, 80337 München, Germany"}
{"timestamp":"2016-09-28T18:05:00+0200","id":124023,"name":"Babsi","coordinate":{"longitude":11.56369972,"latitude":48.1269989},"fuelLevel":0.93,"lastAddress":"Thalkirchner Str. 54, 80337 München, Germany"}
{"timestamp":"2016-09-28T18:05:00+0200","id":124038,"name":"Magda","coordinate":{"longitude":11.60050011,"latitude":48.12820053},"fuelLevel":0.76,"lastAddress":"Weißenburger Str. 36, 81667 München, Germany"}
{"timestamp":"2016-09-28T18:05:00+0200","id":124022,"name":"Anne","coordinate":{"longitude":11.59720039,"latitude":48.12720108},"fuelLevel":0.8900000000000001,"lastAddress":"Rosenheimer Str. 101, 81667 München, Germany"}
{"timestamp":"2016-09-28T18:05:00+0200","id":124000,"name":"Bertl","coordinate":{"longitude":11.59459972,"latitude":48.12960052},"fuelLevel":0.8500000000000001,"lastAddress":"Steinstraße 68, 81667 München, Germany"}
{"timestamp":"2016-09-28T18:05:00+0200","id":124013,"name":"Poldi","coordinate":{"longitude":11.59469986,"latitude":48.12689972},"fuelLevel":0.83,"lastAddress":"Balanstraße 14, 81669 München, Germany"}
{"timestamp":"2016-09-28T18:05:00+0200","id":124011,"name":"Maxl","coordinate":{"longitude":11.59300041,"latitude":48.1257019},"fuelLevel":0.8099999999999999,"lastAddress":"Sieboldstraße 7, 81669 München, Germany"}
{"timestamp":"2016-09-28T18:05:00+0200","id":124003,"name":"Franzl","coordinate":{"longitude":11.58959961,"latitude":48.12519836},"fuelLevel":0.88,"lastAddress":"Franziskanerstraße 34, 81669 München, Germany"}
{"timestamp":"2016-09-28T18:05:00+0200","id":124010,"name":"Luitpold","coordinate":{"longitude":11.58609962,"latitude":48.12580109},"fuelLevel":0.88,"lastAddress":"Gebsattelstraße 2, 81541 München, Germany"}
{"timestamp":"2016-09-28T18:05:00+0200","id":124019,"name":"Valentin","coordinate":{"longitude":11.58479977,"latitude":48.12360001},"fuelLevel":0.9199999999999999,"lastAddress":"Hochstraße 49C, 81541 München, Germany"}
{"timestamp":"2016-09-28T18:05:00+0200","id":124035,"name":"Leonie","coordinate":{"longitude":11.58580017,"latitude":48.1291008},"fuelLevel":0.7899999999999999,"lastAddress":"Schwarzstraße 4, 81669 München, Germany"}
{"timestamp":"2016-09-28T18:05:00+0200","id":124006,"name":"Gustl","coordinate":{"longitude":11.5777998,"latitude":48.1208992},"fuelLevel":0.93,"lastAddress":"Falkenstraße 43, 81541 München, Germany"}
{"timestamp":"2016-09-28T18:05:00+0200","id":124020,"name":"Vinzenz","coordinate":{"longitude":11.5795002,"latitude":48.12329865},"fuelLevel":0.9299999999999999,"lastAddress":"Albanistraße 19, 81541 München, Germany"}
{"timestamp":"2016-09-28T18:05:00+0200","id":124049,"name":"Marei","coordinate":{"longitude":11.57419968,"latitude":48.12009811},"fuelLevel":0.7200000000000001,"lastAddress":"Oefelestraße 5, 81543 München, Germany"}
{"timestamp":"2016-09-28T18:05:00+0200","id":124045,"name":"Vroni","coordinate":{"longitude":11.56700039,"latitude":48.1283989},"fuelLevel":0.9199999999999999,"lastAddress":"Pestalozzistraße 46, 80469 München, Germany"}
{"timestamp":"2016-09-28T18:05:00+0200","id":124018,"name":"Toni","coordinate":{"longitude":11.56879997,"latitude":48.12659836},"fuelLevel":0.9500000000000001,"lastAddress":"Jahnstraße 45, 80469 München, Germany"}
{"timestamp":"2016-09-28T18:05:00+0200","id":124004,"name":"Fridl","coordinate":{"longitude":11.56630039,"latitude":48.15650177},"fuelLevel":0.9500000000000001,"lastAddress":"Hiltenspergerstraße 6, 80798 München, Germany"}
{"timestamp":"2016-09-28T18:05:00+0200","id":124031,"name":"Heidi","coordinate":{"longitude":11.56649971,"latitude":48.15000153},"fuelLevel":0.8,"lastAddress":"Luisenstraße 53, 80333 München, Germany"}
{"timestamp":"2016-09-28T18:05:00+0200","id":124047,"name":"Walli","coordinate":{"longitude":11.5710001,"latitude":48.15589905},"fuelLevel":0.8999999999999999,"lastAddress":"Isabellastraße 8, 80798 München, Germany"}
{"timestamp":"2016-09-28T18:05:00+0200","id":124002,"name":"Ferdl","coordinate":{"longitude":11.56429958,"latitude":48.15110016},"fuelLevel":0.9500000000000001,"lastAddress":"Theresienstraße 124, 80333 München, Germany"}
{"timestamp":"2016-09-28T18:05:00+0200","id":124048,"name":"Wiggerl","coordinate":{"longitude":11.57750034,"latitude":48.15930176},"fuelLevel":0.7200000000000001,"lastAddress":"Römerstraße 10, 80801 München, Germany"}
{"timestamp":"2016-09-28T18:05:00+0200","id":124028,"name":"Gitte","coordinate":{"longitude":11.57979965,"latitude":48.15999985},"fuelLevel":0.77,"lastAddress":"Hohenzollernstraße 44, 80801 München, Germany"}
{"timestamp":"2016-09-28T18:05:00+0200","id":124005,"name":"Georg","coordinate":{"longitude":11.58119965,"latitude":48.15869904},"fuelLevel":0.69,"lastAddress":"Ainmillerstraße 17, 80801 München, Germany"}
{"timestamp":"2016-09-28T18:05:00+0200","id":124032,"name":"Irmi","coordinate":{"longitude":11.57330036,"latitude":48.16030121},"fuelLevel":0.64,"lastAddress":"Isabellastraße 48, 80796 München, Germany"}
{"timestamp":"2016-09-28T18:05:00+0200","id":124037,"name":"Luise","coordinate":{"longitude":11.56509972,"latitude":48.16059875},"fuelLevel":0.9400000000000001,"lastAddress":"Zentnerstraße 46, 80796 München, Germany"}
{"timestamp":"2016-09-28T18:05:00+0200","id":124017,"name":"Siggi","coordinate":{"longitude":11.57089996,"latitude":48.16090012},"fuelLevel":0.56,"lastAddress":"Hohenzollernstraße 112, 80796 München, Germany"}
{"timestamp":"2016-09-28T18:05:00+0200","id":124029,"name":"Hannah","coordinate":{"longitude":11.51010036,"latitude":48.04539871},"fuelLevel":0.7,"lastAddress":"Gistlstraße 159, 82049 Pullach im Isartal, Germany"}
{"timestamp":"2016-09-28T18:05:00+0200","id":124042,"name":"Tilli","coordinate":{"longitude":11.50949955,"latitude":48.04550171},"fuelLevel":0.77,"lastAddress":"Seitnerstraße 70, 82049 Pullach im Isartal, Germany"}
{"timestamp":"2016-09-28T18:05:00+0200","id":124009,"name":"Ludwig","coordinate":{"longitude":11.57820034,"latitude":48.16439819},"fuelLevel":0.9400000000000001,"lastAddress":"Cherubinistraße 4, 80803 München, Germany"}
{"timestamp":"2016-09-28T18:05:00+0200","id":124007,"name":"Jakob","coordinate":{"longitude":11.58640003,"latitude":48.16379929},"fuelLevel":0.9500000000000001,"lastAddress":"Leopoldstraße 85, 80802 München, Germany"}