{"timestamp":"2016-10-29T02:20:00+0200","id":124041,"name":"Sophie","coordinate":{"longitude":11.57962036,"latitude":48.15280151},"fuelLevel":0.72,"lastAddress":"Akademiestraße 11, 80799 München, Germany"}
{"timestamp":"2016-10-29T02:20:00+0200","id":124026,"name":"Eva","coordinate":{"longitude":11.57980347,"latitude":48.15267944},"fuelLevel":0.89,"lastAddress":"Akademiestraße 11, 80799 München, Germany"}
{"timestamp":"2016-10-29T02:20:00+0200","id":124025,"name":"Elli","coordinate":{"longitude":11.57620239,"latitude":48.15579224},"fuelLevel":0.6900000000000001,"lastAddress":"Konradstraße 2, 80801 München, Germany"}
{"timestamp":"2016-10-29T02:20:00+0200","id":124033,"name":"Johanna","coordinate":{"longitude":11.5783844,"latitude":48.15310669},"fuelLevel":0.55,"lastAddress":"Akademiestraße 4, 80799 München, Germany"}
{"timestamp":"2016-10-29T02:20:00+0200","id":124036,"name":"Liesel","coordinate":{"longitude":11.58058167,"latitude":48.15170288},"fuelLevel":0.8099999999999999,"lastAddress":"Adalbertstraße 12, 80799 München, Germany"}
{"timestamp":"2016-10-29T02:20:00+0200","id":124044,"name":"Uschi","coordinate":{"longitude":11.57139969,"latitude":48.13219833},"fuelLevel":0.5902777777777778,"lastAddress":"Blumenstraße 23, 80331 München, Germany"}
{"timestamp":"2016-10-29T02:20:00+0200","id":124040,"name":"Reserl","coordinate":{"longitude":11.57269955,"latitude":48.1332016},"fuelLevel":0.62,"lastAddress":"Blumenstraße 28, 80331 München, Germany"}
{"timestamp":"2016-10-29T02:20:00+0200","id":124021,"name":"Xaver","coordinate":{"longitude":11.57196045,"latitude":48.1309967},"fuelLevel":0.88,"lastAddress":"Fraunhoferstraße 4, 80469 München, Germany"}
{"timestamp":"2016-10-29T02:20:00+0200","id":124030,"name":"Hedwig","coordinate":{"longitude":11.56257629,"latitude":48.12600708},"fuelLevel":0.9236111111111112,"lastAddress":"Thalkirchner Str. 78, 80337 München, Germany"}
{"timestamp":"2016-10-29T02:20:00+0200","id":124022,"name":"Anne","coordinate":{"longitude":11.59860229,"latitude":48.1257782},"fuelLevel":0.5782312925170068,"lastAddress":"Rosenheimer Str. 100-102, 81667 München, Germany"}
{"timestamp":"2016-10-29T02:20:00+0200","id":124000,"name":"Bertl","coordinate":{"longitude":11.59971619,"latitude":48.12809753},"fuelLevel":0.8,"lastAddress":"Pariser Str. 27-29, 81667 München, Germany"}
{"timestamp":"2016-10-29T02:20:00+0200","id":124013,"name":"Poldi","coordinate":{"longitude":11.59028625,"latitude":48.12538147},"fuelLevel":0.86,"lastAddress":"Franziskanerstraße 43, 81669 München, Germany"}
{"timestamp":"2016-10-29T02:20:00+0200","id":124011,"name":"Maxl","coordinate":{"longitude":11.5974884,"latitude":48.1242981},"fuelLevel":0.61,"lastAddress":"Orleansstraße 1, 81669 München, Germany"}
{"timestamp":"2016-10-29T02:20:00+0200","id":124003,"name":"Franzl","coordinate":{"longitude":11.59901428,"latitude":48.12550354},"fuelLevel":0.88,"lastAddress":"Rosenheimer Str. 106, 81669 München, Germany"}
{"timestamp":"2016-10-29T02:20:00+0200","id":124010,"name":"Luitpold","coordinate":{"longitude":11.58189964,"latitude":48.12720108},"fuelLevel":0.4097222222222222,"lastAddress":"Schweigerstraße 8, 81541 München, Germany"}
{"timestamp":"2016-10-29T02:20:00+0200","id":124019,"name":"Valentin","coordinate":{"longitude":11.58181763,"latitude":48.12519836},"fuelLevel":0.76,"lastAddress":"Mariahilfpl. 23, 81541 München, Germany"}
{"timestamp":"2016-10-29T02:20:00+0200","id":124035,"name":"Leonie","coordinate":{"longitude":11.58399963,"latitude":48.12850952},"fuelLevel":0.8639455782312925,"lastAddress":"Zeppelinstraße 47, 81669 München, Germany"}
{"timestamp":"2016-10-29T02:20:00+0200","id":124006,"name":"Gustl","coordinate":{"longitude":11.57888794,"latitude":48.12356567},"fuelLevel":0.7100000000000001,"lastAddress":"Entenbachstrasse 15, Entenbachstraße, 81541 München, Germany"}
{"timestamp":"2016-10-29T02:20:00+0200","id":124020,"name":"Vinzenz","coordinate":{"longitude":11.57893372,"latitude":48.12327576},"fuelLevel":0.79,"lastAddress":"Albanistraße 17, 81541 München, Germany"}
{"timestamp":"2016-10-29T02:20:00+0200","id":124049,"name":"Marei","coordinate":{"longitude":11.57919312,"latitude":48.12461853},"fuelLevel":0.62,"lastAddress":"Boosstraße 17, 81541 München, Germany"}
{"timestamp":"2016-10-29T02:20:00+0200","id":124045,"name":"Vroni","coordinate":{"longitude":11.56848145,"latitude":48.1309967},"fuelLevel":0.5902777777777778,"lastAddress":"Holzstraße 2, 80469 München, Germany"}
{"timestamp":"2016-10-29T02:20:00+0200","id":124018,"name":"Toni","coordinate":{"longitude":11.57059956,"latitude":48.13019943},"fuelLevel":0.6499999999999999,"lastAddress":"Hans-Sachs-Straße 5, 80469 München, Germany"}
{"timestamp":"2016-10-29T02:20:00+0200","id":124012,"name":"Peter","coordinate":{"longitude":11.55659485,"latitude":48.15480042},"fuelLevel":0.8800000000000001,"lastAddress":"Heßstraße 108, 80797 München, Germany"}
{"timestamp":"2016-10-29T02:20:00+0200","id":124004,"name":"Fridl","coordinate":{"longitude":11.56219482,"latitude":48.15699768},"fuelLevel":0.55,"lastAddress":"Schleißheimer Str. 77, 80797 München, Germany"}
{"timestamp":"2016-10-29T02:20:00+0200","id":124031,"name":"Heidi","coordinate":{"longitude":11.56980896,"latitude":48.14942932},"fuelLevel":0.6388888888888888,"lastAddress":"Theresienstraße 90, 80333 München, Germany"}
{"timestamp":"2016-10-29T02:20:00+0200","id":124048,"name":"Wiggerl","coordinate":{"longitude":11.57530022,"latitude":48.15890121},"fuelLevel":0.6000000000000001,"lastAddress":"Nordendstraße 62, 80801 München, Germany"}
{"timestamp":"2016-10-29T02:20:00+0200","id":124028,"name":"Gitte","coordinate":{"longitude":11.57580566,"latitude":48.16011047},"fuelLevel":0.7200000000000001,"lastAddress":"Hohenzollernstraße 49, 80801 München, Germany"}
{"timestamp":"2016-10-29T02:20:00+0200","id":124027,"name":"Fanni","coordinate":{"longitude":11.58470154,"latitude":48.16210938},"fuelLevel":0.6900000000000001,"lastAddress":"Herzogstraße 5-7, 80803 München, Germany"}
{"timestamp":"2016-10-29T02:20:00+0200","id":124005,"name":"Georg","coordinate":{"longitude":11.57679749,"latitude":48.15800476},"fuelLevel":0.8500000000000001,"lastAddress":"Römerstraße 1, 80801 München, Germany"}
{"timestamp":"2016-10-29T02:20:00+0200","id":124001,"name":"Edmund","coordinate":{"longitude":11.57940674,"latitude":48.15789795},"fuelLevel":0.7999999999999999,"lastAddress":"Franz-Joseph-Straße 26, 80801 München, Germany"}
{"timestamp":"2016-10-29T02:20:00+0200","id":124032,"name":"Irmi","coordinate":{"longitude":11.5749054,"latitude":48.15890503},"fuelLevel":0.57,"lastAddress":"Nordendstraße 62-64, 80801 München, Germany"}
{"timestamp":"2016-10-29T02:20:00+0200","id":124029,"name":"Hannah","coordinate":{"longitude":11.50990295,"latitude":48.04550171},"fuelLevel":0.81,"lastAddress":"Gistlstraße 159, 82049 Pullach im Isartal, Germany"}
{"timestamp":"2016-10-29T02:20:00+0200","id":124008,"name":"Johann","coordinate":{"longitude":11.50950623,"latitude":48.04550171},"fuelLevel":0.6944444444444444,"lastAddress":"Seitnerstraße 70, 82049 Pullach im Isartal, Germany"}
{"timestamp":"2016-10-29T02:20:00+0200","id":124039,"name":"Marie","coordinate":{"longitude":11.50990295,"latitude":48.0453186},"fuelLevel":0.82,"lastAddress":"Gistlstraße 159, 82049 Pullach im Isartal, Germany"}
{"timestamp":"2016-10-29T02:20:00+0200","id":124009,"name":"Ludwig","coordinate":{"longitude":11.5763092,"latitude":48.16699219},"fuelLevel":0.76,"lastAddress":"Karl-Theodor-Straße 72, 80803 München, Germany"}
{"timestamp":"2016-10-29T02:20:00+0200","id":124007,"name":"Jakob","coordinate":{"longitude":11.57429504,"latitude":48.16438293},"fuelLevel":0.84,"lastAddress":"Belgradstraße 37, 80796 München, Germany"}