{"timestamp":"2016-12-01T03:25:01+0100","id":124014,"name":"Quirin","coordinate":{"longitude":11.59739685,"latitude":48.13441467},"fuelLevel":0.8500000000000001,"lastAddress":"Innere Wiener Straße 54, 81667 München, Germany"}
{"timestamp":"2016-12-01T03:25:01+0100","id":124034,"name":"Kathi","coordinate":{"longitude":11.60549927,"latitude":48.13218689},"fuelLevel":0.62,"lastAddress":"Spicherenstraße 3, 81667 München, Germany"}
{"timestamp":"2016-12-01T03:25:01+0100","id":124022,"name":"Anne","coordinate":{"longitude":11.59989929,"latitude":48.12799072},"fuelLevel":0.63,"lastAddress":"Pariser Str. 38, 81667 München, Germany"}
{"timestamp":"2016-12-01T03:25:01+0100","id":124000,"name":"Bertl","coordinate":{"longitude":11.60560608,"latitude":48.13201904},"fuelLevel":0.6180555555555556,"lastAddress":"Spicherenstraße 3, 81667 München, Germany"}
{"timestamp":"2016-12-01T03:25:01+0100","id":124010,"name":"Luitpold","coordinate":{"longitude":11.58459473,"latitude":48.12870789},"fuelLevel":0.59,"lastAddress":"Zeppelinstraße 55, 81669 München, Germany"}
{"timestamp":"2016-12-01T03:25:01+0100","id":124019,"name":"Valentin","coordinate":{"longitude":11.58338928,"latitude":48.12240601},"fuelLevel":0.52,"lastAddress":"Hochstraße 75, 81541 München, Germany"}
{"timestamp":"2016-12-01T03:25:01+0100","id":124035,"name":"Leonie","coordinate":{"longitude":11.58441162,"latitude":48.12739563},"fuelLevel":0.7100000000000001,"lastAddress":"Lilienstraße 77, 81669 München, Germany"}
{"timestamp":"2016-12-01T03:25:01+0100","id":124018,"name":"Toni","coordinate":{"longitude":11.56611633,"latitude":48.12670898},"fuelLevel":0.6388888888888888,"lastAddress":"Pestalozzistraße 60, 80469 München, Germany"}
{"timestamp":"2016-12-01T03:25:01+0100","id":124012,"name":"Peter","coordinate":{"longitude":11.56110001,"latitude":48.15739822},"fuelLevel":0.5599999999999999,"lastAddress":"Georgenstraße 121-123, 80797 München, Germany"}
{"timestamp":"2016-12-01T03:25:01+0100","id":124004,"name":"Fridl","coordinate":{"longitude":11.5564003,"latitude":48.15499878},"fuelLevel":0.7799999999999999,"lastAddress":"Heßstraße 110, 80797 München, Germany"}
{"timestamp":"2016-12-01T03:25:01+0100","id":124029,"name":"Hannah","coordinate":{"longitude":11.50978088,"latitude":48.04537964},"fuelLevel":0.6000000000000001,"lastAddress":"Seitnerstraße 70, 82049 Pullach im Isartal, Germany"}
{"timestamp":"2016-12-01T03:25:01+0100","id":124039,"name":"Marie","coordinate":{"longitude":11.50629997,"latitude":48.04370117},"fuelLevel":0.71,"lastAddress":"Wolfratshauser Str. 138, 82049 Pullach im Isartal, Germany"}