{"timestamp":"2016-10-22T17:20:32+0200","id":124025,"name":"Elli","coordinate":{"longitude":11.57929993,"latitude":48.15568542},"fuelLevel":0.8300000000000001,"lastAddress":"Konradstraße 16, 80801 München, Germany"}
{"timestamp":"2016-10-22T17:20:32+0200","id":124033,"name":"Johanna","coordinate":{"longitude":11.57754517,"latitude":48.1499176},"fuelLevel":0.57,"lastAddress":"Schellingstraße 18, 80799 München, Germany"}
{"timestamp":"2016-10-22T17:20:32+0200","id":124014,"name":"Quirin","coordinate":{"longitude":11.59700012,"latitude":48.13439941},"fuelLevel":0.5299999999999999,"lastAddress":"Innere Wiener Straße 55, 81667 München, Germany"}
{"timestamp":"2016-10-22T17:20:32+0200","id":124030,"name":"Hedwig","coordinate":{"longitude":11.61260033,"latitude":48.12179947},"fuelLevel":0.9236111111111112,"lastAddress":"Aschheimer Str. 21, 81671 München, Germany"}
{"timestamp":"2016-10-22T17:20:32+0200","id":124022,"name":"Anne","coordinate":{"longitude":11.59718323,"latitude":48.13240051},"fuelLevel":0.65,"lastAddress":"Preysingstraße 35, 81667 München, Germany"}
{"timestamp":"2016-10-22T17:20:32+0200","id":124013,"name":"Poldi","coordinate":{"longitude":11.59179974,"latitude":48.12799835},"fuelLevel":0.61,"lastAddress":"Gallmayerstraße 8, 81669 München, Germany"}
{"timestamp":"2016-10-22T17:20:32+0200","id":124011,"name":"Maxl","coordinate":{"longitude":11.59759521,"latitude":48.12408447},"fuelLevel":0.61,"lastAddress":"Orleansstraße 4A, 81669 München, Germany"}
{"timestamp":"2016-10-22T17:20:32+0200","id":124019,"name":"Valentin","coordinate":{"longitude":11.58200073,"latitude":48.12519836},"fuelLevel":0.76,"lastAddress":"Mariahilfpl. 23, 81541 München, Germany"}
{"timestamp":"2016-10-22T17:20:32+0200","id":124035,"name":"Leonie","coordinate":{"longitude":11.58670044,"latitude":48.13050079},"fuelLevel":0.7000000000000001,"lastAddress":"Zeppelinstraße 77, 81669 München, Germany"}
{"timestamp":"2016-10-22T17:20:32+0200","id":124006,"name":"Gustl","coordinate":{"longitude":11.57725525,"latitude":48.12413025},"fuelLevel":0.8300000000000001,"lastAddress":"Albanistraße 8, 81541 München, Germany"}
{"timestamp":"2016-10-22T17:20:32+0200","id":124020,"name":"Vinzenz","coordinate":{"longitude":11.57801819,"latitude":48.12539673},"fuelLevel":0.75,"lastAddress":"Boosstraße 9, 81541 München, Germany"}
{"timestamp":"2016-10-22T17:20:32+0200","id":124045,"name":"Vroni","coordinate":{"longitude":11.56520081,"latitude":48.12399292},"fuelLevel":0.64,"lastAddress":"Kapuzinerstraße 39, 80469 München, Germany"}
{"timestamp":"2016-10-22T17:20:32+0200","id":124018,"name":"Toni","coordinate":{"longitude":11.57149982,"latitude":48.13280106},"fuelLevel":0.6499999999999999,"lastAddress":"Unterer Anger 3, 80331 München, Germany"}
{"timestamp":"2016-10-22T17:20:32+0200","id":124004,"name":"Fridl","coordinate":{"longitude":11.56260014,"latitude":48.1576004},"fuelLevel":0.58,"lastAddress":"Schleißheimer Str. 110, 80797 München, Germany"}
{"timestamp":"2016-10-22T17:20:32+0200","id":124048,"name":"Wiggerl","coordinate":{"longitude":11.57530212,"latitude":48.15892029},"fuelLevel":0.6000000000000001,"lastAddress":"Nordendstraße 62, 80801 München, Germany"}
{"timestamp":"2016-10-22T17:20:32+0200","id":124028,"name":"Gitte","coordinate":{"longitude":11.57569981,"latitude":48.15909958},"fuelLevel":0.7200000000000001,"lastAddress":"Ainmillerstraße 41, 80801 München, Germany"}
{"timestamp":"2016-10-22T17:20:32+0200","id":124032,"name":"Irmi","coordinate":{"longitude":11.56559753,"latitude":48.15930176},"fuelLevel":0.64,"lastAddress":"Zentnerstraße 38, 80798 München, Germany"}
{"timestamp":"2016-10-22T17:20:32+0200","id":124037,"name":"Luise","coordinate":{"longitude":11.57077026,"latitude":48.15660095},"fuelLevel":0.9099999999999999,"lastAddress":"Isabellastraße 17, 80798 München, Germany"}
{"timestamp":"2016-10-22T17:20:32+0200","id":124017,"name":"Siggi","coordinate":{"longitude":11.56781006,"latitude":48.15937805},"fuelLevel":0.54,"lastAddress":"Elisabethstraße 40, 80796 München, Germany"}
{"timestamp":"2016-10-22T17:20:32+0200","id":124039,"name":"Marie","coordinate":{"longitude":11.50990295,"latitude":48.0453186},"fuelLevel":0.82,"lastAddress":"Gistlstraße 159, 82049 Pullach im Isartal, Germany"}
{"timestamp":"2016-10-22T17:20:32+0200","id":124009,"name":"Ludwig","coordinate":{"longitude":11.58627319,"latitude":48.16564941},"fuelLevel":0.5,"lastAddress":"Leopoldstraße 97, 80802 München, Germany"}