{"timestamp":"2016-09-28T01:45:00+0200","id":124041,"name":"Sophie","coordinate":{"longitude":11.57750034,"latitude":48.14929962},"fuelLevel":0.93,"lastAddress":"Amalienstraße 49, 80799 München, Germany"}
{"timestamp":"2016-09-28T01:45:00+0200","id":124026,"name":"Eva","coordinate":{"longitude":11.57839966,"latitude":48.15359879},"fuelLevel":0.61,"lastAddress":"Türkenstraße 95, 80799 München, Germany"}
{"timestamp":"2016-09-28T01:45:00+0200","id":124025,"name":"Elli","coordinate":{"longitude":11.57800007,"latitude":48.15259933},"fuelLevel":0.85,"lastAddress":"Adalbertstraße 40, 80799 München, Germany"}
{"timestamp":"2016-09-28T01:45:00+0200","id":124033,"name":"Johanna","coordinate":{"longitude":11.57970047,"latitude":48.15639877},"fuelLevel":0.89,"lastAddress":"Friedrichstraße 13, 80801 München, Germany"}
{"timestamp":"2016-09-28T01:45:00+0200","id":124036,"name":"Liesel","coordinate":{"longitude":11.57520008,"latitude":48.15629959},"fuelLevel":0.6699999999999999,"lastAddress":"Nordendstraße 36, 80801 München, Germany"}
{"timestamp":"2016-09-28T01:45:00+0200","id":124044,"name":"Uschi","coordinate":{"longitude":11.57629967,"latitude":48.1310997},"fuelLevel":0.51,"lastAddress":"Reichenbachstraße 23, 80469 München, Germany"}
{"timestamp":"2016-09-28T01:45:00+0200","id":124024,"name":"Christl","coordinate":{"longitude":11.58040047,"latitude":48.13169861},"fuelLevel":0.83,"lastAddress":"Kohlstraße 4, 80469 München, Germany"}
{"timestamp":"2016-09-28T01:45:00+0200","id":124021,"name":"Xaver","coordinate":{"longitude":11.58040047,"latitude":48.13270187},"fuelLevel":0.52,"lastAddress":"Baaderstraße 12, 80469 München, Germany"}
{"timestamp":"2016-09-28T01:45:00+0200","id":124014,"name":"Quirin","coordinate":{"longitude":11.60929966,"latitude":48.12580109},"fuelLevel":0.62,"lastAddress":"Haager Str. 14, 81671 München, Germany"}
{"timestamp":"2016-09-28T01:45:00+0200","id":124034,"name":"Kathi","coordinate":{"longitude":11.60499954,"latitude":48.13230133},"fuelLevel":0.67,"lastAddress":"Elsässer Str. 6, 81667 München, Germany"}
{"timestamp":"2016-09-28T01:45:00+0200","id":124030,"name":"Hedwig","coordinate":{"longitude":11.56330013,"latitude":48.12649918},"fuelLevel":0.9099999999999999,"lastAddress":"Thalkirchner Str. 17, 80337 München, Germany"}
{"timestamp":"2016-09-28T01:45:00+0200","id":124023,"name":"Babsi","coordinate":{"longitude":11.56369972,"latitude":48.1269989},"fuelLevel":0.93,"lastAddress":"Thalkirchner Str. 54, 80337 München, Germany"}
{"timestamp":"2016-09-28T01:45:00+0200","id":124016,"name":"Sepp","coordinate":{"longitude":11.59799957,"latitude":48.12599945},"fuelLevel":0.9199999999999999,"lastAddress":"Rosenheimer Str. 98, 81669 München, Germany"}
{"timestamp":"2016-09-28T01:45:00+0200","id":124022,"name":"Anne","coordinate":{"longitude":11.59700012,"latitude":48.1269989},"fuelLevel":0.8900000000000001,"lastAddress":"Rosenheimer Str. 105, 81667 München, Germany"}
{"timestamp":"2016-09-28T01:45:00+0200","id":124000,"name":"Bertl","coordinate":{"longitude":11.59469986,"latitude":48.12960052},"fuelLevel":0.8500000000000001,"lastAddress":"Steinstraße 68, 81667 München, Germany"}
{"timestamp":"2016-09-28T01:45:00+0200","id":124013,"name":"Poldi","coordinate":{"longitude":11.59469986,"latitude":48.1269989},"fuelLevel":0.83,"lastAddress":"Balanstraße 14, 81669 München, Germany"}
{"timestamp":"2016-09-28T01:45:00+0200","id":124011,"name":"Maxl","coordinate":{"longitude":11.59290028,"latitude":48.12590027},"fuelLevel":0.8099999999999999,"lastAddress":"Sieboldstraße 5, 81669 München, Germany"}
{"timestamp":"2016-09-28T01:45:00+0200","id":124003,"name":"Franzl","coordinate":{"longitude":11.58950043,"latitude":48.125},"fuelLevel":0.88,"lastAddress":"Franziskanerstraße 47, 81669 München, Germany"}
{"timestamp":"2016-09-28T01:45:00+0200","id":124010,"name":"Luitpold","coordinate":{"longitude":11.58609962,"latitude":48.12599945},"fuelLevel":0.88,"lastAddress":"Hochstraße 33, 81541 München, Germany"}
{"timestamp":"2016-09-28T01:45:00+0200","id":124019,"name":"Valentin","coordinate":{"longitude":11.58530045,"latitude":48.12329865},"fuelLevel":0.9199999999999999,"lastAddress":"Hochstraße 51, 81541 München, Germany"}
{"timestamp":"2016-09-28T01:45:00+0200","id":124035,"name":"Leonie","coordinate":{"longitude":11.58580017,"latitude":48.1291008},"fuelLevel":0.7899999999999999,"lastAddress":"Schwarzstraße 4, 81669 München, Germany"}
{"timestamp":"2016-09-28T01:45:00+0200","id":124006,"name":"Gustl","coordinate":{"longitude":11.57740021,"latitude":48.12129974},"fuelLevel":0.93,"lastAddress":"Entenbachstraße 49, 81541 München, Germany"}
{"timestamp":"2016-09-28T01:45:00+0200","id":124020,"name":"Vinzenz","coordinate":{"longitude":11.57960033,"latitude":48.1230011},"fuelLevel":0.9299999999999999,"lastAddress":"Falkenstraße 18, 81541 München, Germany"}
{"timestamp":"2016-09-28T01:45:00+0200","id":124049,"name":"Marei","coordinate":{"longitude":11.57409954,"latitude":48.12020111},"fuelLevel":0.7200000000000001,"lastAddress":"Oefelestraße 12, 81543 München, Germany"}
{"timestamp":"2016-09-28T01:45:00+0200","id":124045,"name":"Vroni","coordinate":{"longitude":11.56729984,"latitude":48.12789917},"fuelLevel":0.9199999999999999,"lastAddress":"Pestalozzistraße 52A, 80469 München, Germany"}
{"timestamp":"2016-09-28T01:45:00+0200","id":124018,"name":"Toni","coordinate":{"longitude":11.56910038,"latitude":48.12659836},"fuelLevel":0.9500000000000001,"lastAddress":"Jahnstraße 45, 80469 München, Germany"}
{"timestamp":"2016-09-28T01:45:00+0200","id":124012,"name":"Peter","coordinate":{"longitude":11.57250023,"latitude":48.15000153},"fuelLevel":1,"lastAddress":"Barer Str. 29, 80799 München, Germany"}
{"timestamp":"2016-09-28T01:45:00+0200","id":124031,"name":"Heidi","coordinate":{"longitude":11.56669998,"latitude":48.14799881},"fuelLevel":0.8500000000000001,"lastAddress":"Gabelsbergerstraße 47, 80333 München, Germany"}
{"timestamp":"2016-09-28T01:45:00+0200","id":124047,"name":"Walli","coordinate":{"longitude":11.57139969,"latitude":48.15629959},"fuelLevel":0.8999999999999999,"lastAddress":"Georgenstraße 80, 80799 München, Germany"}
{"timestamp":"2016-09-28T01:45:00+0200","id":124002,"name":"Ferdl","coordinate":{"longitude":11.56400013,"latitude":48.15060043},"fuelLevel":0.48000000000000004,"lastAddress":"Augustenstraße 80, 80333 München, Germany"}
{"timestamp":"2016-09-28T01:45:00+0200","id":124048,"name":"Wiggerl","coordinate":{"longitude":11.57699966,"latitude":48.15879822},"fuelLevel":0.7200000000000001,"lastAddress":"Römerstraße 7, 80801 München, Germany"}
{"timestamp":"2016-09-28T01:45:00+0200","id":124028,"name":"Gitte","coordinate":{"longitude":11.58010006,"latitude":48.15869904},"fuelLevel":0.81,"lastAddress":"Habsburgerpl. 1, 80801 München, Germany"}
{"timestamp":"2016-09-28T01:45:00+0200","id":124027,"name":"Fanni","coordinate":{"longitude":11.5770998,"latitude":48.15930176},"fuelLevel":0.85,"lastAddress":"Römerstraße 9, 80801 München, Germany"}
{"timestamp":"2016-09-28T01:45:00+0200","id":124005,"name":"Georg","coordinate":{"longitude":11.58119965,"latitude":48.1590004},"fuelLevel":0.69,"lastAddress":"Ainmillerstraße 20, 80801 München, Germany"}
{"timestamp":"2016-09-28T01:45:00+0200","id":124032,"name":"Irmi","coordinate":{"longitude":11.57320023,"latitude":48.16030121},"fuelLevel":0.64,"lastAddress":"Isabellastraße 46-48, 80796 München, Germany"}
{"timestamp":"2016-09-28T01:45:00+0200","id":124037,"name":"Luise","coordinate":{"longitude":11.56529999,"latitude":48.16059875},"fuelLevel":0.9400000000000001,"lastAddress":"Zentnerstraße 46, 80796 München, Germany"}
{"timestamp":"2016-09-28T01:45:00+0200","id":124017,"name":"Siggi","coordinate":{"longitude":11.5710001,"latitude":48.16070175},"fuelLevel":0.56,"lastAddress":"Hohenzollernstraße 79, 80796 München, Germany"}
{"timestamp":"2016-09-28T01:45:00+0200","id":124029,"name":"Hannah","coordinate":{"longitude":11.51029968,"latitude":48.04520035},"fuelLevel":0.7,"lastAddress":"Gistlstraße 159, 82049 Pullach im Isartal, Germany"}
{"timestamp":"2016-09-28T01:45:00+0200","id":124039,"name":"Marie","coordinate":{"longitude":11.50979996,"latitude":48.04529953},"fuelLevel":0.89,"lastAddress":"Seitnerstraße 70, 82049 Pullach im Isartal, Germany"}
{"timestamp":"2016-09-28T01:45:00+0200","id":124009,"name":"Ludwig","coordinate":{"longitude":11.57859993,"latitude":48.16400146},"fuelLevel":0.9400000000000001,"lastAddress":"Clemensstraße 42, 80803 München, Germany"}
{"timestamp":"2016-09-28T01:45:00+0200","id":124007,"name":"Jakob","coordinate":{"longitude":11.58640003,"latitude":48.16389847},"fuelLevel":0.9500000000000001,"lastAddress":"Leopoldstraße 85, 80802 München, Germany"}