{"timestamp":"2016-10-02T19:05:00+0200","id":124041,"name":"Sophie","coordinate":{"longitude":11.57699966,"latitude":48.1495018},"fuelLevel":0.93,"lastAddress":"Amalienstraße 49A, 80799 München, Germany"}
{"timestamp":"2016-10-02T19:05:00+0200","id":124026,"name":"Eva","coordinate":{"longitude":11.57839966,"latitude":48.15430069},"fuelLevel":0.61,"lastAddress":"Türkenstraße 101, 80799 München, Germany"}
{"timestamp":"2016-10-02T19:05:00+0200","id":124025,"name":"Elli","coordinate":{"longitude":11.57579994,"latitude":48.15190125},"fuelLevel":0.9500000000000001,"lastAddress":"Blütenstraße 8, 80799 München, Germany"}
{"timestamp":"2016-10-02T19:05:00+0200","id":124033,"name":"Johanna","coordinate":{"longitude":11.58160019,"latitude":48.15169907},"fuelLevel":0.84,"lastAddress":"Leopoldstraße 4, 80802 München, Germany"}
{"timestamp":"2016-10-02T19:05:00+0200","id":124036,"name":"Liesel","coordinate":{"longitude":11.57499981,"latitude":48.15629959},"fuelLevel":0.6699999999999999,"lastAddress":"Nordendstraße 29, 80801 München, Germany"}
{"timestamp":"2016-10-02T19:05:00+0200","id":124024,"name":"Christl","coordinate":{"longitude":11.5795002,"latitude":48.13349915},"fuelLevel":0.8,"lastAddress":"Klenzestraße 3, 80469 München, Germany"}
{"timestamp":"2016-10-02T19:05:00+0200","id":124040,"name":"Reserl","coordinate":{"longitude":11.57180023,"latitude":48.13159943},"fuelLevel":0.89,"lastAddress":"Müllerstraße 26, 80469 München, Germany"}
{"timestamp":"2016-10-02T19:05:00+0200","id":124021,"name":"Xaver","coordinate":{"longitude":11.58059978,"latitude":48.13180161},"fuelLevel":0.52,"lastAddress":"Kohlstraße 4, 80469 München, Germany"}
{"timestamp":"2016-10-02T19:05:00+0200","id":124014,"name":"Quirin","coordinate":{"longitude":11.60840034,"latitude":48.13290024},"fuelLevel":0.6499999999999999,"lastAddress":"Kirchenstraße 87, 81675 München, Germany"}
{"timestamp":"2016-10-02T19:05:00+0200","id":124034,"name":"Kathi","coordinate":{"longitude":11.60449982,"latitude":48.13190079},"fuelLevel":0.67,"lastAddress":"Elsässer Str. 16, 81667 München, Germany"}
{"timestamp":"2016-10-02T19:05:00+0200","id":124030,"name":"Hedwig","coordinate":{"longitude":11.56359959,"latitude":48.12749863},"fuelLevel":0.9199999999999999,"lastAddress":"Thalkirchner Str. 52, 80337 München, Germany"}
{"timestamp":"2016-10-02T19:05:00+0200","id":124023,"name":"Babsi","coordinate":{"longitude":11.56379986,"latitude":48.1271019},"fuelLevel":0.93,"lastAddress":"Thalkirchner Str. 54, 80337 München, Germany"}
{"timestamp":"2016-10-02T19:05:00+0200","id":124016,"name":"Sepp","coordinate":{"longitude":11.59850025,"latitude":48.12599945},"fuelLevel":0.9199999999999999,"lastAddress":"Rosenheimer Str. 123, 81667 München, Germany"}
{"timestamp":"2016-10-02T19:05:00+0200","id":124038,"name":"Magda","coordinate":{"longitude":11.60029984,"latitude":48.12799835},"fuelLevel":0.67,"lastAddress":"Gravelottestraße 1, 81667 München, Germany"}
{"timestamp":"2016-10-02T19:05:00+0200","id":124022,"name":"Anne","coordinate":{"longitude":11.59669971,"latitude":48.1269989},"fuelLevel":0.87,"lastAddress":"Rosenheimer Str. 103, 81667 München, Germany"}
{"timestamp":"2016-10-02T19:05:00+0200","id":124000,"name":"Bertl","coordinate":{"longitude":11.59729958,"latitude":48.12969971},"fuelLevel":0.82,"lastAddress":"Kellerstraße 45, 81667 München, Germany"}
{"timestamp":"2016-10-02T19:05:00+0200","id":124013,"name":"Poldi","coordinate":{"longitude":11.59459972,"latitude":48.12779999},"fuelLevel":0.79,"lastAddress":"Balanstraße 4, 81669 München, Germany"}
{"timestamp":"2016-10-02T19:05:00+0200","id":124011,"name":"Maxl","coordinate":{"longitude":11.59220028,"latitude":48.12590027},"fuelLevel":0.8099999999999999,"lastAddress":"Franziskanerstraße 14, 81669 München, Germany"}
{"timestamp":"2016-10-02T19:05:00+0200","id":124003,"name":"Franzl","coordinate":{"longitude":11.59300041,"latitude":48.12730026},"fuelLevel":0.79,"lastAddress":"Franziskanerstraße 8, 81669 München, Germany"}
{"timestamp":"2016-10-02T19:05:00+0200","id":124010,"name":"Luitpold","coordinate":{"longitude":11.58609962,"latitude":48.12580109},"fuelLevel":0.88,"lastAddress":"Gebsattelstraße 2, 81541 München, Germany"}
{"timestamp":"2016-10-02T19:05:00+0200","id":124019,"name":"Valentin","coordinate":{"longitude":11.58479977,"latitude":48.12390137},"fuelLevel":0.9199999999999999,"lastAddress":"Hochstraße 49C, 81541 München, Germany"}
{"timestamp":"2016-10-02T19:05:00+0200","id":124035,"name":"Leonie","coordinate":{"longitude":11.58580017,"latitude":48.12919998},"fuelLevel":0.7899999999999999,"lastAddress":"Schwarzstraße 1, 81669 München, Germany"}
{"timestamp":"2016-10-02T19:05:00+0200","id":124006,"name":"Gustl","coordinate":{"longitude":11.57759953,"latitude":48.12110138},"fuelLevel":0.9400000000000001,"lastAddress":"Falkenstraße 44, 81541 München, Germany"}
{"timestamp":"2016-10-02T19:05:00+0200","id":124020,"name":"Vinzenz","coordinate":{"longitude":11.57859993,"latitude":48.12379837},"fuelLevel":0.9099999999999999,"lastAddress":"Entenbachstraße 16, 81541 München, Germany"}
{"timestamp":"2016-10-02T19:05:00+0200","id":124049,"name":"Marei","coordinate":{"longitude":11.57429981,"latitude":48.12009811},"fuelLevel":0.7200000000000001,"lastAddress":"Oefelestraße 5, 81543 München, Germany"}
{"timestamp":"2016-10-02T19:05:00+0200","id":124045,"name":"Vroni","coordinate":{"longitude":11.56729984,"latitude":48.12779999},"fuelLevel":0.9199999999999999,"lastAddress":"Pestalozzistraße 54, 80469 München, Germany"}
{"timestamp":"2016-10-02T19:05:00+0200","id":124018,"name":"Toni","coordinate":{"longitude":11.56989956,"latitude":48.13100052},"fuelLevel":0.9099999999999999,"lastAddress":"Müllerstraße 40, 80469 München, Germany"}
{"timestamp":"2016-10-02T19:05:00+0200","id":124012,"name":"Peter","coordinate":{"longitude":11.57240009,"latitude":48.14979935},"fuelLevel":1,"lastAddress":"Barer Str. 29, 80799 München, Germany"}
{"timestamp":"2016-10-02T19:05:00+0200","id":124004,"name":"Fridl","coordinate":{"longitude":11.56589985,"latitude":48.15639877},"fuelLevel":0.55,"lastAddress":"Hiltenspergerstraße 6, 80798 München, Germany"}
{"timestamp":"2016-10-02T19:05:00+0200","id":124031,"name":"Heidi","coordinate":{"longitude":11.56659985,"latitude":48.14989853},"fuelLevel":0.8,"lastAddress":"Luisenstraße 53, 80333 München, Germany"}
{"timestamp":"2016-10-02T19:05:00+0200","id":124002,"name":"Ferdl","coordinate":{"longitude":11.41129971,"latitude":47.82899857},"fuelLevel":0.9500000000000001,"lastAddress":"Klosterstraße 6, 82547 Eurasburg, Germany"}
{"timestamp":"2016-10-02T19:05:00+0200","id":124048,"name":"Wiggerl","coordinate":{"longitude":11.57870007,"latitude":48.16120148},"fuelLevel":0.68,"lastAddress":"Kaiserstraße 45-47, 80801 München, Germany"}
{"timestamp":"2016-10-02T19:05:00+0200","id":124028,"name":"Gitte","coordinate":{"longitude":11.57730007,"latitude":48.16019821},"fuelLevel":0.75,"lastAddress":"Hohenzollernstraße 70, 80801 München, Germany"}
{"timestamp":"2016-10-02T19:05:00+0200","id":124027,"name":"Fanni","coordinate":{"longitude":11.5777998,"latitude":48.1590004},"fuelLevel":0.7899999999999999,"lastAddress":"Ainmillerstraße 40, 80801 München, Germany"}
{"timestamp":"2016-10-02T19:05:00+0200","id":124005,"name":"Georg","coordinate":{"longitude":11.58139992,"latitude":48.15850067},"fuelLevel":0.66,"lastAddress":"Ainmillerstraße 15, 80801 München, Germany"}
{"timestamp":"2016-10-02T19:05:00+0200","id":124032,"name":"Irmi","coordinate":{"longitude":11.57339954,"latitude":48.16040039},"fuelLevel":0.64,"lastAddress":"Isabellastraße 48, 80796 München, Germany"}
{"timestamp":"2016-10-02T19:05:00+0200","id":124037,"name":"Luise","coordinate":{"longitude":11.56649971,"latitude":48.15819931},"fuelLevel":0.58,"lastAddress":"Hiltenspergerstraße 20, 80798 München, Germany"}
{"timestamp":"2016-10-02T19:05:00+0200","id":124017,"name":"Siggi","coordinate":{"longitude":11.57089996,"latitude":48.16090012},"fuelLevel":0.56,"lastAddress":"Hohenzollernstraße 112, 80796 München, Germany"}
{"timestamp":"2016-10-02T19:05:00+0200","id":124029,"name":"Hannah","coordinate":{"longitude":11.51029968,"latitude":48.04529953},"fuelLevel":0.71,"lastAddress":"Gistlstraße 159, 82049 Pullach im Isartal, Germany"}
{"timestamp":"2016-10-02T19:05:00+0200","id":124042,"name":"Tilli","coordinate":{"longitude":11.50959969,"latitude":48.04539871},"fuelLevel":0.77,"lastAddress":"Seitnerstraße 70, 82049 Pullach im Isartal, Germany"}
{"timestamp":"2016-10-02T19:05:00+0200","id":124009,"name":"Ludwig","coordinate":{"longitude":11.58460045,"latitude":48.16220093},"fuelLevel":0.8999999999999999,"lastAddress":"Herzogstraße 6, 80803 München, Germany"}
{"timestamp":"2016-10-02T19:05:00+0200","id":124007,"name":"Jakob","coordinate":{"longitude":11.58609962,"latitude":48.16389847},"fuelLevel":0.9500000000000001,"lastAddress":"Leopoldstraße 87, 80802 München, Germany"}