{"timestamp":"2016-10-20T20:25:32+0200","id":124041,"name":"Sophie","coordinate":{"longitude":11.57999992,"latitude":48.14960098},"fuelLevel":0.78,"lastAddress":"Schellingstraße 2, 80799 München, Germany"}
{"timestamp":"2016-10-20T20:25:32+0200","id":124026,"name":"Eva","coordinate":{"longitude":11.58110046,"latitude":48.14989853},"fuelLevel":0.9199999999999999,"lastAddress":"Ludwigstraße 24, 80539 München, Germany"}
{"timestamp":"2016-10-20T20:25:32+0200","id":124025,"name":"Elli","coordinate":{"longitude":11.57929993,"latitude":48.15570068},"fuelLevel":0.8300000000000001,"lastAddress":"Konradstraße 16, 80801 München, Germany"}
{"timestamp":"2016-10-20T20:25:32+0200","id":124044,"name":"Uschi","coordinate":{"longitude":11.57260036,"latitude":48.13199997},"fuelLevel":0.71,"lastAddress":"Müllerstraße 20, 80469 München, Germany"}
{"timestamp":"2016-10-20T20:25:32+0200","id":124040,"name":"Reserl","coordinate":{"longitude":11.57269955,"latitude":48.13259888},"fuelLevel":0.77,"lastAddress":"Theklastraße 1, 80469 München, Germany"}
{"timestamp":"2016-10-20T20:25:32+0200","id":124014,"name":"Quirin","coordinate":{"longitude":11.59729958,"latitude":48.13420105},"fuelLevel":0.5299999999999999,"lastAddress":"Innere Wiener Straße 52, 81667 München, Germany"}
{"timestamp":"2016-10-20T20:25:32+0200","id":124034,"name":"Kathi","coordinate":{"longitude":11.60879993,"latitude":48.13299942},"fuelLevel":0.57,"lastAddress":"Kirchenstraße 87, 81675 München, Germany"}
{"timestamp":"2016-10-20T20:25:32+0200","id":124016,"name":"Sepp","coordinate":{"longitude":11.59700012,"latitude":48.12639999},"fuelLevel":0.86,"lastAddress":"Pariser Str. 18, 81669 München, Germany"}
{"timestamp":"2016-10-20T20:25:32+0200","id":124000,"name":"Bertl","coordinate":{"longitude":11.59599972,"latitude":48.13349915},"fuelLevel":0.86,"lastAddress":"Steinstraße 12, 81667 München, Germany"}
{"timestamp":"2016-10-20T20:25:32+0200","id":124013,"name":"Poldi","coordinate":{"longitude":11.59440041,"latitude":48.12760162},"fuelLevel":0.61,"lastAddress":"Balanstraße 6A, 81669 München, Germany"}
{"timestamp":"2016-10-20T20:25:32+0200","id":124011,"name":"Maxl","coordinate":{"longitude":11.59759998,"latitude":48.12400055},"fuelLevel":0.61,"lastAddress":"Orleansstraße 4, 81669 München, Germany"}
{"timestamp":"2016-10-20T20:25:32+0200","id":124003,"name":"Franzl","coordinate":{"longitude":11.5934,"latitude":48.12670135},"fuelLevel":0.7799999999999999,"lastAddress":"Rablstraße 38A, 81669 München, Germany"}
{"timestamp":"2016-10-20T20:25:32+0200","id":124010,"name":"Luitpold","coordinate":{"longitude":11.58749962,"latitude":48.12770081},"fuelLevel":0.87,"lastAddress":"Hochstraße 19, 81669 München, Germany"}
{"timestamp":"2016-10-20T20:25:32+0200","id":124020,"name":"Vinzenz","coordinate":{"longitude":11.57800007,"latitude":48.12540054},"fuelLevel":0.75,"lastAddress":"Boosstraße 7, 81541 München, Germany"}
{"timestamp":"2016-10-20T20:25:32+0200","id":124049,"name":"Marei","coordinate":{"longitude":11.57450008,"latitude":48.12269974},"fuelLevel":0.9400000000000001,"lastAddress":"Eduard-Schmid-Straße 35, 81541 München, Germany"}
{"timestamp":"2016-10-20T20:25:32+0200","id":124045,"name":"Vroni","coordinate":{"longitude":11.56499958,"latitude":48.12390137},"fuelLevel":0.64,"lastAddress":"Kapuzinerstraße 46, 80469 München, Germany"}
{"timestamp":"2016-10-20T20:25:32+0200","id":124018,"name":"Toni","coordinate":{"longitude":11.56970024,"latitude":48.12900162},"fuelLevel":0.6499999999999999,"lastAddress":"Hans-Sachs-Straße 15-17, 80469 München, Germany"}
{"timestamp":"2016-10-20T20:25:32+0200","id":124004,"name":"Fridl","coordinate":{"longitude":11.5557003,"latitude":48.15520096},"fuelLevel":0.58,"lastAddress":"Lothstraße 64, 80335 München, Germany"}
{"timestamp":"2016-10-20T20:25:32+0200","id":124031,"name":"Heidi","coordinate":{"longitude":11.56309986,"latitude":48.14989853},"fuelLevel":0.62,"lastAddress":"Augustenstraße 63, 80333 München, Germany"}
{"timestamp":"2016-10-20T20:25:32+0200","id":124048,"name":"Wiggerl","coordinate":{"longitude":11.58310032,"latitude":48.15829849},"fuelLevel":0.63,"lastAddress":"Wilhelmstraße 4, 80801 München, Germany"}
{"timestamp":"2016-10-20T20:25:32+0200","id":124028,"name":"Gitte","coordinate":{"longitude":11.57559967,"latitude":48.16049957},"fuelLevel":0.7200000000000001,"lastAddress":"Hohenzollernstraße 82, 80801 München, Germany"}
{"timestamp":"2016-10-20T20:25:32+0200","id":124017,"name":"Siggi","coordinate":{"longitude":11.57289982,"latitude":48.15999985},"fuelLevel":0.56,"lastAddress":"Isabellastraße 45, 80796 München, Germany"}
{"timestamp":"2016-10-20T20:25:32+0200","id":124024,"name":"Christl","coordinate":{"longitude":11.50570011,"latitude":48.04439926},"fuelLevel":0.125,"lastAddress":"Dr.-Carl-von-Linde-Straße 6-14, 82049 Pullach im Isartal, Germany"}
{"timestamp":"2016-10-20T20:25:32+0200","id":124009,"name":"Ludwig","coordinate":{"longitude":11.58640003,"latitude":48.16519928},"fuelLevel":0.59,"lastAddress":"Karl-Theodor-Straße 2, 80803 München, Germany"}
{"timestamp":"2016-10-20T20:25:32+0200","id":124007,"name":"Jakob","coordinate":{"longitude":11.57380009,"latitude":48.16740036},"fuelLevel":0.8999999999999999,"lastAddress":"Belgradstraße 71, 80804 München, Germany"}