{"timestamp":"2016-10-04T18:35:00+0200","id":124041,"name":"Sophie","coordinate":{"longitude":11.5777998,"latitude":48.14929962},"fuelLevel":0.93,"lastAddress":"Amalienstraße 46, 80799 München, Germany"}
{"timestamp":"2016-10-04T18:35:00+0200","id":124026,"name":"Eva","coordinate":{"longitude":11.57839966,"latitude":48.15370178},"fuelLevel":0.61,"lastAddress":"Türkenstraße 104, 80799 München, Germany"}
{"timestamp":"2016-10-04T18:35:00+0200","id":124033,"name":"Johanna","coordinate":{"longitude":11.58150005,"latitude":48.15169907},"fuelLevel":0.84,"lastAddress":"Ludwigstraße 29, 80539 München, Germany"}
{"timestamp":"2016-10-04T18:35:00+0200","id":124036,"name":"Liesel","coordinate":{"longitude":11.57509995,"latitude":48.15620041},"fuelLevel":0.6699999999999999,"lastAddress":"Nordendstraße 29, 80801 München, Germany"}
{"timestamp":"2016-10-04T18:35:00+0200","id":124044,"name":"Uschi","coordinate":{"longitude":11.57269955,"latitude":48.13180161},"fuelLevel":0.9199999999999999,"lastAddress":"Müllerstraße 9, 80469 München, Germany"}
{"timestamp":"2016-10-04T18:35:00+0200","id":124024,"name":"Christl","coordinate":{"longitude":11.57940006,"latitude":48.13399887},"fuelLevel":0.8,"lastAddress":"Rumfordstraße 31, 80469 München, Germany"}
{"timestamp":"2016-10-04T18:35:00+0200","id":124040,"name":"Reserl","coordinate":{"longitude":11.57320023,"latitude":48.13199997},"fuelLevel":0.8999999999999999,"lastAddress":"Müllerstraße 7, 80469 München, Germany"}
{"timestamp":"2016-10-04T18:35:00+0200","id":124014,"name":"Quirin","coordinate":{"longitude":11.60830021,"latitude":48.13290024},"fuelLevel":0.63,"lastAddress":"Kirchenstraße 85, 81675 München, Germany"}
{"timestamp":"2016-10-04T18:35:00+0200","id":124034,"name":"Kathi","coordinate":{"longitude":11.60509968,"latitude":48.13230133},"fuelLevel":0.67,"lastAddress":"Elsässer Str. 6, 81667 München, Germany"}
{"timestamp":"2016-10-04T18:35:00+0200","id":124030,"name":"Hedwig","coordinate":{"longitude":11.56379986,"latitude":48.12730026},"fuelLevel":0.9199999999999999,"lastAddress":"Thalkirchner Str. 54, 80337 München, Germany"}
{"timestamp":"2016-10-04T18:35:00+0200","id":124023,"name":"Babsi","coordinate":{"longitude":11.5635004,"latitude":48.1271019},"fuelLevel":0.93,"lastAddress":"Thalkirchner Str. 54, 80337 München, Germany"}
{"timestamp":"2016-10-04T18:35:00+0200","id":124016,"name":"Sepp","coordinate":{"longitude":11.59869957,"latitude":48.12590027},"fuelLevel":0.9199999999999999,"lastAddress":"Rosenheimer Str. 125, 81667 München, Germany"}
{"timestamp":"2016-10-04T18:35:00+0200","id":124038,"name":"Magda","coordinate":{"longitude":11.60060024,"latitude":48.12829971},"fuelLevel":0.67,"lastAddress":"Weißenburger Str. 36, 81667 München, Germany"}
{"timestamp":"2016-10-04T18:35:00+0200","id":124022,"name":"Anne","coordinate":{"longitude":11.59679985,"latitude":48.1269989},"fuelLevel":0.87,"lastAddress":"Rosenheimer Str. 103, 81667 München, Germany"}
{"timestamp":"2016-10-04T18:35:00+0200","id":124000,"name":"Bertl","coordinate":{"longitude":11.59700012,"latitude":48.12960052},"fuelLevel":0.82,"lastAddress":"Kellerstraße 41, 81667 München, Germany"}
{"timestamp":"2016-10-04T18:35:00+0200","id":124013,"name":"Poldi","coordinate":{"longitude":11.59430027,"latitude":48.12770081},"fuelLevel":0.79,"lastAddress":"Balanstraße 6A, 81669 München, Germany"}
{"timestamp":"2016-10-04T18:35:00+0200","id":124011,"name":"Maxl","coordinate":{"longitude":11.59319973,"latitude":48.12540054},"fuelLevel":0.7899999999999999,"lastAddress":"Barnabasstraße 1, 81669 München, Germany"}
{"timestamp":"2016-10-04T18:35:00+0200","id":124003,"name":"Franzl","coordinate":{"longitude":11.59290028,"latitude":48.12739944},"fuelLevel":0.79,"lastAddress":"Franziskanerstraße 8, 81669 München, Germany"}
{"timestamp":"2016-10-04T18:35:00+0200","id":124035,"name":"Leonie","coordinate":{"longitude":11.5855999,"latitude":48.1291008},"fuelLevel":0.7899999999999999,"lastAddress":"Schwarzstraße 2, 81669 München, Germany"}
{"timestamp":"2016-10-04T18:35:00+0200","id":124006,"name":"Gustl","coordinate":{"longitude":11.57740021,"latitude":48.12099838},"fuelLevel":0.9400000000000001,"lastAddress":"Falkenstraße 46, 81541 München, Germany"}
{"timestamp":"2016-10-04T18:35:00+0200","id":124020,"name":"Vinzenz","coordinate":{"longitude":11.57680035,"latitude":48.12440109},"fuelLevel":0.8999999999999999,"lastAddress":"Albanistraße 4-6, 81541 München, Germany"}
{"timestamp":"2016-10-04T18:35:00+0200","id":124049,"name":"Marei","coordinate":{"longitude":11.57460022,"latitude":48.11980057},"fuelLevel":0.69,"lastAddress":"Humboldtstraße 25, 81543 München, Germany"}
{"timestamp":"2016-10-04T18:35:00+0200","id":124045,"name":"Vroni","coordinate":{"longitude":11.56719971,"latitude":48.12749863},"fuelLevel":0.9199999999999999,"lastAddress":"Holzstraße 34, 80469 München, Germany"}
{"timestamp":"2016-10-04T18:35:00+0200","id":124018,"name":"Toni","coordinate":{"longitude":11.57019997,"latitude":48.13100052},"fuelLevel":0.9099999999999999,"lastAddress":"Müllerstraße 34, 80469 München, Germany"}
{"timestamp":"2016-10-04T18:35:00+0200","id":124012,"name":"Peter","coordinate":{"longitude":11.57260036,"latitude":48.14989853},"fuelLevel":1,"lastAddress":"Barer Str. 50-52, 80799 München, Germany"}
{"timestamp":"2016-10-04T18:35:00+0200","id":124004,"name":"Fridl","coordinate":{"longitude":11.56599998,"latitude":48.15650177},"fuelLevel":0.55,"lastAddress":"Hiltenspergerstraße 6, 80798 München, Germany"}
{"timestamp":"2016-10-04T18:35:00+0200","id":124031,"name":"Heidi","coordinate":{"longitude":11.56630039,"latitude":48.15000153},"fuelLevel":0.8,"lastAddress":"Luisenstraße 55, 80333 München, Germany"}
{"timestamp":"2016-10-04T18:35:00+0200","id":124047,"name":"Walli","coordinate":{"longitude":11.56989956,"latitude":48.15060043},"fuelLevel":0.83,"lastAddress":"Arcisstraße 32, 80799 München, Germany"}
{"timestamp":"2016-10-04T18:35:00+0200","id":124002,"name":"Ferdl","coordinate":{"longitude":11.56459999,"latitude":48.15209961},"fuelLevel":0.9500000000000001,"lastAddress":"Augustenstraße 93, 80798 München, Germany"}
{"timestamp":"2016-10-04T18:35:00+0200","id":124048,"name":"Wiggerl","coordinate":{"longitude":11.57870007,"latitude":48.16149902},"fuelLevel":0.68,"lastAddress":"Kaiserstraße 38, 80801 München, Germany"}
{"timestamp":"2016-10-04T18:35:00+0200","id":124028,"name":"Gitte","coordinate":{"longitude":11.5770998,"latitude":48.15999985},"fuelLevel":0.75,"lastAddress":"Hohenzollernstraße 41, 80801 München, Germany"}
{"timestamp":"2016-10-04T18:35:00+0200","id":124027,"name":"Fanni","coordinate":{"longitude":11.5781002,"latitude":48.1590004},"fuelLevel":0.7899999999999999,"lastAddress":"Ainmillerstraße 38, 80801 München, Germany"}
{"timestamp":"2016-10-04T18:35:00+0200","id":124005,"name":"Georg","coordinate":{"longitude":11.58129978,"latitude":48.15890121},"fuelLevel":0.66,"lastAddress":"Ainmillerstraße 20, 80801 München, Germany"}
{"timestamp":"2016-10-04T18:35:00+0200","id":124032,"name":"Irmi","coordinate":{"longitude":11.57279968,"latitude":48.16019821},"fuelLevel":0.64,"lastAddress":"Isabellastraße 47, 80796 München, Germany"}
{"timestamp":"2016-10-04T18:35:00+0200","id":124037,"name":"Luise","coordinate":{"longitude":11.56639957,"latitude":48.15790176},"fuelLevel":0.58,"lastAddress":"Agnesstraße 38, 80798 München, Germany"}
{"timestamp":"2016-10-04T18:35:00+0200","id":124017,"name":"Siggi","coordinate":{"longitude":11.57139969,"latitude":48.16109848},"fuelLevel":0.56,"lastAddress":"Emanuelstraße 11, 80796 München, Germany"}
{"timestamp":"2016-10-04T18:35:00+0200","id":124029,"name":"Hannah","coordinate":{"longitude":11.51029968,"latitude":48.04529953},"fuelLevel":0.71,"lastAddress":"Gistlstraße 159, 82049 Pullach im Isartal, Germany"}
{"timestamp":"2016-10-04T18:35:00+0200","id":124008,"name":"Johann","coordinate":{"longitude":11.50990009,"latitude":48.04539871},"fuelLevel":0.87,"lastAddress":"Gistlstraße 159, 82049 Pullach im Isartal, Germany"}
{"timestamp":"2016-10-04T18:35:00+0200","id":124039,"name":"Marie","coordinate":{"longitude":11.50959969,"latitude":48.04550171},"fuelLevel":0.58,"lastAddress":"Seitnerstraße 70, 82049 Pullach im Isartal, Germany"}
{"timestamp":"2016-10-04T18:35:00+0200","id":124009,"name":"Ludwig","coordinate":{"longitude":11.58460045,"latitude":48.16210175},"fuelLevel":0.8999999999999999,"lastAddress":"Herzogstraße 7, 80803 München, Germany"}