{"timestamp":"2016-09-30T22:20:00+0200","id":124041,"name":"Sophie","coordinate":{"longitude":11.57769966,"latitude":48.14970016},"fuelLevel":0.93,"lastAddress":"Schellingstraße 11, 80799 München, Germany"}
{"timestamp":"2016-09-30T22:20:00+0200","id":124026,"name":"Eva","coordinate":{"longitude":11.57820034,"latitude":48.15390015},"fuelLevel":0.61,"lastAddress":"Türkenstraße 97, 80799 München, Germany"}
{"timestamp":"2016-09-30T22:20:00+0200","id":124025,"name":"Elli","coordinate":{"longitude":11.57629967,"latitude":48.15530014},"fuelLevel":0.77,"lastAddress":"Kurfürstenstraße 14, 80801 München, Germany"}
{"timestamp":"2016-09-30T22:20:00+0200","id":124033,"name":"Johanna","coordinate":{"longitude":11.58119965,"latitude":48.15259933},"fuelLevel":0.88,"lastAddress":"Akademiestraße 5, 80799 München, Germany"}
{"timestamp":"2016-09-30T22:20:00+0200","id":124036,"name":"Liesel","coordinate":{"longitude":11.57540035,"latitude":48.15639877},"fuelLevel":0.6699999999999999,"lastAddress":"Nordendstraße 38, 80801 München, Germany"}
{"timestamp":"2016-09-30T22:20:00+0200","id":124024,"name":"Christl","coordinate":{"longitude":11.57929993,"latitude":48.13380051},"fuelLevel":0.8,"lastAddress":"Rumfordstraße 11, 80469 München, Germany"}
{"timestamp":"2016-09-30T22:20:00+0200","id":124040,"name":"Reserl","coordinate":{"longitude":11.57919979,"latitude":48.13059998},"fuelLevel":0.79,"lastAddress":"Baaderstraße 29, 80469 München, Germany"}
{"timestamp":"2016-09-30T22:20:00+0200","id":124021,"name":"Xaver","coordinate":{"longitude":11.58059978,"latitude":48.13199997},"fuelLevel":0.52,"lastAddress":"Kohlstraße 3, 80469 München, Germany"}
{"timestamp":"2016-09-30T22:20:00+0200","id":124014,"name":"Quirin","coordinate":{"longitude":11.6072998,"latitude":48.13100052},"fuelLevel":0.9099999999999999,"lastAddress":"Orleansstraße 81-83, 81667 München, Germany"}
{"timestamp":"2016-09-30T22:20:00+0200","id":124034,"name":"Kathi","coordinate":{"longitude":11.60470009,"latitude":48.13209915},"fuelLevel":0.67,"lastAddress":"Elsässer Str. 16, 81667 München, Germany"}
{"timestamp":"2016-09-30T22:20:00+0200","id":124030,"name":"Hedwig","coordinate":{"longitude":11.56760025,"latitude":48.1310997},"fuelLevel":0.89,"lastAddress":"Pestalozzistraße 9, 80469 München, Germany"}
{"timestamp":"2016-09-30T22:20:00+0200","id":124023,"name":"Babsi","coordinate":{"longitude":11.5635004,"latitude":48.12689972},"fuelLevel":0.93,"lastAddress":"Thalkirchner Str. 62, 80337 München, Germany"}
{"timestamp":"2016-09-30T22:20:00+0200","id":124038,"name":"Magda","coordinate":{"longitude":11.60039997,"latitude":48.12810135},"fuelLevel":0.76,"lastAddress":"Gravelottestraße 1, 81667 München, Germany"}
{"timestamp":"2016-09-30T22:20:00+0200","id":124022,"name":"Anne","coordinate":{"longitude":11.59679985,"latitude":48.12670135},"fuelLevel":0.8900000000000001,"lastAddress":"Rosenheimer Str. 88, 81669 München, Germany"}
{"timestamp":"2016-09-30T22:20:00+0200","id":124000,"name":"Bertl","coordinate":{"longitude":11.59459972,"latitude":48.12960052},"fuelLevel":0.84,"lastAddress":"Steinstraße 68, 81667 München, Germany"}
{"timestamp":"2016-09-30T22:20:00+0200","id":124013,"name":"Poldi","coordinate":{"longitude":11.59440041,"latitude":48.12779999},"fuelLevel":0.79,"lastAddress":"Balanstraße 4, 81669 München, Germany"}
{"timestamp":"2016-09-30T22:20:00+0200","id":124011,"name":"Maxl","coordinate":{"longitude":11.59379959,"latitude":48.12540054},"fuelLevel":0.8099999999999999,"lastAddress":"St.-Wolfgangs-Platz 11, 81669 München, Germany"}
{"timestamp":"2016-09-30T22:20:00+0200","id":124003,"name":"Franzl","coordinate":{"longitude":11.59290028,"latitude":48.12720108},"fuelLevel":0.79,"lastAddress":"Franziskanerstraße 8, 81669 München, Germany"}
{"timestamp":"2016-09-30T22:20:00+0200","id":124010,"name":"Luitpold","coordinate":{"longitude":11.58590031,"latitude":48.12580109},"fuelLevel":0.88,"lastAddress":"Gebsattelstraße 2, 81541 München, Germany"}
{"timestamp":"2016-09-30T22:20:00+0200","id":124019,"name":"Valentin","coordinate":{"longitude":11.58510017,"latitude":48.12360001},"fuelLevel":0.9199999999999999,"lastAddress":"Hochstraße 49C, 81541 München, Germany"}
{"timestamp":"2016-09-30T22:20:00+0200","id":124035,"name":"Leonie","coordinate":{"longitude":11.58580017,"latitude":48.12939835},"fuelLevel":0.7899999999999999,"lastAddress":"Schwarzstraße 1, 81669 München, Germany"}
{"timestamp":"2016-09-30T22:20:00+0200","id":124006,"name":"Gustl","coordinate":{"longitude":11.57750034,"latitude":48.12110138},"fuelLevel":0.9400000000000001,"lastAddress":"Falkenstraße 44, 81541 München, Germany"}
{"timestamp":"2016-09-30T22:20:00+0200","id":124020,"name":"Vinzenz","coordinate":{"longitude":11.57890034,"latitude":48.12340164},"fuelLevel":0.9099999999999999,"lastAddress":"Albanistraße 17, 81541 München, Germany"}
{"timestamp":"2016-09-30T22:20:00+0200","id":124049,"name":"Marei","coordinate":{"longitude":11.57409954,"latitude":48.11999893},"fuelLevel":0.7200000000000001,"lastAddress":"Humboldtstraße 23, 81543 München, Germany"}
{"timestamp":"2016-09-30T22:20:00+0200","id":124045,"name":"Vroni","coordinate":{"longitude":11.56770039,"latitude":48.12770081},"fuelLevel":0.9199999999999999,"lastAddress":"Holzstraße 43, 80469 München, Germany"}
{"timestamp":"2016-09-30T22:20:00+0200","id":124018,"name":"Toni","coordinate":{"longitude":11.57269955,"latitude":48.12969971},"fuelLevel":0.9299999999999999,"lastAddress":"Klenzestraße 46A, 80469 München, Germany"}
{"timestamp":"2016-09-30T22:20:00+0200","id":124012,"name":"Peter","coordinate":{"longitude":11.57260036,"latitude":48.14960098},"fuelLevel":1,"lastAddress":"Barer Str. 48, 80799 München, Germany"}
{"timestamp":"2016-09-30T22:20:00+0200","id":124004,"name":"Fridl","coordinate":{"longitude":11.56610012,"latitude":48.15639877},"fuelLevel":0.55,"lastAddress":"Hiltenspergerstraße 6, 80798 München, Germany"}
{"timestamp":"2016-09-30T22:20:00+0200","id":124031,"name":"Heidi","coordinate":{"longitude":11.56659985,"latitude":48.15010071},"fuelLevel":0.8,"lastAddress":"Luisenstraße 55, 80333 München, Germany"}
{"timestamp":"2016-09-30T22:20:00+0200","id":124002,"name":"Ferdl","coordinate":{"longitude":11.56400013,"latitude":48.15090179},"fuelLevel":0.9500000000000001,"lastAddress":"Augustenstraße 83, 80333 München, Germany"}
{"timestamp":"2016-09-30T22:20:00+0200","id":124048,"name":"Wiggerl","coordinate":{"longitude":11.57719994,"latitude":48.15919876},"fuelLevel":0.7200000000000001,"lastAddress":"Römerstraße 9, 80801 München, Germany"}
{"timestamp":"2016-09-30T22:20:00+0200","id":124028,"name":"Gitte","coordinate":{"longitude":11.57970047,"latitude":48.15980148},"fuelLevel":0.77,"lastAddress":"Hohenzollernstraße 27, 80801 München, Germany"}
{"timestamp":"2016-09-30T22:20:00+0200","id":124027,"name":"Fanni","coordinate":{"longitude":11.57740021,"latitude":48.1595993},"fuelLevel":0.8099999999999999,"lastAddress":"Römerstraße 14-16, 80801 München, Germany"}
{"timestamp":"2016-09-30T22:20:00+0200","id":124005,"name":"Georg","coordinate":{"longitude":11.58129978,"latitude":48.15850067},"fuelLevel":0.69,"lastAddress":"Ainmillerstraße 17, 80801 München, Germany"}
{"timestamp":"2016-09-30T22:20:00+0200","id":124001,"name":"Edmund","coordinate":{"longitude":11.57849979,"latitude":48.1576004},"fuelLevel":0.62,"lastAddress":"Franz-Joseph-Straße 31, 80801 München, Germany"}
{"timestamp":"2016-09-30T22:20:00+0200","id":124032,"name":"Irmi","coordinate":{"longitude":11.57320023,"latitude":48.16040039},"fuelLevel":0.64,"lastAddress":"Isabellastraße 49, 80796 München, Germany"}
{"timestamp":"2016-09-30T22:20:00+0200","id":124037,"name":"Luise","coordinate":{"longitude":11.56639957,"latitude":48.15819931},"fuelLevel":0.9027777777777778,"lastAddress":"Hiltenspergerstraße 20, 80798 München, Germany"}
{"timestamp":"2016-09-30T22:20:00+0200","id":124017,"name":"Siggi","coordinate":{"longitude":11.57139969,"latitude":48.16019821},"fuelLevel":0.56,"lastAddress":"Jakob-Klar-Straße 11, 80796 München, Germany"}
{"timestamp":"2016-09-30T22:20:00+0200","id":124029,"name":"Hannah","coordinate":{"longitude":11.51019955,"latitude":48.04529953},"fuelLevel":0.71,"lastAddress":"Gistlstraße 159, 82049 Pullach im Isartal, Germany"}
{"timestamp":"2016-09-30T22:20:00+0200","id":124042,"name":"Tilli","coordinate":{"longitude":11.50949955,"latitude":48.04529953},"fuelLevel":0.77,"lastAddress":"Seitnerstraße 70, 82049 Pullach im Isartal, Germany"}
{"timestamp":"2016-09-30T22:20:00+0200","id":124008,"name":"Johann","coordinate":{"longitude":11.50959969,"latitude":48.04560089},"fuelLevel":0.87,"lastAddress":"Seitnerstraße 70, 82049 Pullach im Isartal, Germany"}
{"timestamp":"2016-09-30T22:20:00+0200","id":124009,"name":"Ludwig","coordinate":{"longitude":11.58479977,"latitude":48.16220093},"fuelLevel":0.8999999999999999,"lastAddress":"Herzogstraße 4, 80803 München, Germany"}
{"timestamp":"2016-09-30T22:20:00+0200","id":124007,"name":"Jakob","coordinate":{"longitude":11.58640003,"latitude":48.16379929},"fuelLevel":0.9500000000000001,"lastAddress":"Leopoldstraße 85, 80802 München, Germany"}