{"timestamp":"2016-10-20T18:15:32+0200","id":124041,"name":"Sophie","coordinate":{"longitude":11.58110046,"latitude":48.1515007},"fuelLevel":0.78,"lastAddress":"Adalbertstraße 6, 80799 München, Germany"}
{"timestamp":"2016-10-20T18:15:32+0200","id":124026,"name":"Eva","coordinate":{"longitude":11.58100033,"latitude":48.14979935},"fuelLevel":0.9199999999999999,"lastAddress":"Ludwigstraße 24, 80539 München, Germany"}
{"timestamp":"2016-10-20T18:15:32+0200","id":124025,"name":"Elli","coordinate":{"longitude":11.57919979,"latitude":48.1556015},"fuelLevel":0.8300000000000001,"lastAddress":"Friedrichstraße 3, 80801 München, Germany"}
{"timestamp":"2016-10-20T18:15:32+0200","id":124044,"name":"Uschi","coordinate":{"longitude":11.57269955,"latitude":48.13199997},"fuelLevel":0.71,"lastAddress":"Müllerstraße 18, 80469 München, Germany"}
{"timestamp":"2016-10-20T18:15:32+0200","id":124040,"name":"Reserl","coordinate":{"longitude":11.57190037,"latitude":48.13230133},"fuelLevel":0.77,"lastAddress":"Blumenstraße 21, 80331 München, Germany"}
{"timestamp":"2016-10-20T18:15:32+0200","id":124014,"name":"Quirin","coordinate":{"longitude":11.59710026,"latitude":48.13430023},"fuelLevel":0.5299999999999999,"lastAddress":"Innere Wiener Straße 52, 81667 München, Germany"}
{"timestamp":"2016-10-20T18:15:32+0200","id":124034,"name":"Kathi","coordinate":{"longitude":11.60890007,"latitude":48.13270187},"fuelLevel":0.57,"lastAddress":"Kirchenstraße 90, 81675 München, Germany"}
{"timestamp":"2016-10-20T18:15:32+0200","id":124016,"name":"Sepp","coordinate":{"longitude":11.59739971,"latitude":48.12630081},"fuelLevel":0.86,"lastAddress":"Rosenheimer Str. 92, 81669 München, Germany"}
{"timestamp":"2016-10-20T18:15:32+0200","id":124000,"name":"Bertl","coordinate":{"longitude":11.59609985,"latitude":48.13339996},"fuelLevel":0.86,"lastAddress":"Steinstraße 15, 81667 München, Germany"}
{"timestamp":"2016-10-20T18:15:32+0200","id":124013,"name":"Poldi","coordinate":{"longitude":11.59449959,"latitude":48.12789917},"fuelLevel":0.61,"lastAddress":"Balanstraße 2, 81669 München, Germany"}
{"timestamp":"2016-10-20T18:15:32+0200","id":124011,"name":"Maxl","coordinate":{"longitude":11.59490013,"latitude":48.12760162},"fuelLevel":0.6699999999999999,"lastAddress":"Rosenheimer Str. 66, 81669 München, Germany"}
{"timestamp":"2016-10-20T18:15:32+0200","id":124003,"name":"Franzl","coordinate":{"longitude":11.59309959,"latitude":48.12670135},"fuelLevel":0.7799999999999999,"lastAddress":"Simon-Knoll-Platz 1, 81669 München, Germany"}
{"timestamp":"2016-10-20T18:15:32+0200","id":124010,"name":"Luitpold","coordinate":{"longitude":11.58740044,"latitude":48.12760162},"fuelLevel":0.87,"lastAddress":"Hochstraße 19, 81669 München, Germany"}
{"timestamp":"2016-10-20T18:15:32+0200","id":124020,"name":"Vinzenz","coordinate":{"longitude":11.57759953,"latitude":48.12519836},"fuelLevel":0.75,"lastAddress":"Boosstraße 4, 81541 München, Germany"}
{"timestamp":"2016-10-20T18:15:32+0200","id":124049,"name":"Marei","coordinate":{"longitude":11.57460022,"latitude":48.12239838},"fuelLevel":0.9400000000000001,"lastAddress":"Sommerstraße 7, 81543 München, Germany"}
{"timestamp":"2016-10-20T18:15:32+0200","id":124045,"name":"Vroni","coordinate":{"longitude":11.56509972,"latitude":48.12400055},"fuelLevel":0.64,"lastAddress":"Kapuzinerstraße 39, 80469 München, Germany"}
{"timestamp":"2016-10-20T18:15:32+0200","id":124018,"name":"Toni","coordinate":{"longitude":11.57009983,"latitude":48.12990189},"fuelLevel":0.6499999999999999,"lastAddress":"Hans-Sachs-Straße 7, 80469 München, Germany"}
{"timestamp":"2016-10-20T18:15:32+0200","id":124004,"name":"Fridl","coordinate":{"longitude":11.55580044,"latitude":48.15510178},"fuelLevel":0.58,"lastAddress":"Lothstraße 64, 80335 München, Germany"}
{"timestamp":"2016-10-20T18:15:32+0200","id":124031,"name":"Heidi","coordinate":{"longitude":11.56330013,"latitude":48.15000153},"fuelLevel":0.62,"lastAddress":"Augustenstraße 67, 80333 München, Germany"}
{"timestamp":"2016-10-20T18:15:32+0200","id":124048,"name":"Wiggerl","coordinate":{"longitude":11.58300018,"latitude":48.15859985},"fuelLevel":0.63,"lastAddress":"Ainmillerstraße 7, 80801 München, Germany"}
{"timestamp":"2016-10-20T18:15:32+0200","id":124028,"name":"Gitte","coordinate":{"longitude":11.57619953,"latitude":48.16059875},"fuelLevel":0.7200000000000001,"lastAddress":"Hohenzollernstraße 76, 80801 München, Germany"}
{"timestamp":"2016-10-20T18:15:32+0200","id":124017,"name":"Siggi","coordinate":{"longitude":11.57279968,"latitude":48.16070175},"fuelLevel":0.56,"lastAddress":"Fallmerayerstraße 1, 80796 München, Germany"}
{"timestamp":"2016-10-20T18:15:32+0200","id":124029,"name":"Hannah","coordinate":{"longitude":11.50979996,"latitude":48.04560089},"fuelLevel":0.59,"lastAddress":"Gistlstraße 159, 82049 Pullach im Isartal, Germany"}
{"timestamp":"2016-10-20T18:15:32+0200","id":124009,"name":"Ludwig","coordinate":{"longitude":11.58619976,"latitude":48.1651001},"fuelLevel":0.59,"lastAddress":"Leopoldstraße 104-106, 80802 München, Germany"}
{"timestamp":"2016-10-20T18:15:32+0200","id":124007,"name":"Jakob","coordinate":{"longitude":11.57400036,"latitude":48.16730118},"fuelLevel":0.8999999999999999,"lastAddress":"Belgradstraße 64, 80804 München, Germany"}