{"timestamp":"2016-11-14T23:35:00+0100","id":124041,"name":"Sophie","coordinate":{"longitude":11.58059692,"latitude":48.15161133},"fuelLevel":0.63,"lastAddress":"Adalbertstraße 8, 80799 München, Germany"}
{"timestamp":"2016-11-14T23:35:00+0100","id":124040,"name":"Reserl","coordinate":{"longitude":11.58171082,"latitude":48.13079834},"fuelLevel":0.86,"lastAddress":"Erhardtstraße 27, 80469 München, Germany"}
{"timestamp":"2016-11-14T23:35:00+0100","id":124021,"name":"Xaver","coordinate":{"longitude":11.57299805,"latitude":48.13008118},"fuelLevel":0.89,"lastAddress":"Fraunhoferstraße 14, 80469 München, Germany"}
{"timestamp":"2016-11-14T23:35:00+0100","id":124014,"name":"Quirin","coordinate":{"longitude":11.59920025,"latitude":48.13600159},"fuelLevel":0.9583333333333334,"lastAddress":"Einsteinstraße 3, 81675 München, Germany"}
{"timestamp":"2016-11-14T23:35:00+0100","id":124034,"name":"Kathi","coordinate":{"longitude":11.6051178,"latitude":48.13009644},"fuelLevel":0.81,"lastAddress":"Elsässer Str. 27-29, 81667 München, Germany"}
{"timestamp":"2016-11-14T23:35:00+0100","id":124030,"name":"Hedwig","coordinate":{"longitude":11.56590271,"latitude":48.13230896},"fuelLevel":0.5972222222222222,"lastAddress":"Fliegenstraße 3, 80337 München, Germany"}
{"timestamp":"2016-11-14T23:35:00+0100","id":124016,"name":"Sepp","coordinate":{"longitude":11.59921265,"latitude":48.13040161},"fuelLevel":0.59,"lastAddress":"Metzstraße 32, 81667 München, Germany"}
{"timestamp":"2016-11-14T23:35:00+0100","id":124022,"name":"Anne","coordinate":{"longitude":11.59809875,"latitude":48.1269989},"fuelLevel":0.9,"lastAddress":"Pariser Str. 24, 81667 München, Germany"}
{"timestamp":"2016-11-14T23:35:00+0100","id":124000,"name":"Bertl","coordinate":{"longitude":11.59701538,"latitude":48.12800598},"fuelLevel":0.58,"lastAddress":"Lothringer Str. 3, 81667 München, Germany"}
{"timestamp":"2016-11-14T23:35:00+0100","id":124003,"name":"Franzl","coordinate":{"longitude":11.58988953,"latitude":48.12518311},"fuelLevel":0.79,"lastAddress":"Franziskanerstraße 43, 81669 München, Germany"}
{"timestamp":"2016-11-14T23:35:00+0100","id":124019,"name":"Valentin","coordinate":{"longitude":11.58189392,"latitude":48.1210022},"fuelLevel":0.6499999999999999,"lastAddress":"Hochstraße 81, 81541 München, Germany"}
{"timestamp":"2016-11-14T23:35:00+0100","id":124006,"name":"Gustl","coordinate":{"longitude":11.57357788,"latitude":48.12030029},"fuelLevel":0.8900000000000001,"lastAddress":"Humboldtstraße 19, 81543 München, Germany"}
{"timestamp":"2016-11-14T23:35:00+0100","id":124045,"name":"Vroni","coordinate":{"longitude":11.56770325,"latitude":48.12698364},"fuelLevel":0.8500000000000001,"lastAddress":"Am Glockenbach 2, 80469 München, Germany"}
{"timestamp":"2016-11-14T23:35:00+0100","id":124012,"name":"Peter","coordinate":{"longitude":11.56099987,"latitude":48.15420151},"fuelLevel":0.72,"lastAddress":"Schleißheimer Str. 47, 80797 München, Germany"}
{"timestamp":"2016-11-14T23:35:00+0100","id":124004,"name":"Fridl","coordinate":{"longitude":11.55909729,"latitude":48.15390015},"fuelLevel":0.88,"lastAddress":"Heßstraße 79, 80797 München, Germany"}
{"timestamp":"2016-11-14T23:35:00+0100","id":124031,"name":"Heidi","coordinate":{"longitude":11.56390381,"latitude":48.15060425},"fuelLevel":0.5299999999999999,"lastAddress":"Augustenstraße 77-79, 80333 München, Germany"}
{"timestamp":"2016-11-14T23:35:00+0100","id":124047,"name":"Walli","coordinate":{"longitude":11.5670166,"latitude":48.15058899},"fuelLevel":0.76,"lastAddress":"Luisenstraße 63, 80798 München, Germany"}
{"timestamp":"2016-11-14T23:35:00+0100","id":124002,"name":"Ferdl","coordinate":{"longitude":11.56341553,"latitude":48.14970398},"fuelLevel":0.59,"lastAddress":"Augustenstraße 70, 80333 München, Germany"}
{"timestamp":"2016-11-14T23:35:00+0100","id":124048,"name":"Wiggerl","coordinate":{"longitude":11.5776825,"latitude":48.15788269},"fuelLevel":0.88,"lastAddress":"Franz-Joseph-Straße 38, 80801 München, Germany"}
{"timestamp":"2016-11-14T23:35:00+0100","id":124028,"name":"Gitte","coordinate":{"longitude":11.5781002,"latitude":48.15769958},"fuelLevel":0.58,"lastAddress":"Franz-Joseph-Straße 35, 80801 München, Germany"}
{"timestamp":"2016-11-14T23:35:00+0100","id":124027,"name":"Fanni","coordinate":{"longitude":11.58340454,"latitude":48.16081238},"fuelLevel":0.9,"lastAddress":"Kaiserstraße 19, 80801 München, Germany"}
{"timestamp":"2016-11-14T23:35:00+0100","id":124005,"name":"Georg","coordinate":{"longitude":11.5770998,"latitude":48.15819931},"fuelLevel":0.8,"lastAddress":"Römerstraße 4, 80801 München, Germany"}
{"timestamp":"2016-11-14T23:35:00+0100","id":124001,"name":"Edmund","coordinate":{"longitude":11.57669067,"latitude":48.16131592},"fuelLevel":0.63,"lastAddress":"Kaiserstraße 50, 80801 München, Germany"}
{"timestamp":"2016-11-14T23:35:00+0100","id":124032,"name":"Irmi","coordinate":{"longitude":11.57479858,"latitude":48.15950012},"fuelLevel":0.58,"lastAddress":"Nordendstraße 57-59, 80801 München, Germany"}
{"timestamp":"2016-11-14T23:35:00+0100","id":124037,"name":"Luise","coordinate":{"longitude":11.56809998,"latitude":48.15679932},"fuelLevel":0.63,"lastAddress":"Georgenstraße 104, 80798 München, Germany"}
{"timestamp":"2016-11-14T23:35:00+0100","id":124017,"name":"Siggi","coordinate":{"longitude":11.56900024,"latitude":48.15930176},"fuelLevel":0.67,"lastAddress":"Tengstraße 31, 80796 München, Germany"}
{"timestamp":"2016-11-14T23:35:00+0100","id":124008,"name":"Johann","coordinate":{"longitude":11.50990295,"latitude":48.0453186},"fuelLevel":0.88,"lastAddress":"Gistlstraße 159, 82049 Pullach im Isartal, Germany"}
{"timestamp":"2016-11-14T23:35:00+0100","id":124039,"name":"Marie","coordinate":{"longitude":11.50991821,"latitude":48.04550171},"fuelLevel":0.84,"lastAddress":"Gistlstraße 159, 82049 Pullach im Isartal, Germany"}
{"timestamp":"2016-11-14T23:35:00+0100","id":124009,"name":"Ludwig","coordinate":{"longitude":11.58139038,"latitude":48.16641235},"fuelLevel":0.89,"lastAddress":"Karl-Theodor-Straße 44, 80803 München, Germany"}
{"timestamp":"2016-11-14T23:35:00+0100","id":124007,"name":"Jakob","coordinate":{"longitude":11.57409954,"latitude":48.16429901},"fuelLevel":0.84,"lastAddress":"Belgradstraße 37, 80796 München, Germany"}