{"timestamp":"2016-10-04T08:25:00+0200","id":124041,"name":"Sophie","coordinate":{"longitude":11.57759953,"latitude":48.14979935},"fuelLevel":0.93,"lastAddress":"Schellingstraße 11-13, 80799 München, Germany"}
{"timestamp":"2016-10-04T08:25:00+0200","id":124026,"name":"Eva","coordinate":{"longitude":11.57740021,"latitude":48.15380096},"fuelLevel":0.61,"lastAddress":"Rambergstraße 3-5, 80799 München, Germany"}
{"timestamp":"2016-10-04T08:25:00+0200","id":124025,"name":"Elli","coordinate":{"longitude":11.57569981,"latitude":48.15169907},"fuelLevel":0.9500000000000001,"lastAddress":"Blütenstraße 7, 80799 München, Germany"}
{"timestamp":"2016-10-04T08:25:00+0200","id":124033,"name":"Johanna","coordinate":{"longitude":11.58139992,"latitude":48.15200043},"fuelLevel":0.84,"lastAddress":"Ludwigstraße 31, 80539 München, Germany"}
{"timestamp":"2016-10-04T08:25:00+0200","id":124036,"name":"Liesel","coordinate":{"longitude":11.57540035,"latitude":48.15639877},"fuelLevel":0.6699999999999999,"lastAddress":"Nordendstraße 38, 80801 München, Germany"}
{"timestamp":"2016-10-04T08:25:00+0200","id":124024,"name":"Christl","coordinate":{"longitude":11.5795002,"latitude":48.13359833},"fuelLevel":0.8,"lastAddress":"Klenzestraße 1, 80469 München, Germany"}
{"timestamp":"2016-10-04T08:25:00+0200","id":124040,"name":"Reserl","coordinate":{"longitude":11.57139969,"latitude":48.13140106},"fuelLevel":0.89,"lastAddress":"Papa-Schmid-Straße 1, 80469 München, Germany"}
{"timestamp":"2016-10-04T08:25:00+0200","id":124021,"name":"Xaver","coordinate":{"longitude":11.58049965,"latitude":48.13209915},"fuelLevel":0.5,"lastAddress":"Baaderstraße 2, 80469 München, Germany"}
{"timestamp":"2016-10-04T08:25:00+0200","id":124014,"name":"Quirin","coordinate":{"longitude":11.60840034,"latitude":48.13270187},"fuelLevel":0.63,"lastAddress":"Kirchenstraße 88, 81675 München, Germany"}
{"timestamp":"2016-10-04T08:25:00+0200","id":124034,"name":"Kathi","coordinate":{"longitude":11.60499954,"latitude":48.13240051},"fuelLevel":0.67,"lastAddress":"Elsässer Str. 4, 81667 München, Germany"}
{"timestamp":"2016-10-04T08:25:00+0200","id":124030,"name":"Hedwig","coordinate":{"longitude":11.5635004,"latitude":48.12760162},"fuelLevel":0.9199999999999999,"lastAddress":"Thalkirchner Str. 56, 80337 München, Germany"}
{"timestamp":"2016-10-04T08:25:00+0200","id":124023,"name":"Babsi","coordinate":{"longitude":11.56379986,"latitude":48.12749863},"fuelLevel":0.93,"lastAddress":"Thalkirchner Str. 52, 80337 München, Germany"}
{"timestamp":"2016-10-04T08:25:00+0200","id":124016,"name":"Sepp","coordinate":{"longitude":11.59819984,"latitude":48.1257019},"fuelLevel":0.9199999999999999,"lastAddress":"Rosenheimer Str. 100, 81669 München, Germany"}
{"timestamp":"2016-10-04T08:25:00+0200","id":124022,"name":"Anne","coordinate":{"longitude":11.5965004,"latitude":48.1271019},"fuelLevel":0.87,"lastAddress":"Rosenheimer Str. 103, 81667 München, Germany"}
{"timestamp":"2016-10-04T08:25:00+0200","id":124000,"name":"Bertl","coordinate":{"longitude":11.59700012,"latitude":48.12950134},"fuelLevel":0.82,"lastAddress":"Kellerstraße 34-36, 81667 München, Germany"}
{"timestamp":"2016-10-04T08:25:00+0200","id":124013,"name":"Poldi","coordinate":{"longitude":11.59449959,"latitude":48.12779999},"fuelLevel":0.79,"lastAddress":"Balanstraße 4, 81669 München, Germany"}
{"timestamp":"2016-10-04T08:25:00+0200","id":124011,"name":"Maxl","coordinate":{"longitude":11.59280014,"latitude":48.1257019},"fuelLevel":0.78,"lastAddress":"Sieboldstraße 2, 81669 München, Germany"}
{"timestamp":"2016-10-04T08:25:00+0200","id":124003,"name":"Franzl","coordinate":{"longitude":11.59319973,"latitude":48.12749863},"fuelLevel":0.79,"lastAddress":"Franziskanerstraße 13, 81669 München, Germany"}
{"timestamp":"2016-10-04T08:25:00+0200","id":124010,"name":"Luitpold","coordinate":{"longitude":11.58600044,"latitude":48.12580109},"fuelLevel":0.88,"lastAddress":"Gebsattelstraße 2, 81541 München, Germany"}
{"timestamp":"2016-10-04T08:25:00+0200","id":124019,"name":"Valentin","coordinate":{"longitude":11.58510017,"latitude":48.12360001},"fuelLevel":0.9199999999999999,"lastAddress":"Hochstraße 49C, 81541 München, Germany"}
{"timestamp":"2016-10-04T08:25:00+0200","id":124035,"name":"Leonie","coordinate":{"longitude":11.58570004,"latitude":48.12939835},"fuelLevel":0.7899999999999999,"lastAddress":"Zeppelinstraße 63, 81669 München, Germany"}
{"timestamp":"2016-10-04T08:25:00+0200","id":124006,"name":"Gustl","coordinate":{"longitude":11.5770998,"latitude":48.12070084},"fuelLevel":0.9400000000000001,"lastAddress":"Falkenstraße 45, 81541 München, Germany"}
{"timestamp":"2016-10-04T08:25:00+0200","id":124020,"name":"Vinzenz","coordinate":{"longitude":11.57900047,"latitude":48.12409973},"fuelLevel":0.9099999999999999,"lastAddress":"Entenbachstraße 12, 81541 München, Germany"}
{"timestamp":"2016-10-04T08:25:00+0200","id":124049,"name":"Marei","coordinate":{"longitude":11.57419968,"latitude":48.11989975},"fuelLevel":0.69,"lastAddress":"Humboldtstraße 24, 81543 München, Germany"}
{"timestamp":"2016-10-04T08:25:00+0200","id":124045,"name":"Vroni","coordinate":{"longitude":11.56770039,"latitude":48.12770081},"fuelLevel":0.9199999999999999,"lastAddress":"Holzstraße 43, 80469 München, Germany"}
{"timestamp":"2016-10-04T08:25:00+0200","id":124018,"name":"Toni","coordinate":{"longitude":11.57009983,"latitude":48.13130188},"fuelLevel":0.9099999999999999,"lastAddress":"Angertorstraße 4, 80469 München, Germany"}
{"timestamp":"2016-10-04T08:25:00+0200","id":124012,"name":"Peter","coordinate":{"longitude":11.57229996,"latitude":48.15010071},"fuelLevel":1,"lastAddress":"Heßstraße 2, 80799 München, Germany"}
{"timestamp":"2016-10-04T08:25:00+0200","id":124004,"name":"Fridl","coordinate":{"longitude":11.56569958,"latitude":48.15710068},"fuelLevel":0.55,"lastAddress":"Hiltenspergerstraße 17, 80798 München, Germany"}
{"timestamp":"2016-10-04T08:25:00+0200","id":124031,"name":"Heidi","coordinate":{"longitude":11.56620026,"latitude":48.15019989},"fuelLevel":0.8,"lastAddress":"Luisenstraße 55, 80333 München, Germany"}
{"timestamp":"2016-10-04T08:25:00+0200","id":124002,"name":"Ferdl","coordinate":{"longitude":11.56480026,"latitude":48.15219879},"fuelLevel":0.9500000000000001,"lastAddress":"Heßstraße 39, 80798 München, Germany"}
{"timestamp":"2016-10-04T08:25:00+0200","id":124048,"name":"Wiggerl","coordinate":{"longitude":11.57849979,"latitude":48.16230011},"fuelLevel":0.68,"lastAddress":"Viktor-Scheffel-Straße 6, 80803 München, Germany"}
{"timestamp":"2016-10-04T08:25:00+0200","id":124028,"name":"Gitte","coordinate":{"longitude":11.57670021,"latitude":48.15980148},"fuelLevel":0.75,"lastAddress":"Römerstraße 15, 80801 München, Germany"}
{"timestamp":"2016-10-04T08:25:00+0200","id":124027,"name":"Fanni","coordinate":{"longitude":11.57820034,"latitude":48.15859985},"fuelLevel":0.7899999999999999,"lastAddress":"Ainmillerstraße 29, 80801 München, Germany"}
{"timestamp":"2016-10-04T08:25:00+0200","id":124005,"name":"Georg","coordinate":{"longitude":11.58129978,"latitude":48.15879822},"fuelLevel":0.66,"lastAddress":"Ainmillerstraße 20, 80801 München, Germany"}
{"timestamp":"2016-10-04T08:25:00+0200","id":124032,"name":"Irmi","coordinate":{"longitude":11.57320023,"latitude":48.16009903},"fuelLevel":0.64,"lastAddress":"Isabellastraße 44, 80796 München, Germany"}
{"timestamp":"2016-10-04T08:25:00+0200","id":124037,"name":"Luise","coordinate":{"longitude":11.56630039,"latitude":48.15769958},"fuelLevel":0.58,"lastAddress":"Hiltenspergerstraße 23, 80798 München, Germany"}
{"timestamp":"2016-10-04T08:25:00+0200","id":124017,"name":"Siggi","coordinate":{"longitude":11.5710001,"latitude":48.16080093},"fuelLevel":0.56,"lastAddress":"Hohenzollernstraße 112, 80796 München, Germany"}
{"timestamp":"2016-10-04T08:25:00+0200","id":124029,"name":"Hannah","coordinate":{"longitude":11.51029968,"latitude":48.04539871},"fuelLevel":0.71,"lastAddress":"Gistlstraße 159, 82049 Pullach im Isartal, Germany"}
{"timestamp":"2016-10-04T08:25:00+0200","id":124042,"name":"Tilli","coordinate":{"longitude":11.50990009,"latitude":48.04529953},"fuelLevel":0.77,"lastAddress":"Gistlstraße 159, 82049 Pullach im Isartal, Germany"}
{"timestamp":"2016-10-04T08:25:00+0200","id":124008,"name":"Johann","coordinate":{"longitude":11.51000023,"latitude":48.04550171},"fuelLevel":0.87,"lastAddress":"Gistlstraße 159, 82049 Pullach im Isartal, Germany"}
{"timestamp":"2016-10-04T08:25:00+0200","id":124039,"name":"Marie","coordinate":{"longitude":11.75329971,"latitude":46.55680084},"fuelLevel":0.5555555555555556,"lastAddress":"Str. Rainell, 65, 39048 Selva di Val Gardena BZ, Italy"}
{"timestamp":"2016-10-04T08:25:00+0200","id":124009,"name":"Ludwig","coordinate":{"longitude":11.5848999,"latitude":48.16210175},"fuelLevel":0.8999999999999999,"lastAddress":"Herzogstraße 4, 80803 München, Germany"}
{"timestamp":"2016-10-04T08:25:00+0200","id":124007,"name":"Jakob","coordinate":{"longitude":11.57870007,"latitude":48.16730118},"fuelLevel":0.47000000000000003,"lastAddress":"Bonner Str. 2, 80803 München, Germany"}