{"timestamp":"2016-10-22T22:10:32+0200","id":124041,"name":"Sophie","coordinate":{"longitude":11.57958984,"latitude":48.15278625},"fuelLevel":0.72,"lastAddress":"Akademiestraße 11, 80799 München, Germany"}
{"timestamp":"2016-10-22T22:10:32+0200","id":124025,"name":"Elli","coordinate":{"longitude":11.57931519,"latitude":48.15568542},"fuelLevel":0.8300000000000001,"lastAddress":"Konradstraße 16, 80801 München, Germany"}
{"timestamp":"2016-10-22T22:10:32+0200","id":124033,"name":"Johanna","coordinate":{"longitude":11.57745361,"latitude":48.14981079},"fuelLevel":0.57,"lastAddress":"Schellingstraße 13, 80799 München, Germany"}
{"timestamp":"2016-10-22T22:10:32+0200","id":124014,"name":"Quirin","coordinate":{"longitude":11.59710693,"latitude":48.13438416},"fuelLevel":0.5299999999999999,"lastAddress":"Innere Wiener Straße 55, 81667 München, Germany"}
{"timestamp":"2016-10-22T22:10:32+0200","id":124030,"name":"Hedwig","coordinate":{"longitude":11.61260033,"latitude":48.12179947},"fuelLevel":0.9236111111111112,"lastAddress":"Aschheimer Str. 21, 81671 München, Germany"}
{"timestamp":"2016-10-22T22:10:32+0200","id":124022,"name":"Anne","coordinate":{"longitude":11.59719849,"latitude":48.13240051},"fuelLevel":0.65,"lastAddress":"Preysingstraße 35, 81667 München, Germany"}
{"timestamp":"2016-10-22T22:10:32+0200","id":124013,"name":"Poldi","coordinate":{"longitude":11.59179974,"latitude":48.12799835},"fuelLevel":0.61,"lastAddress":"Gallmayerstraße 8, 81669 München, Germany"}
{"timestamp":"2016-10-22T22:10:32+0200","id":124011,"name":"Maxl","coordinate":{"longitude":11.59762573,"latitude":48.12405396},"fuelLevel":0.61,"lastAddress":"Orleansstraße 4A, 81669 München, Germany"}
{"timestamp":"2016-10-22T22:10:32+0200","id":124019,"name":"Valentin","coordinate":{"longitude":11.58200073,"latitude":48.12521362},"fuelLevel":0.76,"lastAddress":"Mariahilfpl. 23, 81541 München, Germany"}
{"timestamp":"2016-10-22T22:10:32+0200","id":124035,"name":"Leonie","coordinate":{"longitude":11.58670044,"latitude":48.13050079},"fuelLevel":0.7000000000000001,"lastAddress":"Zeppelinstraße 77, 81669 München, Germany"}
{"timestamp":"2016-10-22T22:10:32+0200","id":124006,"name":"Gustl","coordinate":{"longitude":11.57710266,"latitude":48.12428284},"fuelLevel":0.8300000000000001,"lastAddress":"Albanistraße 5, 81541 München, Germany"}
{"timestamp":"2016-10-22T22:10:32+0200","id":124020,"name":"Vinzenz","coordinate":{"longitude":11.57800293,"latitude":48.12542725},"fuelLevel":0.75,"lastAddress":"Boosstraße 7, 81541 München, Germany"}
{"timestamp":"2016-10-22T22:10:32+0200","id":124045,"name":"Vroni","coordinate":{"longitude":11.56518555,"latitude":48.12397766},"fuelLevel":0.64,"lastAddress":"Kapuzinerstraße 39, 80469 München, Germany"}
{"timestamp":"2016-10-22T22:10:32+0200","id":124018,"name":"Toni","coordinate":{"longitude":11.57149982,"latitude":48.13280106},"fuelLevel":0.6499999999999999,"lastAddress":"Unterer Anger 3, 80331 München, Germany"}
{"timestamp":"2016-10-22T22:10:32+0200","id":124004,"name":"Fridl","coordinate":{"longitude":11.55850029,"latitude":48.16030121},"fuelLevel":0.58,"lastAddress":"Kathi-Kobus-Straße 28, 80797 München, Germany"}
{"timestamp":"2016-10-22T22:10:32+0200","id":124048,"name":"Wiggerl","coordinate":{"longitude":11.57530212,"latitude":48.15890503},"fuelLevel":0.6000000000000001,"lastAddress":"Nordendstraße 62, 80801 München, Germany"}
{"timestamp":"2016-10-22T22:10:32+0200","id":124028,"name":"Gitte","coordinate":{"longitude":11.57569981,"latitude":48.15909958},"fuelLevel":0.7200000000000001,"lastAddress":"Ainmillerstraße 41, 80801 München, Germany"}
{"timestamp":"2016-10-22T22:10:32+0200","id":124032,"name":"Irmi","coordinate":{"longitude":11.56559753,"latitude":48.15939331},"fuelLevel":0.64,"lastAddress":"Zentnerstraße 38, 80798 München, Germany"}
{"timestamp":"2016-10-22T22:10:32+0200","id":124037,"name":"Luise","coordinate":{"longitude":11.57079983,"latitude":48.15660095},"fuelLevel":0.9099999999999999,"lastAddress":"Georgenstraße 84, 80799 München, Germany"}
{"timestamp":"2016-10-22T22:10:32+0200","id":124017,"name":"Siggi","coordinate":{"longitude":11.56787109,"latitude":48.15927124},"fuelLevel":0.54,"lastAddress":"Adelheidstraße 32, 80796 München, Germany"}
{"timestamp":"2016-10-22T22:10:32+0200","id":124029,"name":"Hannah","coordinate":{"longitude":11.51000977,"latitude":48.04547119},"fuelLevel":0.81,"lastAddress":"Gistlstraße 159, 82049 Pullach im Isartal, Germany"}
{"timestamp":"2016-10-22T22:10:32+0200","id":124039,"name":"Marie","coordinate":{"longitude":11.50990295,"latitude":48.04530334},"fuelLevel":0.82,"lastAddress":"Gistlstraße 159, 82049 Pullach im Isartal, Germany"}