{"timestamp":"2016-11-25T09:50:00+0100","id":124026,"name":"Eva","coordinate":{"longitude":11.58129883,"latitude":48.15231323},"fuelLevel":0.73,"lastAddress":"Akademiestraße 3, 80799 München, Germany"}
{"timestamp":"2016-11-25T09:50:00+0100","id":124025,"name":"Elli","coordinate":{"longitude":11.58120728,"latitude":48.1525116},"fuelLevel":0.8200000000000001,"lastAddress":"Akademiestraße 5, 80799 München, Germany"}
{"timestamp":"2016-11-25T09:50:00+0100","id":124033,"name":"Johanna","coordinate":{"longitude":11.57980347,"latitude":48.15283203},"fuelLevel":0.7799999999999999,"lastAddress":"Akademiestraße 11, 80799 München, Germany"}
{"timestamp":"2016-11-25T09:50:00+0100","id":124036,"name":"Liesel","coordinate":{"longitude":11.57858276,"latitude":48.15309143},"fuelLevel":0.5499999999999999,"lastAddress":"Akademiestraße 4, 80799 München, Germany"}
{"timestamp":"2016-11-25T09:50:00+0100","id":124024,"name":"Christl","coordinate":{"longitude":11.57698059,"latitude":48.13278198},"fuelLevel":0.6499999999999999,"lastAddress":"Buttermelcherstraße 4, 80469 München, Germany"}
{"timestamp":"2016-11-25T09:50:00+0100","id":124040,"name":"Reserl","coordinate":{"longitude":11.57479858,"latitude":48.12911987},"fuelLevel":0.83,"lastAddress":"Fraunhoferstraße 31, 80469 München, Germany"}
{"timestamp":"2016-11-25T09:50:00+0100","id":124021,"name":"Xaver","coordinate":{"longitude":11.58201599,"latitude":48.13111877},"fuelLevel":0.77,"lastAddress":"Kohlstraße 11, 80469 München, Germany"}
{"timestamp":"2016-11-25T09:50:00+0100","id":124022,"name":"Anne","coordinate":{"longitude":11.60140991,"latitude":48.12809753},"fuelLevel":0.8099999999999999,"lastAddress":"Weißenburger Str. 42, 81667 München, Germany"}
{"timestamp":"2016-11-25T09:50:00+0100","id":124000,"name":"Bertl","coordinate":{"longitude":11.59489441,"latitude":48.1309967},"fuelLevel":0.8999999999999999,"lastAddress":"Milchstraße 2, 81667 München, Germany"}
{"timestamp":"2016-11-25T09:50:00+0100","id":124013,"name":"Poldi","coordinate":{"longitude":11.58959961,"latitude":48.125},"fuelLevel":0.79,"lastAddress":"Franziskanerstraße 47, 81669 München, Germany"}
{"timestamp":"2016-11-25T09:50:00+0100","id":124011,"name":"Maxl","coordinate":{"longitude":11.59259033,"latitude":48.12670898},"fuelLevel":0.5599999999999999,"lastAddress":"Franziskanerstraße 14, 81669 München, Germany"}
{"timestamp":"2016-11-25T09:50:00+0100","id":124003,"name":"Franzl","coordinate":{"longitude":11.58810425,"latitude":48.12538147},"fuelLevel":0.7200000000000001,"lastAddress":"Gebsattelstraße 16, 81541 München, Germany"}
{"timestamp":"2016-11-25T09:50:00+0100","id":124010,"name":"Luitpold","coordinate":{"longitude":11.58769226,"latitude":48.12788391},"fuelLevel":0.87,"lastAddress":"Hochstraße 19, 81669 München, Germany"}
{"timestamp":"2016-11-25T09:50:00+0100","id":124019,"name":"Valentin","coordinate":{"longitude":11.58187866,"latitude":48.12098694},"fuelLevel":0.64,"lastAddress":"Hochstraße 81, 81541 München, Germany"}
{"timestamp":"2016-11-25T09:50:00+0100","id":124035,"name":"Leonie","coordinate":{"longitude":11.58351135,"latitude":48.12771606},"fuelLevel":0.8800000000000001,"lastAddress":"Zeppelinstraße 39, 81669 München, Germany"}
{"timestamp":"2016-11-25T09:50:00+0100","id":124006,"name":"Gustl","coordinate":{"longitude":11.57600021,"latitude":48.12099838},"fuelLevel":0.86,"lastAddress":"Kolumbusstraße 22, 81543 München, Germany"}
{"timestamp":"2016-11-25T09:50:00+0100","id":124049,"name":"Marei","coordinate":{"longitude":11.5776062,"latitude":48.1204071},"fuelLevel":0.8999999999999999,"lastAddress":"Dollmannstraße 4, 81541 München, Germany"}
{"timestamp":"2016-11-25T09:50:00+0100","id":124018,"name":"Toni","coordinate":{"longitude":11.56910706,"latitude":48.12390137},"fuelLevel":0.9099999999999999,"lastAddress":"Wittelsbacherstraße 10-11, 80469 München, Germany"}
{"timestamp":"2016-11-25T09:50:00+0100","id":124012,"name":"Peter","coordinate":{"longitude":11.55999756,"latitude":48.15499878},"fuelLevel":0.6,"lastAddress":"Schellingstraße 138, 80797 München, Germany"}
{"timestamp":"2016-11-25T09:50:00+0100","id":124004,"name":"Fridl","coordinate":{"longitude":11.55908203,"latitude":48.15386963},"fuelLevel":0.86,"lastAddress":"Heßstraße 79, 80797 München, Germany"}
{"timestamp":"2016-11-25T09:50:00+0100","id":124047,"name":"Walli","coordinate":{"longitude":11.56700134,"latitude":48.15080261},"fuelLevel":0.75,"lastAddress":"Luisenstraße 63, 80798 München, Germany"}
{"timestamp":"2016-11-25T09:50:00+0100","id":124002,"name":"Ferdl","coordinate":{"longitude":11.56399536,"latitude":48.15029907},"fuelLevel":0.8999999999999999,"lastAddress":"Augustenstraße 76, 80333 München, Germany"}
{"timestamp":"2016-11-25T09:50:00+0100","id":124048,"name":"Wiggerl","coordinate":{"longitude":11.57737732,"latitude":48.15908813},"fuelLevel":0.7799999999999999,"lastAddress":"Ainmillerstraße 42, 80801 München, Germany"}
{"timestamp":"2016-11-25T09:50:00+0100","id":124028,"name":"Gitte","coordinate":{"longitude":11.57958984,"latitude":48.15779114},"fuelLevel":0.9099999999999999,"lastAddress":"Franz-Joseph-Straße 25, 80801 München, Germany"}
{"timestamp":"2016-11-25T09:50:00+0100","id":124027,"name":"Fanni","coordinate":{"longitude":11.58340454,"latitude":48.16090393},"fuelLevel":0.87,"lastAddress":"Kaiserstraße 22, 80801 München, Germany"}
{"timestamp":"2016-11-25T09:50:00+0100","id":124005,"name":"Georg","coordinate":{"longitude":11.57949829,"latitude":48.15910339},"fuelLevel":0.75,"lastAddress":"Ainmillerstraße 30, 80801 München, Germany"}
{"timestamp":"2016-11-25T09:50:00+0100","id":124001,"name":"Edmund","coordinate":{"longitude":11.58059692,"latitude":48.16090393},"fuelLevel":0.5599999999999999,"lastAddress":"Friedrichstraße 36, 80801 München, Germany"}
{"timestamp":"2016-11-25T09:50:00+0100","id":124032,"name":"Irmi","coordinate":{"longitude":11.57499695,"latitude":48.15960693},"fuelLevel":0.61,"lastAddress":"Kurfürstenpl. 2, 80796 München, Germany"}
{"timestamp":"2016-11-25T09:50:00+0100","id":124017,"name":"Siggi","coordinate":{"longitude":11.57299805,"latitude":48.15692139},"fuelLevel":0.9099999999999999,"lastAddress":"Arcisstraße 65, 80801 München, Germany"}
{"timestamp":"2016-11-25T09:50:00+0100","id":124009,"name":"Ludwig","coordinate":{"longitude":11.58229065,"latitude":48.1656189},"fuelLevel":0.71,"lastAddress":"Muffatstraße 5-7, 80803 München, Germany"}
{"timestamp":"2016-11-25T09:50:00+0100","id":124007,"name":"Jakob","coordinate":{"longitude":11.5773468,"latitude":48.16670227},"fuelLevel":0.6499999999999999,"lastAddress":"Ansprengerstraße 22, 80803 München, Germany"}