{"timestamp":"2016-10-03T10:15:00+0200","id":124041,"name":"Sophie","coordinate":{"longitude":11.5777998,"latitude":48.14970016},"fuelLevel":0.93,"lastAddress":"Schellingstraße 11, 80799 München, Germany"}
{"timestamp":"2016-10-03T10:15:00+0200","id":124026,"name":"Eva","coordinate":{"longitude":11.57820034,"latitude":48.1534996},"fuelLevel":0.61,"lastAddress":"Türkenstraße 93, 80799 München, Germany"}
{"timestamp":"2016-10-03T10:15:00+0200","id":124025,"name":"Elli","coordinate":{"longitude":11.57579994,"latitude":48.15159988},"fuelLevel":0.9500000000000001,"lastAddress":"Blütenstraße 7, 80799 München, Germany"}
{"timestamp":"2016-10-03T10:15:00+0200","id":124033,"name":"Johanna","coordinate":{"longitude":11.58170033,"latitude":48.15179825},"fuelLevel":0.84,"lastAddress":"Leopoldstraße 4, 80802 München, Germany"}
{"timestamp":"2016-10-03T10:15:00+0200","id":124036,"name":"Liesel","coordinate":{"longitude":11.57540035,"latitude":48.15620041},"fuelLevel":0.6699999999999999,"lastAddress":"Nordendstraße 34, 80801 München, Germany"}
{"timestamp":"2016-10-03T10:15:00+0200","id":124024,"name":"Christl","coordinate":{"longitude":11.57929993,"latitude":48.13380051},"fuelLevel":0.8,"lastAddress":"Rumfordstraße 11, 80469 München, Germany"}
{"timestamp":"2016-10-03T10:15:00+0200","id":124040,"name":"Reserl","coordinate":{"longitude":11.5717001,"latitude":48.13180161},"fuelLevel":0.89,"lastAddress":"Müllerstraße 26, 80469 München, Germany"}
{"timestamp":"2016-10-03T10:15:00+0200","id":124021,"name":"Xaver","coordinate":{"longitude":11.58069992,"latitude":48.13199997},"fuelLevel":0.52,"lastAddress":"Kohlstraße 3, 80469 München, Germany"}
{"timestamp":"2016-10-03T10:15:00+0200","id":124014,"name":"Quirin","coordinate":{"longitude":11.60840034,"latitude":48.13290024},"fuelLevel":0.6499999999999999,"lastAddress":"Kirchenstraße 87, 81675 München, Germany"}
{"timestamp":"2016-10-03T10:15:00+0200","id":124034,"name":"Kathi","coordinate":{"longitude":11.60499954,"latitude":48.13249969},"fuelLevel":0.67,"lastAddress":"Elsässer Str. 4, 81667 München, Germany"}
{"timestamp":"2016-10-03T10:15:00+0200","id":124030,"name":"Hedwig","coordinate":{"longitude":11.56379986,"latitude":48.12760162},"fuelLevel":0.9199999999999999,"lastAddress":"Thalkirchner Str. 52, 80337 München, Germany"}
{"timestamp":"2016-10-03T10:15:00+0200","id":124023,"name":"Babsi","coordinate":{"longitude":11.5635004,"latitude":48.1271019},"fuelLevel":0.93,"lastAddress":"Thalkirchner Str. 54, 80337 München, Germany"}
{"timestamp":"2016-10-03T10:15:00+0200","id":124016,"name":"Sepp","coordinate":{"longitude":11.59850025,"latitude":48.12599945},"fuelLevel":0.9199999999999999,"lastAddress":"Rosenheimer Str. 123, 81667 München, Germany"}
{"timestamp":"2016-10-03T10:15:00+0200","id":124038,"name":"Magda","coordinate":{"longitude":11.60029984,"latitude":48.12829971},"fuelLevel":0.67,"lastAddress":"Pariser Pl., 81667 München, Germany"}
{"timestamp":"2016-10-03T10:15:00+0200","id":124022,"name":"Anne","coordinate":{"longitude":11.59669971,"latitude":48.1269989},"fuelLevel":0.87,"lastAddress":"Rosenheimer Str. 103, 81667 München, Germany"}
{"timestamp":"2016-10-03T10:15:00+0200","id":124000,"name":"Bertl","coordinate":{"longitude":11.59689999,"latitude":48.12950134},"fuelLevel":0.82,"lastAddress":"Kellerstraße 34, 81667 München, Germany"}
{"timestamp":"2016-10-03T10:15:00+0200","id":124013,"name":"Poldi","coordinate":{"longitude":11.59420013,"latitude":48.12779999},"fuelLevel":0.79,"lastAddress":"Balanstraße 2, 81669 München, Germany"}
{"timestamp":"2016-10-03T10:15:00+0200","id":124011,"name":"Maxl","coordinate":{"longitude":11.5927,"latitude":48.12580109},"fuelLevel":0.8099999999999999,"lastAddress":"Sieboldstraße 2, 81669 München, Germany"}
{"timestamp":"2016-10-03T10:15:00+0200","id":124003,"name":"Franzl","coordinate":{"longitude":11.59280014,"latitude":48.12749863},"fuelLevel":0.79,"lastAddress":"Franziskanerstraße 8, 81669 München, Germany"}
{"timestamp":"2016-10-03T10:15:00+0200","id":124010,"name":"Luitpold","coordinate":{"longitude":11.58590031,"latitude":48.1257019},"fuelLevel":0.88,"lastAddress":"Gebsattelstraße 2, 81541 München, Germany"}
{"timestamp":"2016-10-03T10:15:00+0200","id":124019,"name":"Valentin","coordinate":{"longitude":11.58479977,"latitude":48.12350082},"fuelLevel":0.9199999999999999,"lastAddress":"Hochstraße 49C, 81541 München, Germany"}
{"timestamp":"2016-10-03T10:15:00+0200","id":124035,"name":"Leonie","coordinate":{"longitude":11.58609962,"latitude":48.12929916},"fuelLevel":0.7899999999999999,"lastAddress":"Lilienstraße 36, 81669 München, Germany"}
{"timestamp":"2016-10-03T10:15:00+0200","id":124006,"name":"Gustl","coordinate":{"longitude":11.57759953,"latitude":48.12110138},"fuelLevel":0.9400000000000001,"lastAddress":"Falkenstraße 44, 81541 München, Germany"}
{"timestamp":"2016-10-03T10:15:00+0200","id":124020,"name":"Vinzenz","coordinate":{"longitude":11.57870007,"latitude":48.12360001},"fuelLevel":0.9099999999999999,"lastAddress":"Entenbachstraße 16, 81541 München, Germany"}
{"timestamp":"2016-10-03T10:15:00+0200","id":124049,"name":"Marei","coordinate":{"longitude":11.57409954,"latitude":48.11999893},"fuelLevel":0.7200000000000001,"lastAddress":"Humboldtstraße 23, 81543 München, Germany"}
{"timestamp":"2016-10-03T10:15:00+0200","id":124045,"name":"Vroni","coordinate":{"longitude":11.56729984,"latitude":48.12789917},"fuelLevel":0.9199999999999999,"lastAddress":"Pestalozzistraße 52A, 80469 München, Germany"}
{"timestamp":"2016-10-03T10:15:00+0200","id":124018,"name":"Toni","coordinate":{"longitude":11.57009983,"latitude":48.13090134},"fuelLevel":0.9099999999999999,"lastAddress":"Müllerstraße 31, 80469 München, Germany"}
{"timestamp":"2016-10-03T10:15:00+0200","id":124012,"name":"Peter","coordinate":{"longitude":11.57219982,"latitude":48.14979935},"fuelLevel":1,"lastAddress":"Barer Str. 29, 80799 München, Germany"}
{"timestamp":"2016-10-03T10:15:00+0200","id":124004,"name":"Fridl","coordinate":{"longitude":11.56589985,"latitude":48.15610123},"fuelLevel":0.55,"lastAddress":"Josephspl. 5, 80798 München, Germany"}
{"timestamp":"2016-10-03T10:15:00+0200","id":124031,"name":"Heidi","coordinate":{"longitude":11.56630039,"latitude":48.15010071},"fuelLevel":0.8,"lastAddress":"Luisenstraße 55, 80333 München, Germany"}
{"timestamp":"2016-10-03T10:15:00+0200","id":124002,"name":"Ferdl","coordinate":{"longitude":11.56480026,"latitude":48.15230179},"fuelLevel":0.9500000000000001,"lastAddress":"Heßstraße 54, 80798 München, Germany"}
{"timestamp":"2016-10-03T10:15:00+0200","id":124048,"name":"Wiggerl","coordinate":{"longitude":11.57859993,"latitude":48.16120148},"fuelLevel":0.68,"lastAddress":"Kaiserstraße 47-49, 80801 München, Germany"}
{"timestamp":"2016-10-03T10:15:00+0200","id":124028,"name":"Gitte","coordinate":{"longitude":11.57699966,"latitude":48.15940094},"fuelLevel":0.75,"lastAddress":"Römerstraße 11, 80801 München, Germany"}
{"timestamp":"2016-10-03T10:15:00+0200","id":124027,"name":"Fanni","coordinate":{"longitude":11.5777998,"latitude":48.15909958},"fuelLevel":0.7899999999999999,"lastAddress":"Ainmillerstraße 40, 80801 München, Germany"}
{"timestamp":"2016-10-03T10:15:00+0200","id":124005,"name":"Georg","coordinate":{"longitude":11.58129978,"latitude":48.15829849},"fuelLevel":0.66,"lastAddress":"Ainmillerstraße 15, 80801 München, Germany"}
{"timestamp":"2016-10-03T10:15:00+0200","id":124032,"name":"Irmi","coordinate":{"longitude":11.57279968,"latitude":48.15999985},"fuelLevel":0.64,"lastAddress":"Isabellastraße 45, 80796 München, Germany"}
{"timestamp":"2016-10-03T10:15:00+0200","id":124037,"name":"Luise","coordinate":{"longitude":11.56630039,"latitude":48.15790176},"fuelLevel":0.58,"lastAddress":"Agnesstraße 38, 80798 München, Germany"}
{"timestamp":"2016-10-03T10:15:00+0200","id":124017,"name":"Siggi","coordinate":{"longitude":11.57069969,"latitude":48.16080093},"fuelLevel":0.56,"lastAddress":"Hohenzollernstraße 81, 80796 München, Germany"}
{"timestamp":"2016-10-03T10:15:00+0200","id":124029,"name":"Hannah","coordinate":{"longitude":11.51000023,"latitude":48.04520035},"fuelLevel":0.71,"lastAddress":"Seitnerstraße 70, 82049 Pullach im Isartal, Germany"}
{"timestamp":"2016-10-03T10:15:00+0200","id":124042,"name":"Tilli","coordinate":{"longitude":11.50959969,"latitude":48.04560089},"fuelLevel":0.77,"lastAddress":"Seitnerstraße 70, 82049 Pullach im Isartal, Germany"}
{"timestamp":"2016-10-03T10:15:00+0200","id":124039,"name":"Marie","coordinate":{"longitude":11.75329971,"latitude":46.55680084},"fuelLevel":0.5555555555555556,"lastAddress":"Str. Rainell, 65, 39048 Selva di Val Gardena BZ, Italy"}
{"timestamp":"2016-10-03T10:15:00+0200","id":124009,"name":"Ludwig","coordinate":{"longitude":11.58419991,"latitude":48.15969849},"fuelLevel":0.8999999999999999,"lastAddress":"Hohenzollernstraße 12, 80801 München, Germany"}
{"timestamp":"2016-10-03T10:15:00+0200","id":124007,"name":"Jakob","coordinate":{"longitude":11.58650017,"latitude":48.16389847},"fuelLevel":0.9500000000000001,"lastAddress":"Leopoldstraße 85, 80802 München, Germany"}