{"timestamp":"2016-10-17T01:00:00+0200","id":124041,"name":"Sophie","coordinate":{"longitude":11.5781002,"latitude":48.15390015},"fuelLevel":0.8300000000000001,"lastAddress":"Türkenstraße 97, 80799 München, Germany"}
{"timestamp":"2016-10-17T01:00:00+0200","id":124026,"name":"Eva","coordinate":{"longitude":11.58090019,"latitude":48.14989853},"fuelLevel":0.9199999999999999,"lastAddress":"Ludwigstraße 24, 80539 München, Germany"}
{"timestamp":"2016-10-17T01:00:00+0200","id":124025,"name":"Elli","coordinate":{"longitude":11.5795002,"latitude":48.15620041},"fuelLevel":0.8300000000000001,"lastAddress":"Friedrichstraße 9, 80801 München, Germany"}
{"timestamp":"2016-10-17T01:00:00+0200","id":124044,"name":"Uschi","coordinate":{"longitude":11.57199955,"latitude":48.13190079},"fuelLevel":0.8,"lastAddress":"Müllerstraße 24, 80469 München, Germany"}
{"timestamp":"2016-10-17T01:00:00+0200","id":124040,"name":"Reserl","coordinate":{"longitude":11.57279968,"latitude":48.13199997},"fuelLevel":0.79,"lastAddress":"Müllerstraße 7, 80469 München, Germany"}
{"timestamp":"2016-10-17T01:00:00+0200","id":124021,"name":"Xaver","coordinate":{"longitude":11.58059978,"latitude":48.12990189},"fuelLevel":0.9199999999999999,"lastAddress":"Erhardtstraße 27, 80469 München, Germany"}
{"timestamp":"2016-10-17T01:00:00+0200","id":124014,"name":"Quirin","coordinate":{"longitude":11.59780025,"latitude":48.1344986},"fuelLevel":0.57,"lastAddress":"Johannispl. 23, 81667 München, Germany"}
{"timestamp":"2016-10-17T01:00:00+0200","id":124034,"name":"Kathi","coordinate":{"longitude":11.60900021,"latitude":48.13299942},"fuelLevel":0.57,"lastAddress":"Kirchenstraße 89, 81675 München, Germany"}
{"timestamp":"2016-10-17T01:00:00+0200","id":124016,"name":"Sepp","coordinate":{"longitude":11.59799957,"latitude":48.12599945},"fuelLevel":0.88,"lastAddress":"Rosenheimer Str. 98, 81669 München, Germany"}
{"timestamp":"2016-10-17T01:00:00+0200","id":124038,"name":"Magda","coordinate":{"longitude":11.6001997,"latitude":48.12829971},"fuelLevel":0.67,"lastAddress":"Pariser Pl., 81667 München, Germany"}
{"timestamp":"2016-10-17T01:00:00+0200","id":124013,"name":"Poldi","coordinate":{"longitude":11.59440041,"latitude":48.12779999},"fuelLevel":0.61,"lastAddress":"Balanstraße 4, 81669 München, Germany"}
{"timestamp":"2016-10-17T01:00:00+0200","id":124011,"name":"Maxl","coordinate":{"longitude":11.59469986,"latitude":48.12770081},"fuelLevel":0.6699999999999999,"lastAddress":"Metzstraße 1, 81667 München, Germany"}
{"timestamp":"2016-10-17T01:00:00+0200","id":124003,"name":"Franzl","coordinate":{"longitude":11.59329987,"latitude":48.12730026},"fuelLevel":0.8,"lastAddress":"Franziskanerstraße 15, 81669 München, Germany"}
{"timestamp":"2016-10-17T01:00:00+0200","id":124010,"name":"Luitpold","coordinate":{"longitude":11.58769989,"latitude":48.12770081},"fuelLevel":0.87,"lastAddress":"Hochstraße 19, 81669 München, Germany"}
{"timestamp":"2016-10-17T01:00:00+0200","id":124020,"name":"Vinzenz","coordinate":{"longitude":11.57789993,"latitude":48.1230011},"fuelLevel":0.81,"lastAddress":"Schlotthauerstraße 16, 81541 München, Germany"}
{"timestamp":"2016-10-17T01:00:00+0200","id":124049,"name":"Marei","coordinate":{"longitude":11.57419968,"latitude":48.12239838},"fuelLevel":0.9400000000000001,"lastAddress":"Sommerstraße 8, 81543 München, Germany"}
{"timestamp":"2016-10-17T01:00:00+0200","id":124045,"name":"Vroni","coordinate":{"longitude":11.56499958,"latitude":48.12409973},"fuelLevel":0.64,"lastAddress":"Kapuzinerstraße 37, 80469 München, Germany"}
{"timestamp":"2016-10-17T01:00:00+0200","id":124018,"name":"Toni","coordinate":{"longitude":11.56999969,"latitude":48.12950134},"fuelLevel":0.6499999999999999,"lastAddress":"Hans-Sachs-Straße 11, 80469 München, Germany"}
{"timestamp":"2016-10-17T01:00:00+0200","id":124012,"name":"Peter","coordinate":{"longitude":11.56130028,"latitude":48.15480042},"fuelLevel":0.9600000000000001,"lastAddress":"Schleißheimer Str. 51, 80797 München, Germany"}
{"timestamp":"2016-10-17T01:00:00+0200","id":124004,"name":"Fridl","coordinate":{"longitude":11.55589962,"latitude":48.15530014},"fuelLevel":0.58,"lastAddress":"Lothstraße 64, 80335 München, Germany"}
{"timestamp":"2016-10-17T01:00:00+0200","id":124031,"name":"Heidi","coordinate":{"longitude":11.56669998,"latitude":48.15179825},"fuelLevel":0.63,"lastAddress":"Heßstraße 42, 80798 München, Germany"}
{"timestamp":"2016-10-17T01:00:00+0200","id":124047,"name":"Walli","coordinate":{"longitude":11.56999969,"latitude":48.14929962},"fuelLevel":0.71,"lastAddress":"Theresienstraße 90, 80333 München, Germany"}
{"timestamp":"2016-10-17T01:00:00+0200","id":124048,"name":"Wiggerl","coordinate":{"longitude":11.58090019,"latitude":48.1629982},"fuelLevel":0.67,"lastAddress":"Herzogstraße 38, 80803 München, Germany"}
{"timestamp":"2016-10-17T01:00:00+0200","id":124028,"name":"Gitte","coordinate":{"longitude":11.57520008,"latitude":48.16070175},"fuelLevel":0.7200000000000001,"lastAddress":"Belgradstraße 2, 80796 München, Germany"}
{"timestamp":"2016-10-17T01:00:00+0200","id":124032,"name":"Irmi","coordinate":{"longitude":11.57079983,"latitude":48.16080093},"fuelLevel":0.44,"lastAddress":"Hohenzollernstraße 81, 80796 München, Germany"}
{"timestamp":"2016-10-17T01:00:00+0200","id":124037,"name":"Luise","coordinate":{"longitude":11.5703001,"latitude":48.15750122},"fuelLevel":0.52,"lastAddress":"Agnesstraße 14, 80798 München, Germany"}
{"timestamp":"2016-10-17T01:00:00+0200","id":124017,"name":"Siggi","coordinate":{"longitude":11.57269955,"latitude":48.16040039},"fuelLevel":0.56,"lastAddress":"Hohenzollernstraße 65, 80796 München, Germany"}
{"timestamp":"2016-10-17T01:00:00+0200","id":124029,"name":"Hannah","coordinate":{"longitude":11.51010036,"latitude":48.04550171},"fuelLevel":0.59,"lastAddress":"Gistlstraße 159, 82049 Pullach im Isartal, Germany"}
{"timestamp":"2016-10-17T01:00:00+0200","id":124039,"name":"Marie","coordinate":{"longitude":11.50959969,"latitude":48.04529953},"fuelLevel":0.63,"lastAddress":"Seitnerstraße 70, 82049 Pullach im Isartal, Germany"}
{"timestamp":"2016-10-17T01:00:00+0200","id":124009,"name":"Ludwig","coordinate":{"longitude":11.58310032,"latitude":48.16249847},"fuelLevel":0.6499999999999999,"lastAddress":"Herzogstraße 18, 80803 München, Germany"}