{"timestamp":"2016-11-08T14:05:00+0100","id":124041,"name":"Sophie","coordinate":{"longitude":11.5803833,"latitude":48.15151978},"fuelLevel":0.64,"lastAddress":"Hauptgebäude, Geschwister-Scholl-Platz 1, 80539 München, Germany"}
{"timestamp":"2016-11-08T14:05:00+0100","id":124026,"name":"Eva","coordinate":{"longitude":11.57980347,"latitude":48.1526947},"fuelLevel":0.89,"lastAddress":"Akademiestraße 11, 80799 München, Germany"}
{"timestamp":"2016-11-08T14:05:00+0100","id":124025,"name":"Elli","coordinate":{"longitude":11.57783508,"latitude":48.14990234},"fuelLevel":0.5700000000000001,"lastAddress":"Schellingstraße 16, 80799 München, Germany"}
{"timestamp":"2016-11-08T14:05:00+0100","id":124033,"name":"Johanna","coordinate":{"longitude":11.57841492,"latitude":48.15310669},"fuelLevel":0.55,"lastAddress":"Akademiestraße 4, 80799 München, Germany"}
{"timestamp":"2016-11-08T14:05:00+0100","id":124044,"name":"Uschi","coordinate":{"longitude":11.57170105,"latitude":48.13252258},"fuelLevel":0.52,"lastAddress":"Blumenstraße 28A, 80331 München, Germany"}
{"timestamp":"2016-11-08T14:05:00+0100","id":124040,"name":"Reserl","coordinate":{"longitude":11.57478333,"latitude":48.12887573},"fuelLevel":0.79,"lastAddress":"Fraunhoferstraße 32, 80469 München, Germany"}
{"timestamp":"2016-11-08T14:05:00+0100","id":124021,"name":"Xaver","coordinate":{"longitude":11.57200623,"latitude":48.13088989},"fuelLevel":0.88,"lastAddress":"Fraunhoferstraße 6, 80469 München, Germany"}
{"timestamp":"2016-11-08T14:05:00+0100","id":124034,"name":"Kathi","coordinate":{"longitude":11.60528564,"latitude":48.12968445},"fuelLevel":0.9099999999999999,"lastAddress":"Elsässer Str. 31, 81667 München, Germany"}
{"timestamp":"2016-11-08T14:05:00+0100","id":124023,"name":"Babsi","coordinate":{"longitude":11.56739807,"latitude":48.13110352},"fuelLevel":0.72,"lastAddress":"Pestalozzistraße 9-11, 80469 München, Germany"}
{"timestamp":"2016-11-08T14:05:00+0100","id":124016,"name":"Sepp","coordinate":{"longitude":11.59918213,"latitude":48.13040161},"fuelLevel":0.59,"lastAddress":"Metzstraße 32, 81667 München, Germany"}
{"timestamp":"2016-11-08T14:05:00+0100","id":124000,"name":"Bertl","coordinate":{"longitude":11.59698486,"latitude":48.12788391},"fuelLevel":0.58,"lastAddress":"Lothringer Str. 6, 81667 München, Germany"}
{"timestamp":"2016-11-08T14:05:00+0100","id":124011,"name":"Maxl","coordinate":{"longitude":11.59751892,"latitude":48.1242218},"fuelLevel":0.62,"lastAddress":"Orleansstraße 1, 81669 München, Germany"}
{"timestamp":"2016-11-08T14:05:00+0100","id":124003,"name":"Franzl","coordinate":{"longitude":11.58988953,"latitude":48.12518311},"fuelLevel":0.79,"lastAddress":"Franziskanerstraße 43, 81669 München, Germany"}
{"timestamp":"2016-11-08T14:05:00+0100","id":124019,"name":"Valentin","coordinate":{"longitude":11.58187866,"latitude":48.1210022},"fuelLevel":0.6499999999999999,"lastAddress":"Hochstraße 81, 81541 München, Germany"}
{"timestamp":"2016-11-08T14:05:00+0100","id":124035,"name":"Leonie","coordinate":{"longitude":11.58129883,"latitude":48.12750244},"fuelLevel":0.64,"lastAddress":"Schweigerstraße 4, 81541 München, Germany"}
{"timestamp":"2016-11-08T14:05:00+0100","id":124006,"name":"Gustl","coordinate":{"longitude":11.57789612,"latitude":48.1229248},"fuelLevel":0.5900000000000001,"lastAddress":"Schlotthauerstraße 16, 81541 München, Germany"}
{"timestamp":"2016-11-08T14:05:00+0100","id":124045,"name":"Vroni","coordinate":{"longitude":11.56729984,"latitude":48.12689972},"fuelLevel":0.8500000000000001,"lastAddress":"Holzstraße 51, 80469 München, Germany"}
{"timestamp":"2016-11-08T14:05:00+0100","id":124012,"name":"Peter","coordinate":{"longitude":11.56208801,"latitude":48.15699768},"fuelLevel":0.8099999999999999,"lastAddress":"Schleißheimer Str. 77, 80797 München, Germany"}
{"timestamp":"2016-11-08T14:05:00+0100","id":124031,"name":"Heidi","coordinate":{"longitude":11.56388855,"latitude":48.15058899},"fuelLevel":0.55,"lastAddress":"Augustenstraße 77-79, 80333 München, Germany"}
{"timestamp":"2016-11-08T14:05:00+0100","id":124047,"name":"Walli","coordinate":{"longitude":11.56651306,"latitude":48.14932251},"fuelLevel":0.8,"lastAddress":"Luisenstraße 47A, 80333 München, Germany"}
{"timestamp":"2016-11-08T14:05:00+0100","id":124002,"name":"Ferdl","coordinate":{"longitude":11.56350708,"latitude":48.14970398},"fuelLevel":0.76,"lastAddress":"Augustenstraße 72, 80333 München, Germany"}
{"timestamp":"2016-11-08T14:05:00+0100","id":124028,"name":"Gitte","coordinate":{"longitude":11.57719421,"latitude":48.15789795},"fuelLevel":0.62,"lastAddress":"Römerstraße 4, 80801 München, Germany"}
{"timestamp":"2016-11-08T14:05:00+0100","id":124027,"name":"Fanni","coordinate":{"longitude":11.58450317,"latitude":48.16220093},"fuelLevel":0.48000000000000004,"lastAddress":"Herzogstraße 8, 80803 München, Germany"}
{"timestamp":"2016-11-08T14:05:00+0100","id":124005,"name":"Georg","coordinate":{"longitude":11.57680035,"latitude":48.15800095},"fuelLevel":0.8500000000000001,"lastAddress":"Römerstraße 1, 80801 München, Germany"}
{"timestamp":"2016-11-08T14:05:00+0100","id":124001,"name":"Edmund","coordinate":{"longitude":11.57669067,"latitude":48.16130066},"fuelLevel":0.63,"lastAddress":"Kaiserstraße 59-61, 80801 München, Germany"}
{"timestamp":"2016-11-08T14:05:00+0100","id":124032,"name":"Irmi","coordinate":{"longitude":11.57489967,"latitude":48.15879822},"fuelLevel":0.57,"lastAddress":"Nordendstraße 62, 80801 München, Germany"}
{"timestamp":"2016-11-08T14:05:00+0100","id":124037,"name":"Luise","coordinate":{"longitude":11.57292175,"latitude":48.15591431},"fuelLevel":0.83,"lastAddress":"Georgenstraße 68, 80799 München, Germany"}
{"timestamp":"2016-11-08T14:05:00+0100","id":124029,"name":"Hannah","coordinate":{"longitude":11.50961304,"latitude":48.04550171},"fuelLevel":0.71,"lastAddress":"Seitnerstraße 70, 82049 Pullach im Isartal, Germany"}
{"timestamp":"2016-11-08T14:05:00+0100","id":124008,"name":"Johann","coordinate":{"longitude":11.50970459,"latitude":48.04537964},"fuelLevel":0.51,"lastAddress":"Seitnerstraße 70, 82049 Pullach im Isartal, Germany"}
{"timestamp":"2016-11-08T14:05:00+0100","id":124039,"name":"Marie","coordinate":{"longitude":11.50961304,"latitude":48.04541016},"fuelLevel":0.63,"lastAddress":"Seitnerstraße 70, 82049 Pullach im Isartal, Germany"}
{"timestamp":"2016-11-08T14:05:00+0100","id":124009,"name":"Ludwig","coordinate":{"longitude":11.58268738,"latitude":48.1652832},"fuelLevel":0.66,"lastAddress":"Muffatstraße 3, 80803 München, Germany"}
{"timestamp":"2016-11-08T14:05:00+0100","id":124007,"name":"Jakob","coordinate":{"longitude":11.57409668,"latitude":48.16429138},"fuelLevel":0.84,"lastAddress":"Belgradstraße 37, 80796 München, Germany"}