{"timestamp":"2016-10-17T09:30:00+0200","id":124041,"name":"Sophie","coordinate":{"longitude":11.5781002,"latitude":48.15370178},"fuelLevel":0.8300000000000001,"lastAddress":"Rambergstraße 3, 80799 München, Germany"}
{"timestamp":"2016-10-17T09:30:00+0200","id":124026,"name":"Eva","coordinate":{"longitude":11.58090019,"latitude":48.14989853},"fuelLevel":0.9199999999999999,"lastAddress":"Ludwigstraße 24, 80539 München, Germany"}
{"timestamp":"2016-10-17T09:30:00+0200","id":124025,"name":"Elli","coordinate":{"longitude":11.57940006,"latitude":48.15599823},"fuelLevel":0.8300000000000001,"lastAddress":"Friedrichstraße 9, 80801 München, Germany"}
{"timestamp":"2016-10-17T09:30:00+0200","id":124044,"name":"Uschi","coordinate":{"longitude":11.57219982,"latitude":48.13159943},"fuelLevel":0.8,"lastAddress":"Müllerstraße 13, 80469 München, Germany"}
{"timestamp":"2016-10-17T09:30:00+0200","id":124040,"name":"Reserl","coordinate":{"longitude":11.57289982,"latitude":48.13199997},"fuelLevel":0.79,"lastAddress":"Müllerstraße 7, 80469 München, Germany"}
{"timestamp":"2016-10-17T09:30:00+0200","id":124021,"name":"Xaver","coordinate":{"longitude":11.5802002,"latitude":48.13010025},"fuelLevel":0.9199999999999999,"lastAddress":"Erhardtstraße 27, 80469 München, Germany"}
{"timestamp":"2016-10-17T09:30:00+0200","id":124014,"name":"Quirin","coordinate":{"longitude":11.59759998,"latitude":48.13470078},"fuelLevel":0.57,"lastAddress":"Innere Wiener Straße 58, 81667 München, Germany"}
{"timestamp":"2016-10-17T09:30:00+0200","id":124034,"name":"Kathi","coordinate":{"longitude":11.60919952,"latitude":48.13299942},"fuelLevel":0.57,"lastAddress":"Kirchenstraße 91A, 81675 München, Germany"}
{"timestamp":"2016-10-17T09:30:00+0200","id":124016,"name":"Sepp","coordinate":{"longitude":11.59799957,"latitude":48.12599945},"fuelLevel":0.88,"lastAddress":"Rosenheimer Str. 98, 81669 München, Germany"}
{"timestamp":"2016-10-17T09:30:00+0200","id":124038,"name":"Magda","coordinate":{"longitude":11.60029984,"latitude":48.12870026},"fuelLevel":0.67,"lastAddress":"Pariser Str. 31, 81667 München, Germany"}
{"timestamp":"2016-10-17T09:30:00+0200","id":124013,"name":"Poldi","coordinate":{"longitude":11.59459972,"latitude":48.12870026},"fuelLevel":0.61,"lastAddress":"Weißenburger Str. 1, 81667 München, Germany"}
{"timestamp":"2016-10-17T09:30:00+0200","id":124011,"name":"Maxl","coordinate":{"longitude":11.59490013,"latitude":48.12770081},"fuelLevel":0.6699999999999999,"lastAddress":"Metzstraße 1, 81667 München, Germany"}
{"timestamp":"2016-10-17T09:30:00+0200","id":124003,"name":"Franzl","coordinate":{"longitude":11.59329987,"latitude":48.12770081},"fuelLevel":0.8,"lastAddress":"Franziskanerstraße 6, 81669 München, Germany"}
{"timestamp":"2016-10-17T09:30:00+0200","id":124010,"name":"Luitpold","coordinate":{"longitude":11.58769989,"latitude":48.12770081},"fuelLevel":0.87,"lastAddress":"Hochstraße 19, 81669 München, Germany"}
{"timestamp":"2016-10-17T09:30:00+0200","id":124020,"name":"Vinzenz","coordinate":{"longitude":11.57769966,"latitude":48.1230011},"fuelLevel":0.81,"lastAddress":"Schlotthauerstraße 14A, 81541 München, Germany"}
{"timestamp":"2016-10-17T09:30:00+0200","id":124049,"name":"Marei","coordinate":{"longitude":11.57409954,"latitude":48.12210083},"fuelLevel":0.9400000000000001,"lastAddress":"Sommerstraße 13, 81543 München, Germany"}
{"timestamp":"2016-10-17T09:30:00+0200","id":124045,"name":"Vroni","coordinate":{"longitude":11.56509972,"latitude":48.12409973},"fuelLevel":0.64,"lastAddress":"Kapuzinerstraße 37, 80469 München, Germany"}
{"timestamp":"2016-10-17T09:30:00+0200","id":124018,"name":"Toni","coordinate":{"longitude":11.56999969,"latitude":48.13000107},"fuelLevel":0.6499999999999999,"lastAddress":"Hans-Sachs-Straße 7, 80469 München, Germany"}
{"timestamp":"2016-10-17T09:30:00+0200","id":124012,"name":"Peter","coordinate":{"longitude":11.56200027,"latitude":48.15470123},"fuelLevel":0.9600000000000001,"lastAddress":"Schleißheimer Str. 86, 80797 München, Germany"}
{"timestamp":"2016-10-17T09:30:00+0200","id":124004,"name":"Fridl","coordinate":{"longitude":11.55580044,"latitude":48.15510178},"fuelLevel":0.58,"lastAddress":"Lothstraße 64, 80335 München, Germany"}
{"timestamp":"2016-10-17T09:30:00+0200","id":124031,"name":"Heidi","coordinate":{"longitude":11.56639957,"latitude":48.15179825},"fuelLevel":0.63,"lastAddress":"Heßstraße 42-44, 80798 München, Germany"}
{"timestamp":"2016-10-17T09:30:00+0200","id":124047,"name":"Walli","coordinate":{"longitude":11.5703001,"latitude":48.14929962},"fuelLevel":0.71,"lastAddress":"Theresienstraße, 80333 München, Germany"}
{"timestamp":"2016-10-17T09:30:00+0200","id":124048,"name":"Wiggerl","coordinate":{"longitude":11.58049965,"latitude":48.1631012},"fuelLevel":0.67,"lastAddress":"Herzogstraße 38, 80803 München, Germany"}
{"timestamp":"2016-10-17T09:30:00+0200","id":124028,"name":"Gitte","coordinate":{"longitude":11.57579994,"latitude":48.16040039},"fuelLevel":0.7200000000000001,"lastAddress":"Hohenzollernstraße 78, 80801 München, Germany"}
{"timestamp":"2016-10-17T09:30:00+0200","id":124037,"name":"Luise","coordinate":{"longitude":11.56980038,"latitude":48.15729904},"fuelLevel":0.52,"lastAddress":"Daimlerstraße 9, 80798 München, Germany"}
{"timestamp":"2016-10-17T09:30:00+0200","id":124017,"name":"Siggi","coordinate":{"longitude":11.57229996,"latitude":48.16040039},"fuelLevel":0.56,"lastAddress":"Hohenzollernstraße 69, 80796 München, Germany"}
{"timestamp":"2016-10-17T09:30:00+0200","id":124029,"name":"Hannah","coordinate":{"longitude":11.50990009,"latitude":48.04550171},"fuelLevel":0.59,"lastAddress":"Gistlstraße 159, 82049 Pullach im Isartal, Germany"}
{"timestamp":"2016-10-17T09:30:00+0200","id":124039,"name":"Marie","coordinate":{"longitude":11.50959969,"latitude":48.04550171},"fuelLevel":0.63,"lastAddress":"Seitnerstraße 70, 82049 Pullach im Isartal, Germany"}
{"timestamp":"2016-10-17T09:30:00+0200","id":124009,"name":"Ludwig","coordinate":{"longitude":11.58370018,"latitude":48.16249847},"fuelLevel":0.6499999999999999,"lastAddress":"Wilhelmstraße 30, 80801 München, Germany"}