{"timestamp":"2016-11-19T19:15:00+0100","id":124041,"name":"Sophie","coordinate":{"longitude":11.5789032,"latitude":48.15299988},"fuelLevel":0.5599999999999999,"lastAddress":"Akademiestraße 2, 80799 München, Germany"}
{"timestamp":"2016-11-19T19:15:00+0100","id":124026,"name":"Eva","coordinate":{"longitude":11.58128357,"latitude":48.15238953},"fuelLevel":0.75,"lastAddress":"Akademiestraße 3, 80799 München, Germany"}
{"timestamp":"2016-11-19T19:15:00+0100","id":124025,"name":"Elli","coordinate":{"longitude":11.58128357,"latitude":48.15240479},"fuelLevel":0.8400000000000001,"lastAddress":"Akademiestraße 3, 80799 München, Germany"}
{"timestamp":"2016-11-19T19:15:00+0100","id":124024,"name":"Christl","coordinate":{"longitude":11.57699585,"latitude":48.13278198},"fuelLevel":0.6499999999999999,"lastAddress":"Buttermelcherstraße 4, 80469 München, Germany"}
{"timestamp":"2016-11-19T19:15:00+0100","id":124040,"name":"Reserl","coordinate":{"longitude":11.58169556,"latitude":48.1308136},"fuelLevel":0.86,"lastAddress":"Erhardtstraße 27, 80469 München, Germany"}
{"timestamp":"2016-11-19T19:15:00+0100","id":124021,"name":"Xaver","coordinate":{"longitude":11.58189392,"latitude":48.13108826},"fuelLevel":0.8,"lastAddress":"Kohlstraße 11, 80469 München, Germany"}
{"timestamp":"2016-11-19T19:15:00+0100","id":124014,"name":"Quirin","coordinate":{"longitude":11.59921265,"latitude":48.13600159},"fuelLevel":0.6527777777777778,"lastAddress":"Einsteinstraße 3, 81675 München, Germany"}
{"timestamp":"2016-11-19T19:15:00+0100","id":124034,"name":"Kathi","coordinate":{"longitude":11.60379982,"latitude":48.13040161},"fuelLevel":0.84,"lastAddress":"Breisacher Str. 12, 81667 München, Germany"}
{"timestamp":"2016-11-19T19:15:00+0100","id":124023,"name":"Babsi","coordinate":{"longitude":11.56480408,"latitude":48.129776},"fuelLevel":0.5700000000000001,"lastAddress":"Winckelstraße, 80337 München, Germany"}
{"timestamp":"2016-11-19T19:15:00+0100","id":124000,"name":"Bertl","coordinate":{"longitude":11.59689999,"latitude":48.12799835},"fuelLevel":0.55,"lastAddress":"Lothringer Str. 4, 81667 München, Germany"}
{"timestamp":"2016-11-19T19:15:00+0100","id":124013,"name":"Poldi","coordinate":{"longitude":11.58958435,"latitude":48.12501526},"fuelLevel":0.79,"lastAddress":"Franziskanerstraße 47, 81669 München, Germany"}
{"timestamp":"2016-11-19T19:15:00+0100","id":124003,"name":"Franzl","coordinate":{"longitude":11.58810425,"latitude":48.12548828},"fuelLevel":0.7200000000000001,"lastAddress":"Gebsattelstraße 16, 81541 München, Germany"}
{"timestamp":"2016-11-19T19:15:00+0100","id":124010,"name":"Luitpold","coordinate":{"longitude":11.58818054,"latitude":48.12860107},"fuelLevel":0.58,"lastAddress":"Hochstraße 15, 81669 München, Germany"}
{"timestamp":"2016-11-19T19:15:00+0100","id":124019,"name":"Valentin","coordinate":{"longitude":11.58200073,"latitude":48.1210022},"fuelLevel":0.64,"lastAddress":"Hochstraße 81, 81541 München, Germany"}
{"timestamp":"2016-11-19T19:15:00+0100","id":124035,"name":"Leonie","coordinate":{"longitude":11.58349609,"latitude":48.12770081},"fuelLevel":0.87,"lastAddress":"Zeppelinstraße 39, 81669 München, Germany"}
{"timestamp":"2016-11-19T19:15:00+0100","id":124006,"name":"Gustl","coordinate":{"longitude":11.57601929,"latitude":48.12101746},"fuelLevel":0.86,"lastAddress":"Kolumbusstraße 22, 81543 München, Germany"}
{"timestamp":"2016-11-19T19:15:00+0100","id":124020,"name":"Vinzenz","coordinate":{"longitude":11.57719994,"latitude":48.1230011},"fuelLevel":0.86,"lastAddress":"Schlotthauerstraße 12, 81541 München, Germany"}
{"timestamp":"2016-11-19T19:15:00+0100","id":124049,"name":"Marei","coordinate":{"longitude":11.57746887,"latitude":48.12020874},"fuelLevel":0.8999999999999999,"lastAddress":"Dollmannstraße 6, 81541 München, Germany"}
{"timestamp":"2016-11-19T19:15:00+0100","id":124018,"name":"Toni","coordinate":{"longitude":11.56919861,"latitude":48.12399292},"fuelLevel":0.56,"lastAddress":"Wittelsbacherstraße 10-11, 80469 München, Germany"}
{"timestamp":"2016-11-19T19:15:00+0100","id":124012,"name":"Peter","coordinate":{"longitude":11.55999756,"latitude":48.15499878},"fuelLevel":0.6,"lastAddress":"Schellingstraße 138, 80797 München, Germany"}
{"timestamp":"2016-11-19T19:15:00+0100","id":124004,"name":"Fridl","coordinate":{"longitude":11.55908203,"latitude":48.15391541},"fuelLevel":0.88,"lastAddress":"Heßstraße 79, 80797 München, Germany"}
{"timestamp":"2016-11-19T19:15:00+0100","id":124047,"name":"Walli","coordinate":{"longitude":11.56719971,"latitude":48.15080261},"fuelLevel":0.75,"lastAddress":"Luisenstraße 63, 80798 München, Germany"}
{"timestamp":"2016-11-19T19:15:00+0100","id":124002,"name":"Ferdl","coordinate":{"longitude":11.56401062,"latitude":48.15029907},"fuelLevel":0.8999999999999999,"lastAddress":"Augustenstraße 76, 80333 München, Germany"}
{"timestamp":"2016-11-19T19:15:00+0100","id":124048,"name":"Wiggerl","coordinate":{"longitude":11.57740784,"latitude":48.15899658},"fuelLevel":0.8,"lastAddress":"Ainmillerstraße 33, 80801 München, Germany"}
{"timestamp":"2016-11-19T19:15:00+0100","id":124028,"name":"Gitte","coordinate":{"longitude":11.57909966,"latitude":48.15800095},"fuelLevel":0.9099999999999999,"lastAddress":"Franz-Joseph-Straße 28, 80801 München, Germany"}
{"timestamp":"2016-11-19T19:15:00+0100","id":124027,"name":"Fanni","coordinate":{"longitude":11.58343506,"latitude":48.16090393},"fuelLevel":0.8800000000000001,"lastAddress":"Kaiserstraße 22, 80801 München, Germany"}
{"timestamp":"2016-11-19T19:15:00+0100","id":124001,"name":"Edmund","coordinate":{"longitude":11.57980347,"latitude":48.1612854},"fuelLevel":0.5599999999999999,"lastAddress":"Kaiserpl. 13, 80803 München, Germany"}
{"timestamp":"2016-11-19T19:15:00+0100","id":124032,"name":"Irmi","coordinate":{"longitude":11.57260036,"latitude":48.15810013},"fuelLevel":0.89,"lastAddress":"Elisabethstraße 10, 80796 München, Germany"}
{"timestamp":"2016-11-19T19:15:00+0100","id":124037,"name":"Luise","coordinate":{"longitude":11.56236267,"latitude":48.15740967},"fuelLevel":0.57,"lastAddress":"Schleißheimer Str. 108-110, 80797 München, Germany"}
{"timestamp":"2016-11-19T19:15:00+0100","id":124017,"name":"Siggi","coordinate":{"longitude":11.56913757,"latitude":48.15939331},"fuelLevel":0.64,"lastAddress":"Tengstraße 30, 80796 München, Germany"}
{"timestamp":"2016-11-19T19:15:00+0100","id":124029,"name":"Hannah","coordinate":{"longitude":11.50959778,"latitude":48.04548645},"fuelLevel":0.89,"lastAddress":"Seitnerstraße 70, 82049 Pullach im Isartal, Germany"}
{"timestamp":"2016-11-19T19:15:00+0100","id":124008,"name":"Johann","coordinate":{"longitude":11.50950623,"latitude":48.04548645},"fuelLevel":0.81,"lastAddress":"Seitnerstraße 70, 82049 Pullach im Isartal, Germany"}
{"timestamp":"2016-11-19T19:15:00+0100","id":124039,"name":"Marie","coordinate":{"longitude":11.50570011,"latitude":48.04430008},"fuelLevel":0.7569444444444444,"lastAddress":"Wolfratshauser Str. 138, 82049 Pullach im Isartal, Germany"}
{"timestamp":"2016-11-19T19:15:00+0100","id":124009,"name":"Ludwig","coordinate":{"longitude":11.58229065,"latitude":48.16560364},"fuelLevel":0.8,"lastAddress":"Muffatstraße 5-7, 80803 München, Germany"}
{"timestamp":"2016-11-19T19:15:00+0100","id":124007,"name":"Jakob","coordinate":{"longitude":11.57408142,"latitude":48.16430664},"fuelLevel":0.84,"lastAddress":"Belgradstraße 37, 80796 München, Germany"}