{"timestamp":"2016-10-07T07:30:00+0200","id":124041,"name":"Sophie","coordinate":{"longitude":11.5777998,"latitude":48.14970016},"fuelLevel":0.9400000000000001,"lastAddress":"Schellingstraße 11, 80799 München, Germany"}
{"timestamp":"2016-10-07T07:30:00+0200","id":124026,"name":"Eva","coordinate":{"longitude":11.57820034,"latitude":48.15370178},"fuelLevel":0.61,"lastAddress":"Türkenstraße 95, 80799 München, Germany"}
{"timestamp":"2016-10-07T07:30:00+0200","id":124025,"name":"Elli","coordinate":{"longitude":11.57590008,"latitude":48.15769958},"fuelLevel":0.9,"lastAddress":"Franz-Joseph-Straße 46, 80801 München, Germany"}
{"timestamp":"2016-10-07T07:30:00+0200","id":124033,"name":"Johanna","coordinate":{"longitude":11.58170033,"latitude":48.15159988},"fuelLevel":0.82,"lastAddress":"Ludwigstraße 29, 80539 München, Germany"}
{"timestamp":"2016-10-07T07:30:00+0200","id":124036,"name":"Liesel","coordinate":{"longitude":11.57520008,"latitude":48.15629959},"fuelLevel":0.6699999999999999,"lastAddress":"Nordendstraße 36, 80801 München, Germany"}
{"timestamp":"2016-10-07T07:30:00+0200","id":124044,"name":"Uschi","coordinate":{"longitude":11.57240009,"latitude":48.13219833},"fuelLevel":0.9199999999999999,"lastAddress":"Blumenstraße 19, 80331 München, Germany"}
{"timestamp":"2016-10-07T07:30:00+0200","id":124024,"name":"Christl","coordinate":{"longitude":11.57960033,"latitude":48.13420105},"fuelLevel":0.8,"lastAddress":"Zwingerstraße, 80469 München, Germany"}
{"timestamp":"2016-10-07T07:30:00+0200","id":124040,"name":"Reserl","coordinate":{"longitude":11.57229996,"latitude":48.13150024},"fuelLevel":0.83,"lastAddress":"Müllerstraße 13, 80469 München, Germany"}
{"timestamp":"2016-10-07T07:30:00+0200","id":124021,"name":"Xaver","coordinate":{"longitude":11.58170033,"latitude":48.13069916},"fuelLevel":0.9500000000000001,"lastAddress":"Erhardtstraße 27, 80469 München, Germany"}
{"timestamp":"2016-10-07T07:30:00+0200","id":124014,"name":"Quirin","coordinate":{"longitude":11.60529995,"latitude":48.13240051},"fuelLevel":0.6000000000000001,"lastAddress":"Spicherenstraße 1, 81667 München, Germany"}
{"timestamp":"2016-10-07T07:30:00+0200","id":124034,"name":"Kathi","coordinate":{"longitude":11.60499954,"latitude":48.13230133},"fuelLevel":0.66,"lastAddress":"Elsässer Str. 6, 81667 München, Germany"}
{"timestamp":"2016-10-07T07:30:00+0200","id":124016,"name":"Sepp","coordinate":{"longitude":11.59819984,"latitude":48.12580109},"fuelLevel":0.9299999999999999,"lastAddress":"Bazeillesstraße 1, 81669 München, Germany"}
{"timestamp":"2016-10-07T07:30:00+0200","id":124038,"name":"Magda","coordinate":{"longitude":11.60039997,"latitude":48.12850189},"fuelLevel":0.67,"lastAddress":"Pariser Str. 1, 81667 München, Germany"}
{"timestamp":"2016-10-07T07:30:00+0200","id":124022,"name":"Anne","coordinate":{"longitude":11.5948,"latitude":48.12810135},"fuelLevel":0.86,"lastAddress":"Rosenheimer Str. 67, 81667 München, Germany"}
{"timestamp":"2016-10-07T07:30:00+0200","id":124000,"name":"Bertl","coordinate":{"longitude":11.59459972,"latitude":48.12810135},"fuelLevel":0.82,"lastAddress":"Rosenheimer Str. 62, 81669 München, Germany"}
{"timestamp":"2016-10-07T07:30:00+0200","id":124013,"name":"Poldi","coordinate":{"longitude":11.59459972,"latitude":48.12760162},"fuelLevel":0.79,"lastAddress":"Metzstraße, 81669 München, Germany"}
{"timestamp":"2016-10-07T07:30:00+0200","id":124011,"name":"Maxl","coordinate":{"longitude":11.59319973,"latitude":48.12590027},"fuelLevel":0.73,"lastAddress":"Sieboldstraße 5, 81669 München, Germany"}
{"timestamp":"2016-10-07T07:30:00+0200","id":124003,"name":"Franzl","coordinate":{"longitude":11.59280014,"latitude":48.12739944},"fuelLevel":0.8,"lastAddress":"Franziskanerstraße 8, 81669 München, Germany"}
{"timestamp":"2016-10-07T07:30:00+0200","id":124010,"name":"Luitpold","coordinate":{"longitude":11.58450031,"latitude":48.12730026},"fuelLevel":0.9500000000000001,"lastAddress":"Lilienstraße 77, 81669 München, Germany"}
{"timestamp":"2016-10-07T07:30:00+0200","id":124019,"name":"Valentin","coordinate":{"longitude":11.58520031,"latitude":48.12369919},"fuelLevel":0.87,"lastAddress":"Hochstraße 49C, 81541 München, Germany"}
{"timestamp":"2016-10-07T07:30:00+0200","id":124035,"name":"Leonie","coordinate":{"longitude":11.58619976,"latitude":48.12929916},"fuelLevel":0.7899999999999999,"lastAddress":"Lilienstraße 36, 81669 München, Germany"}
{"timestamp":"2016-10-07T07:30:00+0200","id":124006,"name":"Gustl","coordinate":{"longitude":11.57769966,"latitude":48.1208992},"fuelLevel":0.9400000000000001,"lastAddress":"Falkenstraße 43, 81541 München, Germany"}
{"timestamp":"2016-10-07T07:30:00+0200","id":124020,"name":"Vinzenz","coordinate":{"longitude":11.57680035,"latitude":48.12450027},"fuelLevel":0.8999999999999999,"lastAddress":"Albanistraße 3, 81541 München, Germany"}
{"timestamp":"2016-10-07T07:30:00+0200","id":124049,"name":"Marei","coordinate":{"longitude":11.57460022,"latitude":48.11970139},"fuelLevel":0.69,"lastAddress":"Humboldtstraße 30, 81543 München, Germany"}
{"timestamp":"2016-10-07T07:30:00+0200","id":124045,"name":"Vroni","coordinate":{"longitude":11.56760025,"latitude":48.12779999},"fuelLevel":0.9199999999999999,"lastAddress":"Holzstraße 43, 80469 München, Germany"}
{"timestamp":"2016-10-07T07:30:00+0200","id":124018,"name":"Toni","coordinate":{"longitude":11.57040024,"latitude":48.13040161},"fuelLevel":0.9199999999999999,"lastAddress":"Hans-Sachs-Straße 3, 80469 München, Germany"}
{"timestamp":"2016-10-07T07:30:00+0200","id":124012,"name":"Peter","coordinate":{"longitude":11.57310009,"latitude":48.15000153},"fuelLevel":1,"lastAddress":"Barer Str. 58, 80799 München, Germany"}
{"timestamp":"2016-10-07T07:30:00+0200","id":124004,"name":"Fridl","coordinate":{"longitude":11.56589985,"latitude":48.15650177},"fuelLevel":0.55,"lastAddress":"Hiltenspergerstraße 8/I, 80798 München, Germany"}
{"timestamp":"2016-10-07T07:30:00+0200","id":124031,"name":"Heidi","coordinate":{"longitude":11.57289982,"latitude":48.14979935},"fuelLevel":0.8,"lastAddress":"Barer Str. 54, 80799 München, Germany"}
{"timestamp":"2016-10-07T07:30:00+0200","id":124047,"name":"Walli","coordinate":{"longitude":11.56980038,"latitude":48.15069962},"fuelLevel":0.83,"lastAddress":"Arcisstraße 31, 80799 München, Germany"}
{"timestamp":"2016-10-07T07:30:00+0200","id":124002,"name":"Ferdl","coordinate":{"longitude":11.56470013,"latitude":48.15209961},"fuelLevel":0.9500000000000001,"lastAddress":"Augustenstraße 95, 80798 München, Germany"}
{"timestamp":"2016-10-07T07:30:00+0200","id":124048,"name":"Wiggerl","coordinate":{"longitude":11.5788002,"latitude":48.16130066},"fuelLevel":0.68,"lastAddress":"Kaiserstraße 38, 80801 München, Germany"}
{"timestamp":"2016-10-07T07:30:00+0200","id":124028,"name":"Gitte","coordinate":{"longitude":11.57699966,"latitude":48.16009903},"fuelLevel":0.75,"lastAddress":"Hohenzollernstraße 41, 80801 München, Germany"}
{"timestamp":"2016-10-07T07:30:00+0200","id":124027,"name":"Fanni","coordinate":{"longitude":11.57789993,"latitude":48.15919876},"fuelLevel":0.7899999999999999,"lastAddress":"Ainmillerstraße 40, 80801 München, Germany"}
{"timestamp":"2016-10-07T07:30:00+0200","id":124005,"name":"Georg","coordinate":{"longitude":11.58150005,"latitude":48.15879822},"fuelLevel":0.66,"lastAddress":"Ainmillerstraße 20, 80801 München, Germany"}
{"timestamp":"2016-10-07T07:30:00+0200","id":124001,"name":"Edmund","coordinate":{"longitude":11.57909966,"latitude":48.15800095},"fuelLevel":0.5700000000000001,"lastAddress":"Franz-Joseph-Straße 28, 80801 München, Germany"}
{"timestamp":"2016-10-07T07:30:00+0200","id":124032,"name":"Irmi","coordinate":{"longitude":11.57330036,"latitude":48.16030121},"fuelLevel":0.64,"lastAddress":"Isabellastraße 48, 80796 München, Germany"}
{"timestamp":"2016-10-07T07:30:00+0200","id":124037,"name":"Luise","coordinate":{"longitude":11.56599998,"latitude":48.15779877},"fuelLevel":0.58,"lastAddress":"Hiltenspergerstraße 23, 80798 München, Germany"}
{"timestamp":"2016-10-07T07:30:00+0200","id":124017,"name":"Siggi","coordinate":{"longitude":11.5710001,"latitude":48.16070175},"fuelLevel":0.56,"lastAddress":"Hohenzollernstraße 79, 80796 München, Germany"}
{"timestamp":"2016-10-07T07:30:00+0200","id":124029,"name":"Hannah","coordinate":{"longitude":11.51039982,"latitude":48.04520035},"fuelLevel":0.7,"lastAddress":"Gistlstraße 159, 82049 Pullach im Isartal, Germany"}
{"timestamp":"2016-10-07T07:30:00+0200","id":124008,"name":"Johann","coordinate":{"longitude":11.51000023,"latitude":48.04550171},"fuelLevel":0.87,"lastAddress":"Gistlstraße 159, 82049 Pullach im Isartal, Germany"}
{"timestamp":"2016-10-07T07:30:00+0200","id":124039,"name":"Marie","coordinate":{"longitude":11.50959969,"latitude":48.04550171},"fuelLevel":0.58,"lastAddress":"Seitnerstraße 70, 82049 Pullach im Isartal, Germany"}
{"timestamp":"2016-10-07T07:30:00+0200","id":124009,"name":"Ludwig","coordinate":{"longitude":11.58500004,"latitude":48.16220093},"fuelLevel":0.8999999999999999,"lastAddress":"Herzogstraße 2, 80803 München, Germany"}
{"timestamp":"2016-10-07T07:30:00+0200","id":124007,"name":"Jakob","coordinate":{"longitude":11.57470036,"latitude":48.16740036},"fuelLevel":0.9400000000000001,"lastAddress":"Karl-Theodor-Straße 82, 80803 München, Germany"}