{"timestamp":"2016-10-05T00:55:00+0200","id":124041,"name":"Sophie","coordinate":{"longitude":11.57789993,"latitude":48.15019989},"fuelLevel":0.93,"lastAddress":"Amalienstraße 65, 80799 München, Germany"}
{"timestamp":"2016-10-05T00:55:00+0200","id":124026,"name":"Eva","coordinate":{"longitude":11.57750034,"latitude":48.15510178},"fuelLevel":0.61,"lastAddress":"Georgenstraße 38, 80799 München, Germany"}
{"timestamp":"2016-10-05T00:55:00+0200","id":124033,"name":"Johanna","coordinate":{"longitude":11.58150005,"latitude":48.15169907},"fuelLevel":0.84,"lastAddress":"Ludwigstraße 29, 80539 München, Germany"}
{"timestamp":"2016-10-05T00:55:00+0200","id":124036,"name":"Liesel","coordinate":{"longitude":11.57530022,"latitude":48.15660095},"fuelLevel":0.6699999999999999,"lastAddress":"Nordendstraße 40, 80801 München, Germany"}
{"timestamp":"2016-10-05T00:55:00+0200","id":124044,"name":"Uschi","coordinate":{"longitude":11.57260036,"latitude":48.13190079},"fuelLevel":0.9199999999999999,"lastAddress":"Müllerstraße 9, 80469 München, Germany"}
{"timestamp":"2016-10-05T00:55:00+0200","id":124024,"name":"Christl","coordinate":{"longitude":11.5795002,"latitude":48.13359833},"fuelLevel":0.8,"lastAddress":"Klenzestraße 1, 80469 München, Germany"}
{"timestamp":"2016-10-05T00:55:00+0200","id":124040,"name":"Reserl","coordinate":{"longitude":11.57310009,"latitude":48.13169861},"fuelLevel":0.8999999999999999,"lastAddress":"Müllerstraße 7, 80469 München, Germany"}
{"timestamp":"2016-10-05T00:55:00+0200","id":124021,"name":"Xaver","coordinate":{"longitude":11.58160019,"latitude":48.13069916},"fuelLevel":0.9500000000000001,"lastAddress":"Erhardtstraße 27, 80469 München, Germany"}
{"timestamp":"2016-10-05T00:55:00+0200","id":124014,"name":"Quirin","coordinate":{"longitude":11.60849953,"latitude":48.13299942},"fuelLevel":0.63,"lastAddress":"Kirchenstraße 87, 81675 München, Germany"}
{"timestamp":"2016-10-05T00:55:00+0200","id":124034,"name":"Kathi","coordinate":{"longitude":11.60490036,"latitude":48.13230133},"fuelLevel":0.67,"lastAddress":"Elsässer Str. 6, 81667 München, Germany"}
{"timestamp":"2016-10-05T00:55:00+0200","id":124030,"name":"Hedwig","coordinate":{"longitude":11.56340027,"latitude":48.12770081},"fuelLevel":0.9199999999999999,"lastAddress":"Waltherstraße 3, 80337 München, Germany"}
{"timestamp":"2016-10-05T00:55:00+0200","id":124023,"name":"Babsi","coordinate":{"longitude":11.56359959,"latitude":48.12730026},"fuelLevel":0.93,"lastAddress":"Thalkirchner Str. 54, 80337 München, Germany"}
{"timestamp":"2016-10-05T00:55:00+0200","id":124016,"name":"Sepp","coordinate":{"longitude":11.59850025,"latitude":48.12590027},"fuelLevel":0.9199999999999999,"lastAddress":"Rosenheimer Str. 125, 81667 München, Germany"}
{"timestamp":"2016-10-05T00:55:00+0200","id":124038,"name":"Magda","coordinate":{"longitude":11.6001997,"latitude":48.12789917},"fuelLevel":0.67,"lastAddress":"Gravelottestraße 2, 81667 München, Germany"}
{"timestamp":"2016-10-05T00:55:00+0200","id":124022,"name":"Anne","coordinate":{"longitude":11.59609985,"latitude":48.12720108},"fuelLevel":0.87,"lastAddress":"Rosenheimer Str. 78, 81669 München, Germany"}
{"timestamp":"2016-10-05T00:55:00+0200","id":124000,"name":"Bertl","coordinate":{"longitude":11.59679985,"latitude":48.12919998},"fuelLevel":0.82,"lastAddress":"Metzstraße 9, 81667 München, Germany"}
{"timestamp":"2016-10-05T00:55:00+0200","id":124013,"name":"Poldi","coordinate":{"longitude":11.59449959,"latitude":48.12770081},"fuelLevel":0.79,"lastAddress":"Balanstraße 6A, 81669 München, Germany"}
{"timestamp":"2016-10-05T00:55:00+0200","id":124011,"name":"Maxl","coordinate":{"longitude":11.59329987,"latitude":48.12540054},"fuelLevel":0.7899999999999999,"lastAddress":"Barnabasstraße 1, 81669 München, Germany"}
{"timestamp":"2016-10-05T00:55:00+0200","id":124003,"name":"Franzl","coordinate":{"longitude":11.59300041,"latitude":48.12739944},"fuelLevel":0.79,"lastAddress":"Franziskanerstraße 8, 81669 München, Germany"}
{"timestamp":"2016-10-05T00:55:00+0200","id":124010,"name":"Luitpold","coordinate":{"longitude":11.58460045,"latitude":48.12760162},"fuelLevel":0.37,"lastAddress":"Lilienstraße 73, 81669 München, Germany"}
{"timestamp":"2016-10-05T00:55:00+0200","id":124035,"name":"Leonie","coordinate":{"longitude":11.58619976,"latitude":48.1291008},"fuelLevel":0.7899999999999999,"lastAddress":"Schwarzstraße 3, 81669 München, Germany"}
{"timestamp":"2016-10-05T00:55:00+0200","id":124006,"name":"Gustl","coordinate":{"longitude":11.57789993,"latitude":48.12080002},"fuelLevel":0.9400000000000001,"lastAddress":"Dollmannstraße 2, 81541 München, Germany"}
{"timestamp":"2016-10-05T00:55:00+0200","id":124020,"name":"Vinzenz","coordinate":{"longitude":11.57680035,"latitude":48.12440109},"fuelLevel":0.8999999999999999,"lastAddress":"Albanistraße 4-6, 81541 München, Germany"}
{"timestamp":"2016-10-05T00:55:00+0200","id":124049,"name":"Marei","coordinate":{"longitude":11.57409954,"latitude":48.11989975},"fuelLevel":0.69,"lastAddress":"Humboldtstraße 24, 81543 München, Germany"}
{"timestamp":"2016-10-05T00:55:00+0200","id":124045,"name":"Vroni","coordinate":{"longitude":11.56739998,"latitude":48.12789917},"fuelLevel":0.9199999999999999,"lastAddress":"Pestalozzistraße 52A, 80469 München, Germany"}
{"timestamp":"2016-10-05T00:55:00+0200","id":124018,"name":"Toni","coordinate":{"longitude":11.5703001,"latitude":48.13050079},"fuelLevel":0.9099999999999999,"lastAddress":"Hans-Sachs-Straße 1, 80469 München, Germany"}
{"timestamp":"2016-10-05T00:55:00+0200","id":124012,"name":"Peter","coordinate":{"longitude":11.57269955,"latitude":48.14960098},"fuelLevel":1,"lastAddress":"Barer Str. 48, 80799 München, Germany"}
{"timestamp":"2016-10-05T00:55:00+0200","id":124004,"name":"Fridl","coordinate":{"longitude":11.56599998,"latitude":48.15620041},"fuelLevel":0.55,"lastAddress":"Josephspl. 5, 80798 München, Germany"}
{"timestamp":"2016-10-05T00:55:00+0200","id":124031,"name":"Heidi","coordinate":{"longitude":11.56649971,"latitude":48.15010071},"fuelLevel":0.8,"lastAddress":"Luisenstraße 55, 80333 München, Germany"}
{"timestamp":"2016-10-05T00:55:00+0200","id":124047,"name":"Walli","coordinate":{"longitude":11.57009983,"latitude":48.15050125},"fuelLevel":0.83,"lastAddress":"Arcisstraße 32, 80799 München, Germany"}
{"timestamp":"2016-10-05T00:55:00+0200","id":124002,"name":"Ferdl","coordinate":{"longitude":11.56470013,"latitude":48.15200043},"fuelLevel":0.9500000000000001,"lastAddress":"Augustenstraße 93, 80798 München, Germany"}
{"timestamp":"2016-10-05T00:55:00+0200","id":124048,"name":"Wiggerl","coordinate":{"longitude":11.57859993,"latitude":48.16130066},"fuelLevel":0.68,"lastAddress":"Kaiserstraße 40, 80801 München, Germany"}
{"timestamp":"2016-10-05T00:55:00+0200","id":124028,"name":"Gitte","coordinate":{"longitude":11.57719994,"latitude":48.15980148},"fuelLevel":0.75,"lastAddress":"Römerstraße 17, 80801 München, Germany"}
{"timestamp":"2016-10-05T00:55:00+0200","id":124027,"name":"Fanni","coordinate":{"longitude":11.57800007,"latitude":48.15879822},"fuelLevel":0.7899999999999999,"lastAddress":"Ainmillerstraße 33, 80801 München, Germany"}
{"timestamp":"2016-10-05T00:55:00+0200","id":124005,"name":"Georg","coordinate":{"longitude":11.58199978,"latitude":48.15879822},"fuelLevel":0.66,"lastAddress":"Ainmillerstraße 18, 80801 München, Germany"}
{"timestamp":"2016-10-05T00:55:00+0200","id":124032,"name":"Irmi","coordinate":{"longitude":11.57310009,"latitude":48.16040039},"fuelLevel":0.64,"lastAddress":"Isabellastraße 49, 80796 München, Germany"}
{"timestamp":"2016-10-05T00:55:00+0200","id":124037,"name":"Luise","coordinate":{"longitude":11.56639957,"latitude":48.15790176},"fuelLevel":0.58,"lastAddress":"Agnesstraße 38, 80798 München, Germany"}
{"timestamp":"2016-10-05T00:55:00+0200","id":124017,"name":"Siggi","coordinate":{"longitude":11.57110023,"latitude":48.16070175},"fuelLevel":0.56,"lastAddress":"Hohenzollernstraße 79, 80796 München, Germany"}
{"timestamp":"2016-10-05T00:55:00+0200","id":124029,"name":"Hannah","coordinate":{"longitude":11.51029968,"latitude":48.04520035},"fuelLevel":0.71,"lastAddress":"Gistlstraße 159, 82049 Pullach im Isartal, Germany"}
{"timestamp":"2016-10-05T00:55:00+0200","id":124008,"name":"Johann","coordinate":{"longitude":11.50990009,"latitude":48.04539871},"fuelLevel":0.87,"lastAddress":"Gistlstraße 159, 82049 Pullach im Isartal, Germany"}
{"timestamp":"2016-10-05T00:55:00+0200","id":124039,"name":"Marie","coordinate":{"longitude":11.50940037,"latitude":48.04579926},"fuelLevel":0.58,"lastAddress":"Franz-Höllriegel-Straße, 82049 Pullach im Isartal, Germany"}
{"timestamp":"2016-10-05T00:55:00+0200","id":124009,"name":"Ludwig","coordinate":{"longitude":11.5848999,"latitude":48.16210175},"fuelLevel":0.8999999999999999,"lastAddress":"Herzogstraße 4, 80803 München, Germany"}
{"timestamp":"2016-10-05T00:55:00+0200","id":124007,"name":"Jakob","coordinate":{"longitude":11.57470036,"latitude":48.16699982},"fuelLevel":0.9400000000000001,"lastAddress":"Karl-Theodor-Straße 77, 80803 München, Germany"}