{"timestamp":"2016-10-16T06:20:00+0200","id":124041,"name":"Sophie","coordinate":{"longitude":11.57839966,"latitude":48.15359879},"fuelLevel":0.8300000000000001,"lastAddress":"Türkenstraße 95, 80799 München, Germany"}
{"timestamp":"2016-10-16T06:20:00+0200","id":124026,"name":"Eva","coordinate":{"longitude":11.57919979,"latitude":48.15209961},"fuelLevel":0.9400000000000001,"lastAddress":"Adalbertstraße 28, 80799 München, Germany"}
{"timestamp":"2016-10-16T06:20:00+0200","id":124025,"name":"Elli","coordinate":{"longitude":11.57900047,"latitude":48.15570068},"fuelLevel":0.8300000000000001,"lastAddress":"Konradstraße 16, 80801 München, Germany"}
{"timestamp":"2016-10-16T06:20:00+0200","id":124033,"name":"Johanna","coordinate":{"longitude":11.57689953,"latitude":48.15010071},"fuelLevel":0.73,"lastAddress":"Schellingstraße 24, 80799 München, Germany"}
{"timestamp":"2016-10-16T06:20:00+0200","id":124040,"name":"Reserl","coordinate":{"longitude":11.57310009,"latitude":48.13130188},"fuelLevel":0.79,"lastAddress":"Müllerstraße 7, 80469 München, Germany"}
{"timestamp":"2016-10-16T06:20:00+0200","id":124021,"name":"Xaver","coordinate":{"longitude":11.58040047,"latitude":48.13010025},"fuelLevel":0.9199999999999999,"lastAddress":"Erhardtstraße 27, 80469 München, Germany"}
{"timestamp":"2016-10-16T06:20:00+0200","id":124014,"name":"Quirin","coordinate":{"longitude":11.59749985,"latitude":48.1344986},"fuelLevel":0.57,"lastAddress":"Innere Wiener Straße 56, 81667 München, Germany"}
{"timestamp":"2016-10-16T06:20:00+0200","id":124034,"name":"Kathi","coordinate":{"longitude":11.60879993,"latitude":48.13249969},"fuelLevel":0.57,"lastAddress":"Kirchenstraße 90, 81675 München, Germany"}
{"timestamp":"2016-10-16T06:20:00+0200","id":124016,"name":"Sepp","coordinate":{"longitude":11.59809971,"latitude":48.12620163},"fuelLevel":0.88,"lastAddress":"Rosenheimer Str. 119, 81667 München, Germany"}
{"timestamp":"2016-10-16T06:20:00+0200","id":124038,"name":"Magda","coordinate":{"longitude":11.60000038,"latitude":48.12799835},"fuelLevel":0.67,"lastAddress":"Pariser Str. 38, 81667 München, Germany"}
{"timestamp":"2016-10-16T06:20:00+0200","id":124022,"name":"Anne","coordinate":{"longitude":11.60000038,"latitude":48.12599945},"fuelLevel":0.7999999999999999,"lastAddress":"Lothringer Str., 81667 München, Germany"}
{"timestamp":"2016-10-16T06:20:00+0200","id":124013,"name":"Poldi","coordinate":{"longitude":11.59430027,"latitude":48.12779999},"fuelLevel":0.61,"lastAddress":"Balanstraße 4, 81669 München, Germany"}
{"timestamp":"2016-10-16T06:20:00+0200","id":124011,"name":"Maxl","coordinate":{"longitude":11.59449959,"latitude":48.12820053},"fuelLevel":0.6699999999999999,"lastAddress":"Rosenheimer Str. 63, 81667 München, Germany"}
{"timestamp":"2016-10-16T06:20:00+0200","id":124003,"name":"Franzl","coordinate":{"longitude":11.59280014,"latitude":48.1271019},"fuelLevel":0.8,"lastAddress":"Rablstraße 26, 81669 München, Germany"}
{"timestamp":"2016-10-16T06:20:00+0200","id":124010,"name":"Luitpold","coordinate":{"longitude":11.58409977,"latitude":48.12739944},"fuelLevel":0.9400000000000001,"lastAddress":"Lilienstraße 70, 81669 München, Germany"}
{"timestamp":"2016-10-16T06:20:00+0200","id":124020,"name":"Vinzenz","coordinate":{"longitude":11.57830048,"latitude":48.1230011},"fuelLevel":0.81,"lastAddress":"Entenbachstraße 29, 81541 München, Germany"}
{"timestamp":"2016-10-16T06:20:00+0200","id":124049,"name":"Marei","coordinate":{"longitude":11.57419968,"latitude":48.12250137},"fuelLevel":0.9400000000000001,"lastAddress":"Eduard-Schmid-Straße 34, 81541 München, Germany"}
{"timestamp":"2016-10-16T06:20:00+0200","id":124045,"name":"Vroni","coordinate":{"longitude":11.56499958,"latitude":48.12440109},"fuelLevel":0.64,"lastAddress":"Kapuzinerstraße 37, 80469 München, Germany"}
{"timestamp":"2016-10-16T06:20:00+0200","id":124018,"name":"Toni","coordinate":{"longitude":11.56949997,"latitude":48.12969971},"fuelLevel":0.6499999999999999,"lastAddress":"Hans-Sachs-Straße 12, 80469 München, Germany"}
{"timestamp":"2016-10-16T06:20:00+0200","id":124012,"name":"Peter","coordinate":{"longitude":11.56140041,"latitude":48.15459824},"fuelLevel":0.9600000000000001,"lastAddress":"Schleißheimer Str. 86, 80797 München, Germany"}
{"timestamp":"2016-10-16T06:20:00+0200","id":124004,"name":"Fridl","coordinate":{"longitude":11.55589962,"latitude":48.15499878},"fuelLevel":0.58,"lastAddress":"Lothstraße 64, 80335 München, Germany"}
{"timestamp":"2016-10-16T06:20:00+0200","id":124031,"name":"Heidi","coordinate":{"longitude":11.56649971,"latitude":48.15159988},"fuelLevel":0.63,"lastAddress":"Heßstraße 23, 80798 München, Germany"}
{"timestamp":"2016-10-16T06:20:00+0200","id":124047,"name":"Walli","coordinate":{"longitude":11.57009983,"latitude":48.14960098},"fuelLevel":0.71,"lastAddress":"Theresienstraße 90, 80333 München, Germany"}
{"timestamp":"2016-10-16T06:20:00+0200","id":124048,"name":"Wiggerl","coordinate":{"longitude":11.58049965,"latitude":48.16239929},"fuelLevel":0.67,"lastAddress":"Herzogstraße 31, 80803 München, Germany"}
{"timestamp":"2016-10-16T06:20:00+0200","id":124028,"name":"Gitte","coordinate":{"longitude":11.57549953,"latitude":48.16040039},"fuelLevel":0.7200000000000001,"lastAddress":"Hohenzollernstraße 82, 80801 München, Germany"}
{"timestamp":"2016-10-16T06:20:00+0200","id":124027,"name":"Fanni","coordinate":{"longitude":11.58450031,"latitude":48.16059875},"fuelLevel":0.7899999999999999,"lastAddress":"Kaiserstraße 9, 80801 München, Germany"}
{"timestamp":"2016-10-16T06:20:00+0200","id":124005,"name":"Georg","coordinate":{"longitude":11.57540035,"latitude":48.16199875},"fuelLevel":0.56,"lastAddress":"Viktor-Scheffel-Straße 20, 80803 München, Germany"}
{"timestamp":"2016-10-16T06:20:00+0200","id":124032,"name":"Irmi","coordinate":{"longitude":11.57320023,"latitude":48.16009903},"fuelLevel":0.64,"lastAddress":"Isabellastraße 44, 80796 München, Germany"}
{"timestamp":"2016-10-16T06:20:00+0200","id":124037,"name":"Luise","coordinate":{"longitude":11.56999969,"latitude":48.15729904},"fuelLevel":0.52,"lastAddress":"Agnesstraße 15, 80798 München, Germany"}
{"timestamp":"2016-10-16T06:20:00+0200","id":124017,"name":"Siggi","coordinate":{"longitude":11.57260036,"latitude":48.16030121},"fuelLevel":0.56,"lastAddress":"Hohenzollernstraße 67, 80796 München, Germany"}
{"timestamp":"2016-10-16T06:20:00+0200","id":124029,"name":"Hannah","coordinate":{"longitude":11.51029968,"latitude":48.04529953},"fuelLevel":0.68,"lastAddress":"Gistlstraße 159, 82049 Pullach im Isartal, Germany"}
{"timestamp":"2016-10-16T06:20:00+0200","id":124039,"name":"Marie","coordinate":{"longitude":11.50469971,"latitude":48.03710175},"fuelLevel":0.9099999999999999,"lastAddress":"Zugspitzstraße 15, 82049 Pullach im Isartal, Germany"}
{"timestamp":"2016-10-16T06:20:00+0200","id":124009,"name":"Ludwig","coordinate":{"longitude":11.58399963,"latitude":48.1629982},"fuelLevel":0.6499999999999999,"lastAddress":"Wilhelmstraße 34, 80801 München, Germany"}