{"timestamp":"2016-11-15T11:40:00+0100","id":124041,"name":"Sophie","coordinate":{"longitude":11.58058167,"latitude":48.15158081},"fuelLevel":0.63,"lastAddress":"Adalbertstraße 8, 80799 München, Germany"}
{"timestamp":"2016-11-15T11:40:00+0100","id":124026,"name":"Eva","coordinate":{"longitude":11.58126831,"latitude":48.15246582},"fuelLevel":0.75,"lastAddress":"Akademiestraße 3, 80799 München, Germany"}
{"timestamp":"2016-11-15T11:40:00+0100","id":124040,"name":"Reserl","coordinate":{"longitude":11.58169556,"latitude":48.13079834},"fuelLevel":0.86,"lastAddress":"Erhardtstraße 27, 80469 München, Germany"}
{"timestamp":"2016-11-15T11:40:00+0100","id":124021,"name":"Xaver","coordinate":{"longitude":11.57310486,"latitude":48.13011169},"fuelLevel":0.89,"lastAddress":"Fraunhoferstraße 14, 80469 München, Germany"}
{"timestamp":"2016-11-15T11:40:00+0100","id":124014,"name":"Quirin","coordinate":{"longitude":11.59921265,"latitude":48.13601685},"fuelLevel":0.9583333333333334,"lastAddress":"Einsteinstraße 3, 81675 München, Germany"}
{"timestamp":"2016-11-15T11:40:00+0100","id":124030,"name":"Hedwig","coordinate":{"longitude":11.56591797,"latitude":48.13227844},"fuelLevel":0.5972222222222222,"lastAddress":"Fliegenstraße 3, 80337 München, Germany"}
{"timestamp":"2016-11-15T11:40:00+0100","id":124023,"name":"Babsi","coordinate":{"longitude":11.50639343,"latitude":48.09138489},"fuelLevel":0.6870748299319728,"lastAddress":"Meglingerstraße 27, 81477 München, Germany"}
{"timestamp":"2016-11-15T11:40:00+0100","id":124016,"name":"Sepp","coordinate":{"longitude":11.59919739,"latitude":48.13041687},"fuelLevel":0.59,"lastAddress":"Metzstraße 32, 81667 München, Germany"}
{"timestamp":"2016-11-15T11:40:00+0100","id":124013,"name":"Poldi","coordinate":{"longitude":11.50610352,"latitude":48.09130859},"fuelLevel":0.86,"lastAddress":"Meglingerstraße 40, 81477 München, Germany"}
{"timestamp":"2016-11-15T11:40:00+0100","id":124010,"name":"Luitpold","coordinate":{"longitude":11.58399963,"latitude":48.12646484},"fuelLevel":0.63,"lastAddress":"Sammtstraße 9, 81669 München, Germany"}
{"timestamp":"2016-11-15T11:40:00+0100","id":124019,"name":"Valentin","coordinate":{"longitude":11.58187866,"latitude":48.12101746},"fuelLevel":0.6499999999999999,"lastAddress":"Zacherlweg, 81541 München, Germany"}
{"timestamp":"2016-11-15T11:40:00+0100","id":124006,"name":"Gustl","coordinate":{"longitude":11.57359314,"latitude":48.12020874},"fuelLevel":0.8900000000000001,"lastAddress":"Humboldtstraße 19-21, 81543 München, Germany"}
{"timestamp":"2016-11-15T11:40:00+0100","id":124045,"name":"Vroni","coordinate":{"longitude":11.56770325,"latitude":48.1269989},"fuelLevel":0.8500000000000001,"lastAddress":"Holzstraße 49-51, 80469 München, Germany"}
{"timestamp":"2016-11-15T11:40:00+0100","id":124018,"name":"Toni","coordinate":{"longitude":11.56918335,"latitude":48.12390137},"fuelLevel":0.58,"lastAddress":"Wittelsbacherstraße 10-11, 80469 München, Germany"}
{"timestamp":"2016-11-15T11:40:00+0100","id":124012,"name":"Peter","coordinate":{"longitude":11.56109619,"latitude":48.15431213},"fuelLevel":0.72,"lastAddress":"Schleißheimer Str. 47, 80797 München, Germany"}
{"timestamp":"2016-11-15T11:40:00+0100","id":124004,"name":"Fridl","coordinate":{"longitude":11.55909729,"latitude":48.15388489},"fuelLevel":0.88,"lastAddress":"Heßstraße 79, 80797 München, Germany"}
{"timestamp":"2016-11-15T11:40:00+0100","id":124031,"name":"Heidi","coordinate":{"longitude":11.56390381,"latitude":48.15060425},"fuelLevel":0.5299999999999999,"lastAddress":"Augustenstraße 77-79, 80333 München, Germany"}
{"timestamp":"2016-11-15T11:40:00+0100","id":124047,"name":"Walli","coordinate":{"longitude":11.56700134,"latitude":48.15040588},"fuelLevel":0.76,"lastAddress":"Theresienstraße 100-102, 80333 München, Germany"}
{"timestamp":"2016-11-15T11:40:00+0100","id":124002,"name":"Ferdl","coordinate":{"longitude":11.56338501,"latitude":48.14968872},"fuelLevel":0.59,"lastAddress":"Augustenstraße 70, 80333 München, Germany"}
{"timestamp":"2016-11-15T11:40:00+0100","id":124048,"name":"Wiggerl","coordinate":{"longitude":11.57769775,"latitude":48.15788269},"fuelLevel":0.88,"lastAddress":"Franz-Joseph-Straße 38, 80801 München, Germany"}
{"timestamp":"2016-11-15T11:40:00+0100","id":124028,"name":"Gitte","coordinate":{"longitude":11.57810974,"latitude":48.15769958},"fuelLevel":0.58,"lastAddress":"Franz-Joseph-Straße 35, 80801 München, Germany"}
{"timestamp":"2016-11-15T11:40:00+0100","id":124027,"name":"Fanni","coordinate":{"longitude":11.58340454,"latitude":48.16079712},"fuelLevel":0.9,"lastAddress":"Kaiserstraße 19, 80801 München, Germany"}
{"timestamp":"2016-11-15T11:40:00+0100","id":124005,"name":"Georg","coordinate":{"longitude":11.57710266,"latitude":48.15821838},"fuelLevel":0.8,"lastAddress":"Römerstraße 4, 80801 München, Germany"}
{"timestamp":"2016-11-15T11:40:00+0100","id":124001,"name":"Edmund","coordinate":{"longitude":11.57670593,"latitude":48.16130066},"fuelLevel":0.63,"lastAddress":"Kaiserstraße 59-61, 80801 München, Germany"}
{"timestamp":"2016-11-15T11:40:00+0100","id":124032,"name":"Irmi","coordinate":{"longitude":11.57478333,"latitude":48.15950012},"fuelLevel":0.58,"lastAddress":"Nordendstraße 57-59, 80801 München, Germany"}
{"timestamp":"2016-11-15T11:40:00+0100","id":124037,"name":"Luise","coordinate":{"longitude":11.56809998,"latitude":48.15678406},"fuelLevel":0.63,"lastAddress":"Georgenstraße 104, 80798 München, Germany"}
{"timestamp":"2016-11-15T11:40:00+0100","id":124017,"name":"Siggi","coordinate":{"longitude":11.56900024,"latitude":48.15931702},"fuelLevel":0.67,"lastAddress":"Tengstraße 31, 80796 München, Germany"}
{"timestamp":"2016-11-15T11:40:00+0100","id":124008,"name":"Johann","coordinate":{"longitude":11.5098877,"latitude":48.04530334},"fuelLevel":0.88,"lastAddress":"Seitnerstraße 70, 82049 Pullach im Isartal, Germany"}
{"timestamp":"2016-11-15T11:40:00+0100","id":124039,"name":"Marie","coordinate":{"longitude":11.50990295,"latitude":48.04550171},"fuelLevel":0.84,"lastAddress":"Gistlstraße 159, 82049 Pullach im Isartal, Germany"}
{"timestamp":"2016-11-15T11:40:00+0100","id":124009,"name":"Ludwig","coordinate":{"longitude":11.5814209,"latitude":48.16641235},"fuelLevel":0.89,"lastAddress":"Karl-Theodor-Straße 44, 80803 München, Germany"}
{"timestamp":"2016-11-15T11:40:00+0100","id":124007,"name":"Jakob","coordinate":{"longitude":11.57408142,"latitude":48.16430664},"fuelLevel":0.84,"lastAddress":"Belgradstraße 37, 80796 München, Germany"}