{"timestamp":"2016-10-22T03:15:32+0200","id":124025,"name":"Elli","coordinate":{"longitude":11.57929993,"latitude":48.15570068},"fuelLevel":0.8300000000000001,"lastAddress":"Konradstraße 16, 80801 München, Germany"}
{"timestamp":"2016-10-22T03:15:32+0200","id":124033,"name":"Johanna","coordinate":{"longitude":11.50650024,"latitude":48.09120178},"fuelLevel":0.6597222222222222,"lastAddress":"Meglingerstraße 27, 81477 München, Germany"}
{"timestamp":"2016-10-22T03:15:32+0200","id":124021,"name":"Xaver","coordinate":{"longitude":11.5736084,"latitude":48.13008118},"fuelLevel":0.77,"lastAddress":"Klenzestraße 49, 80469 München, Germany"}
{"timestamp":"2016-10-22T03:15:32+0200","id":124014,"name":"Quirin","coordinate":{"longitude":11.59716797,"latitude":48.13439941},"fuelLevel":0.5299999999999999,"lastAddress":"Innere Wiener Straße 55-57, 81667 München, Germany"}
{"timestamp":"2016-10-22T03:15:32+0200","id":124030,"name":"Hedwig","coordinate":{"longitude":11.61260033,"latitude":48.12179947},"fuelLevel":0.9236111111111112,"lastAddress":"Aschheimer Str. 21, 81671 München, Germany"}
{"timestamp":"2016-10-22T03:15:32+0200","id":124022,"name":"Anne","coordinate":{"longitude":11.59770203,"latitude":48.126297},"fuelLevel":0.6900000000000001,"lastAddress":"Rosenheimer Str. 94, 81669 München, Germany"}
{"timestamp":"2016-10-22T03:15:32+0200","id":124013,"name":"Poldi","coordinate":{"longitude":11.59430027,"latitude":48.12799835},"fuelLevel":0.61,"lastAddress":"Rosenheimer Pl. 2, 81669 München, Germany"}
{"timestamp":"2016-10-22T03:15:32+0200","id":124011,"name":"Maxl","coordinate":{"longitude":11.5975647,"latitude":48.12413025},"fuelLevel":0.61,"lastAddress":"Orleansstraße 4A, 81669 München, Germany"}
{"timestamp":"2016-10-22T03:15:32+0200","id":124010,"name":"Luitpold","coordinate":{"longitude":11.58979797,"latitude":48.1309967},"fuelLevel":0.4,"lastAddress":"Hochstraße 2, 81669 München, Germany"}
{"timestamp":"2016-10-22T03:15:32+0200","id":124019,"name":"Valentin","coordinate":{"longitude":11.58198547,"latitude":48.12518311},"fuelLevel":0.76,"lastAddress":"Mariahilfpl. 23, 81541 München, Germany"}
{"timestamp":"2016-10-22T03:15:32+0200","id":124006,"name":"Gustl","coordinate":{"longitude":11.57750034,"latitude":48.1242981},"fuelLevel":0.8300000000000001,"lastAddress":"Asamstraße 13, 81541 München, Germany"}
{"timestamp":"2016-10-22T03:15:32+0200","id":124020,"name":"Vinzenz","coordinate":{"longitude":11.57798767,"latitude":48.12539673},"fuelLevel":0.75,"lastAddress":"Boosstraße 7, 81541 München, Germany"}
{"timestamp":"2016-10-22T03:15:32+0200","id":124049,"name":"Marei","coordinate":{"longitude":11.57408142,"latitude":48.12239075},"fuelLevel":0.9400000000000001,"lastAddress":"Sommerstraße 8, 81543 München, Germany"}
{"timestamp":"2016-10-22T03:15:32+0200","id":124045,"name":"Vroni","coordinate":{"longitude":11.56509399,"latitude":48.12399292},"fuelLevel":0.64,"lastAddress":"Kapuzinerstraße 39, 80469 München, Germany"}
{"timestamp":"2016-10-22T03:15:32+0200","id":124018,"name":"Toni","coordinate":{"longitude":11.57149982,"latitude":48.13280106},"fuelLevel":0.6499999999999999,"lastAddress":"Unterer Anger 3, 80331 München, Germany"}
{"timestamp":"2016-10-22T03:15:32+0200","id":124012,"name":"Peter","coordinate":{"longitude":11.5561676,"latitude":48.15519714},"fuelLevel":0.26999999999999996,"lastAddress":"Heßstraße 112, 80797 München, Germany"}
{"timestamp":"2016-10-22T03:15:32+0200","id":124004,"name":"Fridl","coordinate":{"longitude":11.56260014,"latitude":48.1576004},"fuelLevel":0.58,"lastAddress":"Schleißheimer Str. 110, 80797 München, Germany"}
{"timestamp":"2016-10-22T03:15:32+0200","id":124031,"name":"Heidi","coordinate":{"longitude":11.56299973,"latitude":48.15019989},"fuelLevel":0.62,"lastAddress":"Augustenstraße 69, 80333 München, Germany"}
{"timestamp":"2016-10-22T03:15:32+0200","id":124048,"name":"Wiggerl","coordinate":{"longitude":11.57539368,"latitude":48.15888977},"fuelLevel":0.6000000000000001,"lastAddress":"Kurfürstenstraße 55-57, 80801 München, Germany"}
{"timestamp":"2016-10-22T03:15:32+0200","id":124028,"name":"Gitte","coordinate":{"longitude":11.57489967,"latitude":48.15790176},"fuelLevel":0.7200000000000001,"lastAddress":"Nordendstraße 41, 80801 München, Germany"}
{"timestamp":"2016-10-22T03:15:32+0200","id":124001,"name":"Edmund","coordinate":{"longitude":11.5749054,"latitude":48.1618042},"fuelLevel":0.45,"lastAddress":"Viktor-Scheffel-Straße 23, 80803 München, Germany"}
{"timestamp":"2016-10-22T03:15:32+0200","id":124032,"name":"Irmi","coordinate":{"longitude":11.56558228,"latitude":48.15930176},"fuelLevel":0.64,"lastAddress":"Zentnerstraße 38, 80798 München, Germany"}
{"timestamp":"2016-10-22T03:15:32+0200","id":124037,"name":"Luise","coordinate":{"longitude":11.57209969,"latitude":48.1570015},"fuelLevel":0.9500000000000001,"lastAddress":"Agnesstraße 1-5, 80801 München, Germany"}
{"timestamp":"2016-10-22T03:15:32+0200","id":124017,"name":"Siggi","coordinate":{"longitude":11.56779957,"latitude":48.15940094},"fuelLevel":0.54,"lastAddress":"Elisabethstraße 40, 80796 München, Germany"}
{"timestamp":"2016-10-22T03:15:32+0200","id":124008,"name":"Johann","coordinate":{"longitude":11.50965881,"latitude":48.04548645},"fuelLevel":0.44999999999999996,"lastAddress":"Seitnerstraße 70, 82049 Pullach im Isartal, Germany"}
{"timestamp":"2016-10-22T03:15:32+0200","id":124009,"name":"Ludwig","coordinate":{"longitude":11.58642578,"latitude":48.16537476},"fuelLevel":0.59,"lastAddress":"Leopoldstraße 106, 80802 München, Germany"}