{"timestamp":"2016-11-16T05:00:00+0100","id":124041,"name":"Sophie","coordinate":{"longitude":11.58061218,"latitude":48.15159607},"fuelLevel":0.63,"lastAddress":"Adalbertstraße 8, 80799 München, Germany"}
{"timestamp":"2016-11-16T05:00:00+0100","id":124026,"name":"Eva","coordinate":{"longitude":11.58129883,"latitude":48.15219116},"fuelLevel":0.75,"lastAddress":"Akademiestraße 1, 80799 München, Germany"}
{"timestamp":"2016-11-16T05:00:00+0100","id":124025,"name":"Elli","coordinate":{"longitude":11.58131409,"latitude":48.15252686},"fuelLevel":0.8900000000000001,"lastAddress":"Akademiestraße 3, 80799 München, Germany"}
{"timestamp":"2016-11-16T05:00:00+0100","id":124024,"name":"Christl","coordinate":{"longitude":11.57627869,"latitude":48.13331604},"fuelLevel":0.69,"lastAddress":"Reichenbachstraße 8, 80469 München, Germany"}
{"timestamp":"2016-11-16T05:00:00+0100","id":124040,"name":"Reserl","coordinate":{"longitude":11.5816803,"latitude":48.13078308},"fuelLevel":0.86,"lastAddress":"Erhardtstraße 27, 80469 München, Germany"}
{"timestamp":"2016-11-16T05:00:00+0100","id":124021,"name":"Xaver","coordinate":{"longitude":11.57452393,"latitude":48.13284302},"fuelLevel":0.87,"lastAddress":"Corneliusstraße 1, 80469 München, Germany"}
{"timestamp":"2016-11-16T05:00:00+0100","id":124014,"name":"Quirin","coordinate":{"longitude":11.59919739,"latitude":48.13598633},"fuelLevel":0.6527777777777778,"lastAddress":"Einsteinstraße 3, 81675 München, Germany"}
{"timestamp":"2016-11-16T05:00:00+0100","id":124034,"name":"Kathi","coordinate":{"longitude":11.60350037,"latitude":48.13008118},"fuelLevel":0.52,"lastAddress":"Belfortstraße 9, 81667 München, Germany"}
{"timestamp":"2016-11-16T05:00:00+0100","id":124030,"name":"Hedwig","coordinate":{"longitude":11.56590271,"latitude":48.13227844},"fuelLevel":0.5972222222222222,"lastAddress":"Fliegenstraße 3, 80337 München, Germany"}
{"timestamp":"2016-11-16T05:00:00+0100","id":124016,"name":"Sepp","coordinate":{"longitude":11.59919739,"latitude":48.13041687},"fuelLevel":0.59,"lastAddress":"Metzstraße 32, 81667 München, Germany"}
{"timestamp":"2016-11-16T05:00:00+0100","id":124000,"name":"Bertl","coordinate":{"longitude":11.59701538,"latitude":48.12799072},"fuelLevel":0.58,"lastAddress":"Lothringer Str. 4-6, 81667 München, Germany"}
{"timestamp":"2016-11-16T05:00:00+0100","id":124013,"name":"Poldi","coordinate":{"longitude":11.58959961,"latitude":48.125},"fuelLevel":0.79,"lastAddress":"Franziskanerstraße 47, 81669 München, Germany"}
{"timestamp":"2016-11-16T05:00:00+0100","id":124003,"name":"Franzl","coordinate":{"longitude":11.58979797,"latitude":48.12539673},"fuelLevel":0.7799999999999999,"lastAddress":"Franziskanerstraße 32, 81669 München, Germany"}
{"timestamp":"2016-11-16T05:00:00+0100","id":124010,"name":"Luitpold","coordinate":{"longitude":11.58399963,"latitude":48.12651062},"fuelLevel":0.63,"lastAddress":"Sammtstraße 9, 81669 München, Germany"}
{"timestamp":"2016-11-16T05:00:00+0100","id":124019,"name":"Valentin","coordinate":{"longitude":11.58189392,"latitude":48.1210022},"fuelLevel":0.6499999999999999,"lastAddress":"Hochstraße 81, 81541 München, Germany"}
{"timestamp":"2016-11-16T05:00:00+0100","id":124035,"name":"Leonie","coordinate":{"longitude":11.58349609,"latitude":48.12770081},"fuelLevel":0.87,"lastAddress":"Zeppelinstraße 39, 81669 München, Germany"}
{"timestamp":"2016-11-16T05:00:00+0100","id":124006,"name":"Gustl","coordinate":{"longitude":11.57359314,"latitude":48.12020874},"fuelLevel":0.8900000000000001,"lastAddress":"Humboldtstraße 19-21, 81543 München, Germany"}
{"timestamp":"2016-11-16T05:00:00+0100","id":124020,"name":"Vinzenz","coordinate":{"longitude":11.57876587,"latitude":48.1235199},"fuelLevel":0.88,"lastAddress":"Entenbachstraße 15, 81541 München, Germany"}
{"timestamp":"2016-11-16T05:00:00+0100","id":124049,"name":"Marei","coordinate":{"longitude":11.57913208,"latitude":48.12580872},"fuelLevel":0.49,"lastAddress":"Ohlmüllerstraße 9, 81541 München, Germany"}
{"timestamp":"2016-11-16T05:00:00+0100","id":124045,"name":"Vroni","coordinate":{"longitude":11.56768799,"latitude":48.1269989},"fuelLevel":0.8500000000000001,"lastAddress":"Holzstraße 49-51, 80469 München, Germany"}
{"timestamp":"2016-11-16T05:00:00+0100","id":124018,"name":"Toni","coordinate":{"longitude":11.56921387,"latitude":48.12391663},"fuelLevel":0.58,"lastAddress":"Wittelsbacherstraße 10-11, 80469 München, Germany"}
{"timestamp":"2016-11-16T05:00:00+0100","id":124012,"name":"Peter","coordinate":{"longitude":11.56110001,"latitude":48.15420151},"fuelLevel":0.72,"lastAddress":"Schleißheimer Str. 47, 80797 München, Germany"}
{"timestamp":"2016-11-16T05:00:00+0100","id":124004,"name":"Fridl","coordinate":{"longitude":11.55909729,"latitude":48.15390015},"fuelLevel":0.88,"lastAddress":"Heßstraße 79, 80797 München, Germany"}
{"timestamp":"2016-11-16T05:00:00+0100","id":124031,"name":"Heidi","coordinate":{"longitude":11.56390381,"latitude":48.15037537},"fuelLevel":0.5299999999999999,"lastAddress":"Augustenstraße 76, 80333 München, Germany"}
{"timestamp":"2016-11-16T05:00:00+0100","id":124047,"name":"Walli","coordinate":{"longitude":11.56700134,"latitude":48.15031433},"fuelLevel":0.76,"lastAddress":"Theresienstraße 100-102, 80333 München, Germany"}
{"timestamp":"2016-11-16T05:00:00+0100","id":124002,"name":"Ferdl","coordinate":{"longitude":11.56350708,"latitude":48.14979553},"fuelLevel":0.57,"lastAddress":"Augustenstraße 72, 80333 München, Germany"}
{"timestamp":"2016-11-16T05:00:00+0100","id":124048,"name":"Wiggerl","coordinate":{"longitude":11.57771301,"latitude":48.15791321},"fuelLevel":0.88,"lastAddress":"Franz-Joseph-Straße 36A, 80801 München, Germany"}
{"timestamp":"2016-11-16T05:00:00+0100","id":124028,"name":"Gitte","coordinate":{"longitude":11.5781002,"latitude":48.15769958},"fuelLevel":0.58,"lastAddress":"Franz-Joseph-Straße 35, 80801 München, Germany"}
{"timestamp":"2016-11-16T05:00:00+0100","id":124027,"name":"Fanni","coordinate":{"longitude":11.58340454,"latitude":48.16079712},"fuelLevel":0.9,"lastAddress":"Kaiserstraße 19, 80801 München, Germany"}
{"timestamp":"2016-11-16T05:00:00+0100","id":124005,"name":"Georg","coordinate":{"longitude":11.57699966,"latitude":48.15819931},"fuelLevel":0.8,"lastAddress":"Römerstraße 1, 80801 München, Germany"}
{"timestamp":"2016-11-16T05:00:00+0100","id":124001,"name":"Edmund","coordinate":{"longitude":11.57670593,"latitude":48.16130066},"fuelLevel":0.63,"lastAddress":"Kaiserstraße 59-61, 80801 München, Germany"}
{"timestamp":"2016-11-16T05:00:00+0100","id":124032,"name":"Irmi","coordinate":{"longitude":11.57479954,"latitude":48.15950012},"fuelLevel":0.58,"lastAddress":"Nordendstraße 57-59, 80801 München, Germany"}
{"timestamp":"2016-11-16T05:00:00+0100","id":124037,"name":"Luise","coordinate":{"longitude":11.56809998,"latitude":48.15678406},"fuelLevel":0.63,"lastAddress":"Georgenstraße 104, 80798 München, Germany"}
{"timestamp":"2016-11-16T05:00:00+0100","id":124017,"name":"Siggi","coordinate":{"longitude":11.56900024,"latitude":48.15930176},"fuelLevel":0.67,"lastAddress":"Tengstraße 31, 80796 München, Germany"}
{"timestamp":"2016-11-16T05:00:00+0100","id":124029,"name":"Hannah","coordinate":{"longitude":11.50950623,"latitude":48.04548645},"fuelLevel":0.89,"lastAddress":"Seitnerstraße 70, 82049 Pullach im Isartal, Germany"}
{"timestamp":"2016-11-16T05:00:00+0100","id":124008,"name":"Johann","coordinate":{"longitude":11.50990295,"latitude":48.0453186},"fuelLevel":0.88,"lastAddress":"Gistlstraße 159, 82049 Pullach im Isartal, Germany"}
{"timestamp":"2016-11-16T05:00:00+0100","id":124039,"name":"Marie","coordinate":{"longitude":11.50990295,"latitude":48.04550171},"fuelLevel":0.84,"lastAddress":"Gistlstraße 159, 82049 Pullach im Isartal, Germany"}
{"timestamp":"2016-11-16T05:00:00+0100","id":124009,"name":"Ludwig","coordinate":{"longitude":11.58139038,"latitude":48.16639709},"fuelLevel":0.89,"lastAddress":"Karl-Theodor-Straße 44, 80803 München, Germany"}
{"timestamp":"2016-11-16T05:00:00+0100","id":124007,"name":"Jakob","coordinate":{"longitude":11.57409668,"latitude":48.1643219},"fuelLevel":0.84,"lastAddress":"Belgradstraße 37, 80796 München, Germany"}