{"timestamp":"2016-10-02T16:30:00+0200","id":124041,"name":"Sophie","coordinate":{"longitude":11.57800007,"latitude":48.14979935},"fuelLevel":0.93,"lastAddress":"Amalienstraße 57, 80799 München, Germany"}
{"timestamp":"2016-10-02T16:30:00+0200","id":124026,"name":"Eva","coordinate":{"longitude":11.57849979,"latitude":48.15359879},"fuelLevel":0.61,"lastAddress":"Türkenstraße 95, 80799 München, Germany"}
{"timestamp":"2016-10-02T16:30:00+0200","id":124025,"name":"Elli","coordinate":{"longitude":11.57569981,"latitude":48.15190125},"fuelLevel":0.9500000000000001,"lastAddress":"Blütenstraße 9-11, 80799 München, Germany"}
{"timestamp":"2016-10-02T16:30:00+0200","id":124033,"name":"Johanna","coordinate":{"longitude":11.58160019,"latitude":48.15169907},"fuelLevel":0.84,"lastAddress":"Leopoldstraße 4, 80802 München, Germany"}
{"timestamp":"2016-10-02T16:30:00+0200","id":124036,"name":"Liesel","coordinate":{"longitude":11.57540035,"latitude":48.15629959},"fuelLevel":0.6699999999999999,"lastAddress":"Nordendstraße 36, 80801 München, Germany"}
{"timestamp":"2016-10-02T16:30:00+0200","id":124024,"name":"Christl","coordinate":{"longitude":11.57940006,"latitude":48.13380051},"fuelLevel":0.8,"lastAddress":"Klenzestraße 2, 80469 München, Germany"}
{"timestamp":"2016-10-02T16:30:00+0200","id":124021,"name":"Xaver","coordinate":{"longitude":11.58069992,"latitude":48.13199997},"fuelLevel":0.52,"lastAddress":"Kohlstraße 3, 80469 München, Germany"}
{"timestamp":"2016-10-02T16:30:00+0200","id":124034,"name":"Kathi","coordinate":{"longitude":11.60480022,"latitude":48.13199997},"fuelLevel":0.67,"lastAddress":"Elsässer Str. 16, 81667 München, Germany"}
{"timestamp":"2016-10-02T16:30:00+0200","id":124030,"name":"Hedwig","coordinate":{"longitude":11.56369972,"latitude":48.12749863},"fuelLevel":0.9199999999999999,"lastAddress":"Thalkirchner Str. 52, 80337 München, Germany"}
{"timestamp":"2016-10-02T16:30:00+0200","id":124023,"name":"Babsi","coordinate":{"longitude":11.5635004,"latitude":48.12720108},"fuelLevel":0.93,"lastAddress":"Thalkirchner Str. 54, 80337 München, Germany"}
{"timestamp":"2016-10-02T16:30:00+0200","id":124016,"name":"Sepp","coordinate":{"longitude":11.59850025,"latitude":48.12559891},"fuelLevel":0.9199999999999999,"lastAddress":"Rosenheimer Str. 102, 81669 München, Germany"}
{"timestamp":"2016-10-02T16:30:00+0200","id":124038,"name":"Magda","coordinate":{"longitude":11.60039997,"latitude":48.12799835},"fuelLevel":0.67,"lastAddress":"Gravelottestraße 1, 81667 München, Germany"}
{"timestamp":"2016-10-02T16:30:00+0200","id":124022,"name":"Anne","coordinate":{"longitude":11.59720039,"latitude":48.12689972},"fuelLevel":0.8900000000000001,"lastAddress":"Rosenheimer Str. 109, 81667 München, Germany"}
{"timestamp":"2016-10-02T16:30:00+0200","id":124000,"name":"Bertl","coordinate":{"longitude":11.59669971,"latitude":48.12950134},"fuelLevel":0.82,"lastAddress":"Kellerstraße 34, 81667 München, Germany"}
{"timestamp":"2016-10-02T16:30:00+0200","id":124013,"name":"Poldi","coordinate":{"longitude":11.59350014,"latitude":48.12779999},"fuelLevel":0.79,"lastAddress":"Franziskanerstraße 9, 81669 München, Germany"}
{"timestamp":"2016-10-02T16:30:00+0200","id":124011,"name":"Maxl","coordinate":{"longitude":11.59249973,"latitude":48.12549973},"fuelLevel":0.8099999999999999,"lastAddress":"Simon-Knoll-Platz 3, 81669 München, Germany"}
{"timestamp":"2016-10-02T16:30:00+0200","id":124003,"name":"Franzl","coordinate":{"longitude":11.5934,"latitude":48.12730026},"fuelLevel":0.79,"lastAddress":"Franziskanerstraße 15, 81669 München, Germany"}
{"timestamp":"2016-10-02T16:30:00+0200","id":124010,"name":"Luitpold","coordinate":{"longitude":11.58600044,"latitude":48.1257019},"fuelLevel":0.88,"lastAddress":"Gebsattelstraße 2, 81541 München, Germany"}
{"timestamp":"2016-10-02T16:30:00+0200","id":124019,"name":"Valentin","coordinate":{"longitude":11.58500004,"latitude":48.12340164},"fuelLevel":0.9199999999999999,"lastAddress":"Hochstraße 51, 81541 München, Germany"}
{"timestamp":"2016-10-02T16:30:00+0200","id":124035,"name":"Leonie","coordinate":{"longitude":11.58580017,"latitude":48.1291008},"fuelLevel":0.7899999999999999,"lastAddress":"Schwarzstraße 4, 81669 München, Germany"}
{"timestamp":"2016-10-02T16:30:00+0200","id":124006,"name":"Gustl","coordinate":{"longitude":11.57750034,"latitude":48.12120056},"fuelLevel":0.9400000000000001,"lastAddress":"Falkenstraße 44, 81541 München, Germany"}
{"timestamp":"2016-10-02T16:30:00+0200","id":124020,"name":"Vinzenz","coordinate":{"longitude":11.57859993,"latitude":48.12369919},"fuelLevel":0.9099999999999999,"lastAddress":"Entenbachstraße 16, 81541 München, Germany"}
{"timestamp":"2016-10-02T16:30:00+0200","id":124049,"name":"Marei","coordinate":{"longitude":11.57380009,"latitude":48.11989975},"fuelLevel":0.7200000000000001,"lastAddress":"Oefelestraße 9, 81543 München, Germany"}
{"timestamp":"2016-10-02T16:30:00+0200","id":124045,"name":"Vroni","coordinate":{"longitude":11.56729984,"latitude":48.12770081},"fuelLevel":0.9199999999999999,"lastAddress":"Holzstraße 34, 80469 München, Germany"}
{"timestamp":"2016-10-02T16:30:00+0200","id":124018,"name":"Toni","coordinate":{"longitude":11.57019997,"latitude":48.13090134},"fuelLevel":0.9099999999999999,"lastAddress":"Müllerstraße 34, 80469 München, Germany"}
{"timestamp":"2016-10-02T16:30:00+0200","id":124012,"name":"Peter","coordinate":{"longitude":11.57279968,"latitude":48.14979935},"fuelLevel":1,"lastAddress":"Barer Str. 48, 80799 München, Germany"}
{"timestamp":"2016-10-02T16:30:00+0200","id":124004,"name":"Fridl","coordinate":{"longitude":11.56669998,"latitude":48.15610123},"fuelLevel":0.55,"lastAddress":"Josephspl. 8, 80798 München, Germany"}
{"timestamp":"2016-10-02T16:30:00+0200","id":124031,"name":"Heidi","coordinate":{"longitude":11.56649971,"latitude":48.14989853},"fuelLevel":0.8,"lastAddress":"Luisenstraße 53, 80333 München, Germany"}
{"timestamp":"2016-10-02T16:30:00+0200","id":124002,"name":"Ferdl","coordinate":{"longitude":11.41129971,"latitude":47.82870102},"fuelLevel":0.9500000000000001,"lastAddress":"Klosterstraße 3, 82547 Eurasburg, Germany"}
{"timestamp":"2016-10-02T16:30:00+0200","id":124048,"name":"Wiggerl","coordinate":{"longitude":11.5788002,"latitude":48.16120148},"fuelLevel":0.68,"lastAddress":"Kaiserstraße 45, 80801 München, Germany"}
{"timestamp":"2016-10-02T16:30:00+0200","id":124028,"name":"Gitte","coordinate":{"longitude":11.57730007,"latitude":48.16019821},"fuelLevel":0.75,"lastAddress":"Hohenzollernstraße 70, 80801 München, Germany"}
{"timestamp":"2016-10-02T16:30:00+0200","id":124027,"name":"Fanni","coordinate":{"longitude":11.57839966,"latitude":48.15919876},"fuelLevel":0.7899999999999999,"lastAddress":"Ainmillerstraße 38, 80801 München, Germany"}
{"timestamp":"2016-10-02T16:30:00+0200","id":124005,"name":"Georg","coordinate":{"longitude":11.58170033,"latitude":48.1590004},"fuelLevel":0.66,"lastAddress":"Ainmillerstraße 18, 80801 München, Germany"}
{"timestamp":"2016-10-02T16:30:00+0200","id":124032,"name":"Irmi","coordinate":{"longitude":11.57310009,"latitude":48.16030121},"fuelLevel":0.64,"lastAddress":"Isabellastraße 49, 80796 München, Germany"}
{"timestamp":"2016-10-02T16:30:00+0200","id":124037,"name":"Luise","coordinate":{"longitude":11.56630039,"latitude":48.15769958},"fuelLevel":0.58,"lastAddress":"Hiltenspergerstraße 23, 80798 München, Germany"}
{"timestamp":"2016-10-02T16:30:00+0200","id":124017,"name":"Siggi","coordinate":{"longitude":11.57089996,"latitude":48.16080093},"fuelLevel":0.56,"lastAddress":"Hohenzollernstraße 79-81, 80796 München, Germany"}
{"timestamp":"2016-10-02T16:30:00+0200","id":124029,"name":"Hannah","coordinate":{"longitude":11.51019955,"latitude":48.04539871},"fuelLevel":0.71,"lastAddress":"Gistlstraße 159, 82049 Pullach im Isartal, Germany"}
{"timestamp":"2016-10-02T16:30:00+0200","id":124042,"name":"Tilli","coordinate":{"longitude":11.50949955,"latitude":48.04539871},"fuelLevel":0.77,"lastAddress":"Seitnerstraße 70, 82049 Pullach im Isartal, Germany"}
{"timestamp":"2016-10-02T16:30:00+0200","id":124009,"name":"Ludwig","coordinate":{"longitude":11.5848999,"latitude":48.16220093},"fuelLevel":0.8999999999999999,"lastAddress":"Herzogstraße 4, 80803 München, Germany"}
{"timestamp":"2016-10-02T16:30:00+0200","id":124007,"name":"Jakob","coordinate":{"longitude":11.5862999,"latitude":48.16389847},"fuelLevel":0.9500000000000001,"lastAddress":"Leopoldstraße 87, 80802 München, Germany"}