{"timestamp":"2016-10-06T21:45:00+0200","id":124041,"name":"Sophie","coordinate":{"longitude":11.5777998,"latitude":48.15010071},"fuelLevel":0.9400000000000001,"lastAddress":"Schellingstraße 18, 80799 München, Germany"}
{"timestamp":"2016-10-06T21:45:00+0200","id":124026,"name":"Eva","coordinate":{"longitude":11.5781002,"latitude":48.15359879},"fuelLevel":0.61,"lastAddress":"Türkenstraße 95, 80799 München, Germany"}
{"timestamp":"2016-10-06T21:45:00+0200","id":124025,"name":"Elli","coordinate":{"longitude":11.57619953,"latitude":48.1576004},"fuelLevel":0.9,"lastAddress":"Franz-Joseph-Straße 43, 80801 München, Germany"}
{"timestamp":"2016-10-06T21:45:00+0200","id":124033,"name":"Johanna","coordinate":{"longitude":11.58180046,"latitude":48.15140152},"fuelLevel":0.82,"lastAddress":"Ludwigstraße 28, 80539 München, Germany"}
{"timestamp":"2016-10-06T21:45:00+0200","id":124036,"name":"Liesel","coordinate":{"longitude":11.57520008,"latitude":48.15629959},"fuelLevel":0.6699999999999999,"lastAddress":"Nordendstraße 36, 80801 München, Germany"}
{"timestamp":"2016-10-06T21:45:00+0200","id":124044,"name":"Uschi","coordinate":{"longitude":11.57260036,"latitude":48.13190079},"fuelLevel":0.9199999999999999,"lastAddress":"Müllerstraße 9, 80469 München, Germany"}
{"timestamp":"2016-10-06T21:45:00+0200","id":124024,"name":"Christl","coordinate":{"longitude":11.57940006,"latitude":48.13380051},"fuelLevel":0.8,"lastAddress":"Klenzestraße 2, 80469 München, Germany"}
{"timestamp":"2016-10-06T21:45:00+0200","id":124040,"name":"Reserl","coordinate":{"longitude":11.57180023,"latitude":48.13159943},"fuelLevel":0.83,"lastAddress":"Müllerstraße 26, 80469 München, Germany"}
{"timestamp":"2016-10-06T21:45:00+0200","id":124021,"name":"Xaver","coordinate":{"longitude":11.58170033,"latitude":48.13069916},"fuelLevel":0.9500000000000001,"lastAddress":"Erhardtstraße 27, 80469 München, Germany"}
{"timestamp":"2016-10-06T21:45:00+0200","id":124014,"name":"Quirin","coordinate":{"longitude":11.60499954,"latitude":48.13249969},"fuelLevel":0.6000000000000001,"lastAddress":"Elsässer Str. 4, 81667 München, Germany"}
{"timestamp":"2016-10-06T21:45:00+0200","id":124034,"name":"Kathi","coordinate":{"longitude":11.60499954,"latitude":48.13219833},"fuelLevel":0.66,"lastAddress":"Elsässer Str. 16, 81667 München, Germany"}
{"timestamp":"2016-10-06T21:45:00+0200","id":124016,"name":"Sepp","coordinate":{"longitude":11.59829998,"latitude":48.12639999},"fuelLevel":0.9299999999999999,"lastAddress":"Rosenheimer Str. 117, 81667 München, Germany"}
{"timestamp":"2016-10-06T21:45:00+0200","id":124038,"name":"Magda","coordinate":{"longitude":11.60039997,"latitude":48.12820053},"fuelLevel":0.67,"lastAddress":"Gravelottestraße 1, 81667 München, Germany"}
{"timestamp":"2016-10-06T21:45:00+0200","id":124000,"name":"Bertl","coordinate":{"longitude":11.59459972,"latitude":48.12810135},"fuelLevel":0.82,"lastAddress":"Rosenheimer Str. 62, 81669 München, Germany"}
{"timestamp":"2016-10-06T21:45:00+0200","id":124013,"name":"Poldi","coordinate":{"longitude":11.59469986,"latitude":48.12779999},"fuelLevel":0.79,"lastAddress":"Metzstraße 1, 81667 München, Germany"}
{"timestamp":"2016-10-06T21:45:00+0200","id":124011,"name":"Maxl","coordinate":{"longitude":11.59319973,"latitude":48.12549973},"fuelLevel":0.73,"lastAddress":"Barnabasstraße 1, 81669 München, Germany"}
{"timestamp":"2016-10-06T21:45:00+0200","id":124003,"name":"Franzl","coordinate":{"longitude":11.59309959,"latitude":48.1271019},"fuelLevel":0.8,"lastAddress":"Rablstraße 39, 81669 München, Germany"}
{"timestamp":"2016-10-06T21:45:00+0200","id":124010,"name":"Luitpold","coordinate":{"longitude":11.58460045,"latitude":48.12760162},"fuelLevel":0.9500000000000001,"lastAddress":"Lilienstraße 73, 81669 München, Germany"}
{"timestamp":"2016-10-06T21:45:00+0200","id":124019,"name":"Valentin","coordinate":{"longitude":11.58500004,"latitude":48.12369919},"fuelLevel":0.87,"lastAddress":"Hochstraße 49C, 81541 München, Germany"}
{"timestamp":"2016-10-06T21:45:00+0200","id":124035,"name":"Leonie","coordinate":{"longitude":11.58650017,"latitude":48.12929916},"fuelLevel":0.7899999999999999,"lastAddress":"Lilienstraße 49, 81669 München, Germany"}
{"timestamp":"2016-10-06T21:45:00+0200","id":124006,"name":"Gustl","coordinate":{"longitude":11.57750034,"latitude":48.12110138},"fuelLevel":0.9400000000000001,"lastAddress":"Falkenstraße 44, 81541 München, Germany"}
{"timestamp":"2016-10-06T21:45:00+0200","id":124020,"name":"Vinzenz","coordinate":{"longitude":11.57660007,"latitude":48.12450027},"fuelLevel":0.8999999999999999,"lastAddress":"Albanistraße 2-4, 81541 München, Germany"}
{"timestamp":"2016-10-06T21:45:00+0200","id":124049,"name":"Marei","coordinate":{"longitude":11.57470036,"latitude":48.12020111},"fuelLevel":0.69,"lastAddress":"Oefelestraße 5, 81543 München, Germany"}
{"timestamp":"2016-10-06T21:45:00+0200","id":124045,"name":"Vroni","coordinate":{"longitude":11.56760025,"latitude":48.12770081},"fuelLevel":0.9199999999999999,"lastAddress":"Holzstraße 43, 80469 München, Germany"}
{"timestamp":"2016-10-06T21:45:00+0200","id":124018,"name":"Toni","coordinate":{"longitude":11.57059956,"latitude":48.13090134},"fuelLevel":0.9199999999999999,"lastAddress":"Müllerstraße 34, 80469 München, Germany"}
{"timestamp":"2016-10-06T21:45:00+0200","id":124012,"name":"Peter","coordinate":{"longitude":11.57219982,"latitude":48.15050125},"fuelLevel":1,"lastAddress":"Heßstraße 4, 80799 München, Germany"}
{"timestamp":"2016-10-06T21:45:00+0200","id":124004,"name":"Fridl","coordinate":{"longitude":11.56540012,"latitude":48.15660095},"fuelLevel":0.55,"lastAddress":"Hiltenspergerstraße 15, 80798 München, Germany"}
{"timestamp":"2016-10-06T21:45:00+0200","id":124031,"name":"Heidi","coordinate":{"longitude":11.57240009,"latitude":48.14960098},"fuelLevel":0.8,"lastAddress":"Barer Str. 46, 80799 München, Germany"}
{"timestamp":"2016-10-06T21:45:00+0200","id":124047,"name":"Walli","coordinate":{"longitude":11.57019997,"latitude":48.15039825},"fuelLevel":0.83,"lastAddress":"Arcisstraße 32, 80799 München, Germany"}
{"timestamp":"2016-10-06T21:45:00+0200","id":124002,"name":"Ferdl","coordinate":{"longitude":11.56470013,"latitude":48.15190125},"fuelLevel":0.9500000000000001,"lastAddress":"Augustenstraße 93, 80798 München, Germany"}
{"timestamp":"2016-10-06T21:45:00+0200","id":124048,"name":"Wiggerl","coordinate":{"longitude":11.57900047,"latitude":48.16130066},"fuelLevel":0.68,"lastAddress":"Kaiserstraße 36, 80801 München, Germany"}
{"timestamp":"2016-10-06T21:45:00+0200","id":124028,"name":"Gitte","coordinate":{"longitude":11.57740021,"latitude":48.16059875},"fuelLevel":0.75,"lastAddress":"Römerstraße 23, 80801 München, Germany"}
{"timestamp":"2016-10-06T21:45:00+0200","id":124027,"name":"Fanni","coordinate":{"longitude":11.57789993,"latitude":48.1590004},"fuelLevel":0.7899999999999999,"lastAddress":"Ainmillerstraße 40, 80801 München, Germany"}
{"timestamp":"2016-10-06T21:45:00+0200","id":124005,"name":"Georg","coordinate":{"longitude":11.58170033,"latitude":48.15869904},"fuelLevel":0.66,"lastAddress":"Ainmillerstraße 15, 80801 München, Germany"}
{"timestamp":"2016-10-06T21:45:00+0200","id":124001,"name":"Edmund","coordinate":{"longitude":11.57929993,"latitude":48.15790176},"fuelLevel":0.5700000000000001,"lastAddress":"Franz-Joseph-Straße 28, 80801 München, Germany"}
{"timestamp":"2016-10-06T21:45:00+0200","id":124032,"name":"Irmi","coordinate":{"longitude":11.57320023,"latitude":48.16030121},"fuelLevel":0.64,"lastAddress":"Isabellastraße 46-48, 80796 München, Germany"}
{"timestamp":"2016-10-06T21:45:00+0200","id":124037,"name":"Luise","coordinate":{"longitude":11.56659985,"latitude":48.15790176},"fuelLevel":0.58,"lastAddress":"Agnesstraße 38, 80798 München, Germany"}
{"timestamp":"2016-10-06T21:45:00+0200","id":124017,"name":"Siggi","coordinate":{"longitude":11.57129955,"latitude":48.16090012},"fuelLevel":0.56,"lastAddress":"Hohenzollernstraße 110, 80796 München, Germany"}
{"timestamp":"2016-10-06T21:45:00+0200","id":124029,"name":"Hannah","coordinate":{"longitude":11.51019955,"latitude":48.04539871},"fuelLevel":0.7,"lastAddress":"Gistlstraße 159, 82049 Pullach im Isartal, Germany"}
{"timestamp":"2016-10-06T21:45:00+0200","id":124008,"name":"Johann","coordinate":{"longitude":11.50990009,"latitude":48.04539871},"fuelLevel":0.87,"lastAddress":"Gistlstraße 159, 82049 Pullach im Isartal, Germany"}
{"timestamp":"2016-10-06T21:45:00+0200","id":124039,"name":"Marie","coordinate":{"longitude":11.50959969,"latitude":48.04539871},"fuelLevel":0.58,"lastAddress":"Seitnerstraße 70, 82049 Pullach im Isartal, Germany"}
{"timestamp":"2016-10-06T21:45:00+0200","id":124009,"name":"Ludwig","coordinate":{"longitude":11.58440018,"latitude":48.16210175},"fuelLevel":0.8999999999999999,"lastAddress":"Herzogstraße 7, 80803 München, Germany"}
{"timestamp":"2016-10-06T21:45:00+0200","id":124007,"name":"Jakob","coordinate":{"longitude":11.57470036,"latitude":48.16719818},"fuelLevel":0.9400000000000001,"lastAddress":"Karl-Theodor-Straße 80, 80803 München, Germany"}