{"timestamp":"2016-09-29T04:00:00+0200","id":124041,"name":"Sophie","coordinate":{"longitude":11.57769966,"latitude":48.14970016},"fuelLevel":0.93,"lastAddress":"Schellingstraße 11, 80799 München, Germany"}
{"timestamp":"2016-09-29T04:00:00+0200","id":124026,"name":"Eva","coordinate":{"longitude":11.57839966,"latitude":48.15359879},"fuelLevel":0.61,"lastAddress":"Türkenstraße 95, 80799 München, Germany"}
{"timestamp":"2016-09-29T04:00:00+0200","id":124025,"name":"Elli","coordinate":{"longitude":11.57789993,"latitude":48.15330124},"fuelLevel":0.85,"lastAddress":"Türkenstraße 93, 80799 München, Germany"}
{"timestamp":"2016-09-29T04:00:00+0200","id":124033,"name":"Johanna","coordinate":{"longitude":11.5795002,"latitude":48.15639877},"fuelLevel":0.89,"lastAddress":"Friedrichstraße 11, 80801 München, Germany"}
{"timestamp":"2016-09-29T04:00:00+0200","id":124036,"name":"Liesel","coordinate":{"longitude":11.57540035,"latitude":48.15629959},"fuelLevel":0.6699999999999999,"lastAddress":"Nordendstraße 36, 80801 München, Germany"}
{"timestamp":"2016-09-29T04:00:00+0200","id":124044,"name":"Uschi","coordinate":{"longitude":11.57579994,"latitude":48.13019943},"fuelLevel":0.51,"lastAddress":"Reichenbachstraße 24, 80469 München, Germany"}
{"timestamp":"2016-09-29T04:00:00+0200","id":124024,"name":"Christl","coordinate":{"longitude":11.57940006,"latitude":48.13380051},"fuelLevel":0.8,"lastAddress":"Klenzestraße 2, 80469 München, Germany"}
{"timestamp":"2016-09-29T04:00:00+0200","id":124040,"name":"Reserl","coordinate":{"longitude":11.58279991,"latitude":48.13190079},"fuelLevel":0.9099999999999999,"lastAddress":"Morassistraße 14, 80469 München, Germany"}
{"timestamp":"2016-09-29T04:00:00+0200","id":124021,"name":"Xaver","coordinate":{"longitude":11.58069992,"latitude":48.13190079},"fuelLevel":0.52,"lastAddress":"Kohlstraße 3, 80469 München, Germany"}
{"timestamp":"2016-09-29T04:00:00+0200","id":124014,"name":"Quirin","coordinate":{"longitude":11.60919952,"latitude":48.12559891},"fuelLevel":0.62,"lastAddress":"Haager Str. 14, 81671 München, Germany"}
{"timestamp":"2016-09-29T04:00:00+0200","id":124034,"name":"Kathi","coordinate":{"longitude":11.60529995,"latitude":48.13240051},"fuelLevel":0.67,"lastAddress":"Spicherenstraße 1, 81667 München, Germany"}
{"timestamp":"2016-09-29T04:00:00+0200","id":124030,"name":"Hedwig","coordinate":{"longitude":11.56779957,"latitude":48.13090134},"fuelLevel":0.89,"lastAddress":"Pestalozzistraße 13, 80469 München, Germany"}
{"timestamp":"2016-09-29T04:00:00+0200","id":124023,"name":"Babsi","coordinate":{"longitude":11.56369972,"latitude":48.12739944},"fuelLevel":0.93,"lastAddress":"Thalkirchner Str. 52, 80337 München, Germany"}
{"timestamp":"2016-09-29T04:00:00+0200","id":124038,"name":"Magda","coordinate":{"longitude":11.60009956,"latitude":48.12850189},"fuelLevel":0.76,"lastAddress":"Pariser Pl., 81667 München, Germany"}
{"timestamp":"2016-09-29T04:00:00+0200","id":124022,"name":"Anne","coordinate":{"longitude":11.59669971,"latitude":48.12689972},"fuelLevel":0.8900000000000001,"lastAddress":"Rosenheimer Str. 86, 81669 München, Germany"}
{"timestamp":"2016-09-29T04:00:00+0200","id":124000,"name":"Bertl","coordinate":{"longitude":11.59459972,"latitude":48.12950134},"fuelLevel":0.8500000000000001,"lastAddress":"Steinstraße 70, 81667 München, Germany"}
{"timestamp":"2016-09-29T04:00:00+0200","id":124013,"name":"Poldi","coordinate":{"longitude":11.59619999,"latitude":48.12760162},"fuelLevel":0.83,"lastAddress":"Rosenheimer Str. 83, 81667 München, Germany"}
{"timestamp":"2016-09-29T04:00:00+0200","id":124011,"name":"Maxl","coordinate":{"longitude":11.59300041,"latitude":48.12580109},"fuelLevel":0.8099999999999999,"lastAddress":"Sieboldstraße 5, 81669 München, Germany"}
{"timestamp":"2016-09-29T04:00:00+0200","id":124003,"name":"Franzl","coordinate":{"longitude":11.59290028,"latitude":48.12739944},"fuelLevel":0.79,"lastAddress":"Franziskanerstraße 8, 81669 München, Germany"}
{"timestamp":"2016-09-29T04:00:00+0200","id":124010,"name":"Luitpold","coordinate":{"longitude":11.58590031,"latitude":48.12580109},"fuelLevel":0.88,"lastAddress":"Gebsattelstraße 2, 81541 München, Germany"}
{"timestamp":"2016-09-29T04:00:00+0200","id":124019,"name":"Valentin","coordinate":{"longitude":11.58510017,"latitude":48.12360001},"fuelLevel":0.9199999999999999,"lastAddress":"Hochstraße 49C, 81541 München, Germany"}
{"timestamp":"2016-09-29T04:00:00+0200","id":124035,"name":"Leonie","coordinate":{"longitude":11.58570004,"latitude":48.12919998},"fuelLevel":0.7899999999999999,"lastAddress":"Schwarzstraße 2, 81669 München, Germany"}
{"timestamp":"2016-09-29T04:00:00+0200","id":124006,"name":"Gustl","coordinate":{"longitude":11.5777998,"latitude":48.12099838},"fuelLevel":0.93,"lastAddress":"Falkenstraße 43, 81541 München, Germany"}
{"timestamp":"2016-09-29T04:00:00+0200","id":124020,"name":"Vinzenz","coordinate":{"longitude":11.57940006,"latitude":48.1228981},"fuelLevel":0.9299999999999999,"lastAddress":"Falkenstraße 18, 81541 München, Germany"}
{"timestamp":"2016-09-29T04:00:00+0200","id":124049,"name":"Marei","coordinate":{"longitude":11.57409954,"latitude":48.11980057},"fuelLevel":0.7200000000000001,"lastAddress":"Humboldtstraße 24, 81543 München, Germany"}
{"timestamp":"2016-09-29T04:00:00+0200","id":124045,"name":"Vroni","coordinate":{"longitude":11.56739998,"latitude":48.12760162},"fuelLevel":0.9199999999999999,"lastAddress":"Holzstraße 34, 80469 München, Germany"}
{"timestamp":"2016-09-29T04:00:00+0200","id":124018,"name":"Toni","coordinate":{"longitude":11.56900024,"latitude":48.12649918},"fuelLevel":0.9500000000000001,"lastAddress":"Baumstraße 18, 80469 München, Germany"}
{"timestamp":"2016-09-29T04:00:00+0200","id":124004,"name":"Fridl","coordinate":{"longitude":11.56599998,"latitude":48.1570015},"fuelLevel":0.9500000000000001,"lastAddress":"Hiltenspergerstraße 10, 80798 München, Germany"}
{"timestamp":"2016-09-29T04:00:00+0200","id":124031,"name":"Heidi","coordinate":{"longitude":11.56659985,"latitude":48.15169907},"fuelLevel":0.8,"lastAddress":"Heßstraße 23, 80798 München, Germany"}
{"timestamp":"2016-09-29T04:00:00+0200","id":124047,"name":"Walli","coordinate":{"longitude":11.5710001,"latitude":48.15589905},"fuelLevel":0.8999999999999999,"lastAddress":"Isabellastraße 8, 80798 München, Germany"}
{"timestamp":"2016-09-29T04:00:00+0200","id":124002,"name":"Ferdl","coordinate":{"longitude":11.56400013,"latitude":48.15110016},"fuelLevel":0.9500000000000001,"lastAddress":"Theresienstraße 63, 80333 München, Germany"}
{"timestamp":"2016-09-29T04:00:00+0200","id":124048,"name":"Wiggerl","coordinate":{"longitude":11.5770998,"latitude":48.15909958},"fuelLevel":0.7200000000000001,"lastAddress":"Ainmillerstraße 44, 80801 München, Germany"}
{"timestamp":"2016-09-29T04:00:00+0200","id":124028,"name":"Gitte","coordinate":{"longitude":11.57989979,"latitude":48.16009903},"fuelLevel":0.77,"lastAddress":"Hohenzollernstraße 44, 80801 München, Germany"}
{"timestamp":"2016-09-29T04:00:00+0200","id":124027,"name":"Fanni","coordinate":{"longitude":11.5770998,"latitude":48.15969849},"fuelLevel":0.8099999999999999,"lastAddress":"Römerstraße 15, 80801 München, Germany"}
{"timestamp":"2016-09-29T04:00:00+0200","id":124005,"name":"Georg","coordinate":{"longitude":11.58100033,"latitude":48.15850067},"fuelLevel":0.69,"lastAddress":"Ainmillerstraße 17, 80801 München, Germany"}
{"timestamp":"2016-09-29T04:00:00+0200","id":124032,"name":"Irmi","coordinate":{"longitude":11.57330036,"latitude":48.16019821},"fuelLevel":0.64,"lastAddress":"Isabellastraße 46, 80796 München, Germany"}
{"timestamp":"2016-09-29T04:00:00+0200","id":124037,"name":"Luise","coordinate":{"longitude":11.56529999,"latitude":48.15950012},"fuelLevel":0.9400000000000001,"lastAddress":"Elisabethstraße 45, 80796 München, Germany"}
{"timestamp":"2016-09-29T04:00:00+0200","id":124017,"name":"Siggi","coordinate":{"longitude":11.5710001,"latitude":48.16059875},"fuelLevel":0.56,"lastAddress":"Hohenzollernstraße 79, 80796 München, Germany"}
{"timestamp":"2016-09-29T04:00:00+0200","id":124029,"name":"Hannah","coordinate":{"longitude":11.51029968,"latitude":48.04529953},"fuelLevel":0.7,"lastAddress":"Gistlstraße 159, 82049 Pullach im Isartal, Germany"}
{"timestamp":"2016-09-29T04:00:00+0200","id":124042,"name":"Tilli","coordinate":{"longitude":11.50949955,"latitude":48.04539871},"fuelLevel":0.77,"lastAddress":"Seitnerstraße 70, 82049 Pullach im Isartal, Germany"}
{"timestamp":"2016-09-29T04:00:00+0200","id":124009,"name":"Ludwig","coordinate":{"longitude":11.57789993,"latitude":48.16479874},"fuelLevel":0.9400000000000001,"lastAddress":"Destouchesstraße 43, 80803 München, Germany"}
{"timestamp":"2016-09-29T04:00:00+0200","id":124007,"name":"Jakob","coordinate":{"longitude":11.58619976,"latitude":48.16389847},"fuelLevel":0.9500000000000001,"lastAddress":"Leopoldstraße 87, 80802 München, Germany"}