{"timestamp":"2016-10-08T12:30:00+0200","id":124041,"name":"Sophie","coordinate":{"longitude":11.5781002,"latitude":48.14979935},"fuelLevel":0.9400000000000001,"lastAddress":"Amalienstraße 57, 80799 München, Germany"}
{"timestamp":"2016-10-08T12:30:00+0200","id":124026,"name":"Eva","coordinate":{"longitude":11.57830048,"latitude":48.15340042},"fuelLevel":0.61,"lastAddress":"Türkenstraße 93, 80799 München, Germany"}
{"timestamp":"2016-10-08T12:30:00+0200","id":124025,"name":"Elli","coordinate":{"longitude":11.57629967,"latitude":48.15739822},"fuelLevel":0.9,"lastAddress":"Franz-Joseph-Straße 43, 80801 München, Germany"}
{"timestamp":"2016-10-08T12:30:00+0200","id":124036,"name":"Liesel","coordinate":{"longitude":11.60879993,"latitude":48.12639999},"fuelLevel":0.6699999999999999,"lastAddress":"Haager Str. 12-14, 81671 München, Germany"}
{"timestamp":"2016-10-08T12:30:00+0200","id":124044,"name":"Uschi","coordinate":{"longitude":11.57240009,"latitude":48.13219833},"fuelLevel":0.9199999999999999,"lastAddress":"Blumenstraße 19, 80331 München, Germany"}
{"timestamp":"2016-10-08T12:30:00+0200","id":124024,"name":"Christl","coordinate":{"longitude":11.5795002,"latitude":48.13389969},"fuelLevel":0.8,"lastAddress":"Klenzestraße 2, 80469 München, Germany"}
{"timestamp":"2016-10-08T12:30:00+0200","id":124040,"name":"Reserl","coordinate":{"longitude":11.57190037,"latitude":48.13190079},"fuelLevel":0.83,"lastAddress":"Müllerstraße 24, 80469 München, Germany"}
{"timestamp":"2016-10-08T12:30:00+0200","id":124021,"name":"Xaver","coordinate":{"longitude":11.58040047,"latitude":48.13010025},"fuelLevel":0.9199999999999999,"lastAddress":"Erhardtstraße 27, 80469 München, Germany"}
{"timestamp":"2016-10-08T12:30:00+0200","id":124014,"name":"Quirin","coordinate":{"longitude":11.60519981,"latitude":48.13259888},"fuelLevel":0.6000000000000001,"lastAddress":"Elsässer Str. 4, 81667 München, Germany"}
{"timestamp":"2016-10-08T12:30:00+0200","id":124034,"name":"Kathi","coordinate":{"longitude":11.60509968,"latitude":48.13230133},"fuelLevel":0.66,"lastAddress":"Elsässer Str. 6, 81667 München, Germany"}
{"timestamp":"2016-10-08T12:30:00+0200","id":124016,"name":"Sepp","coordinate":{"longitude":11.59869957,"latitude":48.12580109},"fuelLevel":0.9299999999999999,"lastAddress":"Rosenheimer Str. 125, 81667 München, Germany"}
{"timestamp":"2016-10-08T12:30:00+0200","id":124038,"name":"Magda","coordinate":{"longitude":11.60050011,"latitude":48.12810135},"fuelLevel":0.67,"lastAddress":"Gravelottestraße 1, 81667 München, Germany"}
{"timestamp":"2016-10-08T12:30:00+0200","id":124022,"name":"Anne","coordinate":{"longitude":11.5951004,"latitude":48.12810135},"fuelLevel":0.86,"lastAddress":"Metzstraße 1, 81667 München, Germany"}
{"timestamp":"2016-10-08T12:30:00+0200","id":124000,"name":"Bertl","coordinate":{"longitude":11.59640026,"latitude":48.13800049},"fuelLevel":0.82,"lastAddress":"Maria-Theresia-Straße 4, 81675 München, Germany"}
{"timestamp":"2016-10-08T12:30:00+0200","id":124013,"name":"Poldi","coordinate":{"longitude":11.59420013,"latitude":48.12770081},"fuelLevel":0.79,"lastAddress":"Balanstraße 6A, 81669 München, Germany"}
{"timestamp":"2016-10-08T12:30:00+0200","id":124011,"name":"Maxl","coordinate":{"longitude":11.59309959,"latitude":48.12590027},"fuelLevel":0.73,"lastAddress":"Sieboldstraße 5, 81669 München, Germany"}
{"timestamp":"2016-10-08T12:30:00+0200","id":124003,"name":"Franzl","coordinate":{"longitude":11.5927,"latitude":48.12779999},"fuelLevel":0.8,"lastAddress":"Franziskanerstraße 8, 81669 München, Germany"}
{"timestamp":"2016-10-08T12:30:00+0200","id":124010,"name":"Luitpold","coordinate":{"longitude":11.58419991,"latitude":48.12749863},"fuelLevel":0.9500000000000001,"lastAddress":"Lilienstraße 68, 81669 München, Germany"}
{"timestamp":"2016-10-08T12:30:00+0200","id":124019,"name":"Valentin","coordinate":{"longitude":11.58510017,"latitude":48.12379837},"fuelLevel":0.87,"lastAddress":"Hochstraße 47A, 81541 München, Germany"}
{"timestamp":"2016-10-08T12:30:00+0200","id":124035,"name":"Leonie","coordinate":{"longitude":11.58650017,"latitude":48.12969971},"fuelLevel":0.7899999999999999,"lastAddress":"Lilienstraße 26, 81669 München, Germany"}
{"timestamp":"2016-10-08T12:30:00+0200","id":124006,"name":"Gustl","coordinate":{"longitude":11.57740021,"latitude":48.12070084},"fuelLevel":0.9400000000000001,"lastAddress":"Falkenstraße 43, 81541 München, Germany"}
{"timestamp":"2016-10-08T12:30:00+0200","id":124020,"name":"Vinzenz","coordinate":{"longitude":11.57670021,"latitude":48.1242981},"fuelLevel":0.8999999999999999,"lastAddress":"Albanistraße 4, 81541 München, Germany"}
{"timestamp":"2016-10-08T12:30:00+0200","id":124018,"name":"Toni","coordinate":{"longitude":11.56999969,"latitude":48.13100052},"fuelLevel":0.9199999999999999,"lastAddress":"Angertorstraße 7, 80469 München, Germany"}
{"timestamp":"2016-10-08T12:30:00+0200","id":124004,"name":"Fridl","coordinate":{"longitude":11.5656004,"latitude":48.15670013},"fuelLevel":0.55,"lastAddress":"Hiltenspergerstraße 15, 80798 München, Germany"}
{"timestamp":"2016-10-08T12:30:00+0200","id":124031,"name":"Heidi","coordinate":{"longitude":11.56849957,"latitude":48.1529007},"fuelLevel":0.8,"lastAddress":"Luisenstraße 72, 80798 München, Germany"}
{"timestamp":"2016-10-08T12:30:00+0200","id":124048,"name":"Wiggerl","coordinate":{"longitude":11.5788002,"latitude":48.16139984},"fuelLevel":0.68,"lastAddress":"Kaiserstraße 38, 80801 München, Germany"}
{"timestamp":"2016-10-08T12:30:00+0200","id":124028,"name":"Gitte","coordinate":{"longitude":11.57730007,"latitude":48.16070175},"fuelLevel":0.75,"lastAddress":"Römerstraße 23, 80801 München, Germany"}
{"timestamp":"2016-10-08T12:30:00+0200","id":124027,"name":"Fanni","coordinate":{"longitude":11.57800007,"latitude":48.1590004},"fuelLevel":0.7899999999999999,"lastAddress":"Ainmillerstraße 40, 80801 München, Germany"}
{"timestamp":"2016-10-08T12:30:00+0200","id":124001,"name":"Edmund","coordinate":{"longitude":11.57919979,"latitude":48.15779877},"fuelLevel":0.5700000000000001,"lastAddress":"Franz-Joseph-Straße 27, 80801 München, Germany"}
{"timestamp":"2016-10-08T12:30:00+0200","id":124032,"name":"Irmi","coordinate":{"longitude":11.57279968,"latitude":48.16019821},"fuelLevel":0.64,"lastAddress":"Isabellastraße 47, 80796 München, Germany"}
{"timestamp":"2016-10-08T12:30:00+0200","id":124037,"name":"Luise","coordinate":{"longitude":11.57050037,"latitude":48.15739822},"fuelLevel":0.52,"lastAddress":"Agnesstraße 12, 80798 München, Germany"}
{"timestamp":"2016-10-08T12:30:00+0200","id":124017,"name":"Siggi","coordinate":{"longitude":11.5710001,"latitude":48.16080093},"fuelLevel":0.56,"lastAddress":"Hohenzollernstraße 112, 80796 München, Germany"}
{"timestamp":"2016-10-08T12:30:00+0200","id":124029,"name":"Hannah","coordinate":{"longitude":11.51039982,"latitude":48.04550171},"fuelLevel":0.7,"lastAddress":"Gistlstraße 159, 82049 Pullach im Isartal, Germany"}
{"timestamp":"2016-10-08T12:30:00+0200","id":124008,"name":"Johann","coordinate":{"longitude":11.50990009,"latitude":48.04550171},"fuelLevel":0.87,"lastAddress":"Gistlstraße 159, 82049 Pullach im Isartal, Germany"}
{"timestamp":"2016-10-08T12:30:00+0200","id":124039,"name":"Marie","coordinate":{"longitude":11.5092001,"latitude":48.04470062},"fuelLevel":0.58,"lastAddress":"Seitnerstraße 70, 82049 Pullach im Isartal, Germany"}
{"timestamp":"2016-10-08T12:30:00+0200","id":124009,"name":"Ludwig","coordinate":{"longitude":11.58430004,"latitude":48.16189957},"fuelLevel":0.8999999999999999,"lastAddress":"Herzogstraße 7, 80803 München, Germany"}
{"timestamp":"2016-10-08T12:30:00+0200","id":124007,"name":"Jakob","coordinate":{"longitude":11.57470036,"latitude":48.16719818},"fuelLevel":0.9400000000000001,"lastAddress":"Karl-Theodor-Straße 80, 80803 München, Germany"}