{"timestamp":"2016-11-19T15:55:00+0100","id":124041,"name":"Sophie","coordinate":{"longitude":11.5789032,"latitude":48.15298462},"fuelLevel":0.5599999999999999,"lastAddress":"Akademiestraße 2, 80799 München, Germany"}
{"timestamp":"2016-11-19T15:55:00+0100","id":124026,"name":"Eva","coordinate":{"longitude":11.58129883,"latitude":48.15240479},"fuelLevel":0.75,"lastAddress":"Akademiestraße 3, 80799 München, Germany"}
{"timestamp":"2016-11-19T15:55:00+0100","id":124025,"name":"Elli","coordinate":{"longitude":11.58120728,"latitude":48.15242004},"fuelLevel":0.8400000000000001,"lastAddress":"Akademiestraße 3, 80799 München, Germany"}
{"timestamp":"2016-11-19T15:55:00+0100","id":124024,"name":"Christl","coordinate":{"longitude":11.57698059,"latitude":48.13279724},"fuelLevel":0.6499999999999999,"lastAddress":"Buttermelcherstraße 4, 80469 München, Germany"}
{"timestamp":"2016-11-19T15:55:00+0100","id":124040,"name":"Reserl","coordinate":{"longitude":11.58169556,"latitude":48.13079834},"fuelLevel":0.86,"lastAddress":"Erhardtstraße 27, 80469 München, Germany"}
{"timestamp":"2016-11-19T15:55:00+0100","id":124021,"name":"Xaver","coordinate":{"longitude":11.58189392,"latitude":48.13111877},"fuelLevel":0.8,"lastAddress":"Kohlstraße 11, 80469 München, Germany"}
{"timestamp":"2016-11-19T15:55:00+0100","id":124014,"name":"Quirin","coordinate":{"longitude":11.59919739,"latitude":48.13598633},"fuelLevel":0.6527777777777778,"lastAddress":"Einsteinstraße 3, 81675 München, Germany"}
{"timestamp":"2016-11-19T15:55:00+0100","id":124034,"name":"Kathi","coordinate":{"longitude":11.60379982,"latitude":48.13040161},"fuelLevel":0.84,"lastAddress":"Breisacher Str. 12, 81667 München, Germany"}
{"timestamp":"2016-11-19T15:55:00+0100","id":124023,"name":"Babsi","coordinate":{"longitude":11.56478882,"latitude":48.129776},"fuelLevel":0.5700000000000001,"lastAddress":"Winckelstraße, 80337 München, Germany"}
{"timestamp":"2016-11-19T15:55:00+0100","id":124022,"name":"Anne","coordinate":{"longitude":11.60169983,"latitude":48.12719727},"fuelLevel":0.7899999999999999,"lastAddress":"Orleansstraße 39, 81667 München, Germany"}
{"timestamp":"2016-11-19T15:55:00+0100","id":124000,"name":"Bertl","coordinate":{"longitude":11.59689331,"latitude":48.12799072},"fuelLevel":0.55,"lastAddress":"Lothringer Str. 4, 81667 München, Germany"}
{"timestamp":"2016-11-19T15:55:00+0100","id":124013,"name":"Poldi","coordinate":{"longitude":11.58959961,"latitude":48.12501526},"fuelLevel":0.79,"lastAddress":"Franziskanerstraße 47, 81669 München, Germany"}
{"timestamp":"2016-11-19T15:55:00+0100","id":124003,"name":"Franzl","coordinate":{"longitude":11.58810425,"latitude":48.12550354},"fuelLevel":0.7200000000000001,"lastAddress":"Gebsattelstraße 16, 81541 München, Germany"}
{"timestamp":"2016-11-19T15:55:00+0100","id":124010,"name":"Luitpold","coordinate":{"longitude":11.58818054,"latitude":48.12864685},"fuelLevel":0.58,"lastAddress":"Hochstraße 15, 81669 München, Germany"}
{"timestamp":"2016-11-19T15:55:00+0100","id":124019,"name":"Valentin","coordinate":{"longitude":11.58198547,"latitude":48.1210022},"fuelLevel":0.64,"lastAddress":"Hochstraße 81, 81541 München, Germany"}
{"timestamp":"2016-11-19T15:55:00+0100","id":124035,"name":"Leonie","coordinate":{"longitude":11.58349609,"latitude":48.12770081},"fuelLevel":0.87,"lastAddress":"Zeppelinstraße 39, 81669 München, Germany"}
{"timestamp":"2016-11-19T15:55:00+0100","id":124006,"name":"Gustl","coordinate":{"longitude":11.57603455,"latitude":48.1210022},"fuelLevel":0.86,"lastAddress":"Kolumbusstraße 22, 81543 München, Germany"}
{"timestamp":"2016-11-19T15:55:00+0100","id":124020,"name":"Vinzenz","coordinate":{"longitude":11.57879639,"latitude":48.12350464},"fuelLevel":0.88,"lastAddress":"Entenbachstraße 15, 81541 München, Germany"}
{"timestamp":"2016-11-19T15:55:00+0100","id":124049,"name":"Marei","coordinate":{"longitude":11.57759953,"latitude":48.12009811},"fuelLevel":0.8999999999999999,"lastAddress":"Dollmannstraße 11-13, 81541 München, Germany"}
{"timestamp":"2016-11-19T15:55:00+0100","id":124018,"name":"Toni","coordinate":{"longitude":11.56921387,"latitude":48.12397766},"fuelLevel":0.56,"lastAddress":"Wittelsbacherstraße 10-11, 80469 München, Germany"}
{"timestamp":"2016-11-19T15:55:00+0100","id":124012,"name":"Peter","coordinate":{"longitude":11.55990601,"latitude":48.15490723},"fuelLevel":0.6,"lastAddress":"Schellingstraße 134, 80797 München, Germany"}
{"timestamp":"2016-11-19T15:55:00+0100","id":124004,"name":"Fridl","coordinate":{"longitude":11.55911255,"latitude":48.15390015},"fuelLevel":0.88,"lastAddress":"Heßstraße 79, 80797 München, Germany"}
{"timestamp":"2016-11-19T15:55:00+0100","id":124047,"name":"Walli","coordinate":{"longitude":11.56719971,"latitude":48.15078735},"fuelLevel":0.75,"lastAddress":"Luisenstraße 63, 80798 München, Germany"}
{"timestamp":"2016-11-19T15:55:00+0100","id":124002,"name":"Ferdl","coordinate":{"longitude":11.56401062,"latitude":48.15029907},"fuelLevel":0.8999999999999999,"lastAddress":"Augustenstraße 76, 80333 München, Germany"}
{"timestamp":"2016-11-19T15:55:00+0100","id":124048,"name":"Wiggerl","coordinate":{"longitude":11.57739258,"latitude":48.15899658},"fuelLevel":0.8,"lastAddress":"Ainmillerstraße 33, 80801 München, Germany"}
{"timestamp":"2016-11-19T15:55:00+0100","id":124028,"name":"Gitte","coordinate":{"longitude":11.57914734,"latitude":48.15795898},"fuelLevel":0.9099999999999999,"lastAddress":"Franz-Joseph-Straße 28, 80801 München, Germany"}
{"timestamp":"2016-11-19T15:55:00+0100","id":124027,"name":"Fanni","coordinate":{"longitude":11.58340454,"latitude":48.16090393},"fuelLevel":0.8800000000000001,"lastAddress":"Kaiserstraße 22, 80801 München, Germany"}
{"timestamp":"2016-11-19T15:55:00+0100","id":124001,"name":"Edmund","coordinate":{"longitude":11.57981873,"latitude":48.16130066},"fuelLevel":0.5599999999999999,"lastAddress":"Kaiserpl. 13, 80803 München, Germany"}
{"timestamp":"2016-11-19T15:55:00+0100","id":124032,"name":"Irmi","coordinate":{"longitude":11.57260132,"latitude":48.15809631},"fuelLevel":0.89,"lastAddress":"Elisabethstraße 10, 80796 München, Germany"}
{"timestamp":"2016-11-19T15:55:00+0100","id":124037,"name":"Luise","coordinate":{"longitude":11.56231689,"latitude":48.15760803},"fuelLevel":0.57,"lastAddress":"Schleißheimer Str. 81, 80797 München, Germany"}
{"timestamp":"2016-11-19T15:55:00+0100","id":124017,"name":"Siggi","coordinate":{"longitude":11.56900024,"latitude":48.15937805},"fuelLevel":0.64,"lastAddress":"Tengstraße 31, 80796 München, Germany"}
{"timestamp":"2016-11-19T15:55:00+0100","id":124029,"name":"Hannah","coordinate":{"longitude":11.50961304,"latitude":48.04547119},"fuelLevel":0.89,"lastAddress":"Seitnerstraße 70, 82049 Pullach im Isartal, Germany"}
{"timestamp":"2016-11-19T15:55:00+0100","id":124008,"name":"Johann","coordinate":{"longitude":11.50952148,"latitude":48.04550171},"fuelLevel":0.81,"lastAddress":"Seitnerstraße 70, 82049 Pullach im Isartal, Germany"}
{"timestamp":"2016-11-19T15:55:00+0100","id":124039,"name":"Marie","coordinate":{"longitude":11.50570011,"latitude":48.04430008},"fuelLevel":0.7569444444444444,"lastAddress":"Wolfratshauser Str. 138, 82049 Pullach im Isartal, Germany"}
{"timestamp":"2016-11-19T15:55:00+0100","id":124009,"name":"Ludwig","coordinate":{"longitude":11.58230591,"latitude":48.1656189},"fuelLevel":0.8,"lastAddress":"Muffatstraße 5-7, 80803 München, Germany"}
{"timestamp":"2016-11-19T15:55:00+0100","id":124007,"name":"Jakob","coordinate":{"longitude":11.57409668,"latitude":48.16430664},"fuelLevel":0.84,"lastAddress":"Belgradstraße 37, 80796 München, Germany"}