{"timestamp":"2016-10-04T20:35:00+0200","id":124041,"name":"Sophie","coordinate":{"longitude":11.5777998,"latitude":48.14979935},"fuelLevel":0.93,"lastAddress":"Schellingstraße 16, 80799 München, Germany"}
{"timestamp":"2016-10-04T20:35:00+0200","id":124026,"name":"Eva","coordinate":{"longitude":11.57789993,"latitude":48.15409851},"fuelLevel":0.61,"lastAddress":"Türkenstraße 101A, 80799 München, Germany"}
{"timestamp":"2016-10-04T20:35:00+0200","id":124033,"name":"Johanna","coordinate":{"longitude":11.58150005,"latitude":48.15240097},"fuelLevel":0.84,"lastAddress":"Akademiestraße 1, 80799 München, Germany"}
{"timestamp":"2016-10-04T20:35:00+0200","id":124036,"name":"Liesel","coordinate":{"longitude":11.57479954,"latitude":48.15620041},"fuelLevel":0.6699999999999999,"lastAddress":"Nordendstraße 29, 80801 München, Germany"}
{"timestamp":"2016-10-04T20:35:00+0200","id":124044,"name":"Uschi","coordinate":{"longitude":11.57260036,"latitude":48.13199997},"fuelLevel":0.9199999999999999,"lastAddress":"Müllerstraße 20, 80469 München, Germany"}
{"timestamp":"2016-10-04T20:35:00+0200","id":124024,"name":"Christl","coordinate":{"longitude":11.57929993,"latitude":48.13370132},"fuelLevel":0.8,"lastAddress":"Klenzestraße 2, 80469 München, Germany"}
{"timestamp":"2016-10-04T20:35:00+0200","id":124040,"name":"Reserl","coordinate":{"longitude":11.57310009,"latitude":48.13219833},"fuelLevel":0.8999999999999999,"lastAddress":"Müllerstraße 18, 80469 München, Germany"}
{"timestamp":"2016-10-04T20:35:00+0200","id":124021,"name":"Xaver","coordinate":{"longitude":11.58160019,"latitude":48.13069916},"fuelLevel":0.9500000000000001,"lastAddress":"Erhardtstraße 27, 80469 München, Germany"}
{"timestamp":"2016-10-04T20:35:00+0200","id":124014,"name":"Quirin","coordinate":{"longitude":11.60849953,"latitude":48.13290024},"fuelLevel":0.63,"lastAddress":"Kirchenstraße 87, 81675 München, Germany"}
{"timestamp":"2016-10-04T20:35:00+0200","id":124034,"name":"Kathi","coordinate":{"longitude":11.60509968,"latitude":48.13240051},"fuelLevel":0.67,"lastAddress":"Elsässer Str. 4, 81667 München, Germany"}
{"timestamp":"2016-10-04T20:35:00+0200","id":124030,"name":"Hedwig","coordinate":{"longitude":11.5635004,"latitude":48.12760162},"fuelLevel":0.9199999999999999,"lastAddress":"Thalkirchner Str. 56, 80337 München, Germany"}
{"timestamp":"2016-10-04T20:35:00+0200","id":124023,"name":"Babsi","coordinate":{"longitude":11.56359959,"latitude":48.1271019},"fuelLevel":0.93,"lastAddress":"Thalkirchner Str. 54, 80337 München, Germany"}
{"timestamp":"2016-10-04T20:35:00+0200","id":124016,"name":"Sepp","coordinate":{"longitude":11.59899998,"latitude":48.12630081},"fuelLevel":0.9199999999999999,"lastAddress":"Lothringer Str. 26, 81667 München, Germany"}
{"timestamp":"2016-10-04T20:35:00+0200","id":124038,"name":"Magda","coordinate":{"longitude":11.59990025,"latitude":48.12829971},"fuelLevel":0.67,"lastAddress":"Pariser Pl. 4, 81667 München, Germany"}
{"timestamp":"2016-10-04T20:35:00+0200","id":124022,"name":"Anne","coordinate":{"longitude":11.59640026,"latitude":48.1269989},"fuelLevel":0.87,"lastAddress":"Rosenheimer Str. 82, 81669 München, Germany"}
{"timestamp":"2016-10-04T20:35:00+0200","id":124000,"name":"Bertl","coordinate":{"longitude":11.59710026,"latitude":48.12950134},"fuelLevel":0.82,"lastAddress":"Kellerstraße 43, 81667 München, Germany"}
{"timestamp":"2016-10-04T20:35:00+0200","id":124013,"name":"Poldi","coordinate":{"longitude":11.59420013,"latitude":48.12730026},"fuelLevel":0.79,"lastAddress":"Balanstraße 10, 81669 München, Germany"}
{"timestamp":"2016-10-04T20:35:00+0200","id":124011,"name":"Maxl","coordinate":{"longitude":11.59319973,"latitude":48.12580109},"fuelLevel":0.7899999999999999,"lastAddress":"Sieboldstraße 5, 81669 München, Germany"}
{"timestamp":"2016-10-04T20:35:00+0200","id":124003,"name":"Franzl","coordinate":{"longitude":11.59309959,"latitude":48.12760162},"fuelLevel":0.79,"lastAddress":"Franziskanerstraße 8, 81669 München, Germany"}
{"timestamp":"2016-10-04T20:35:00+0200","id":124035,"name":"Leonie","coordinate":{"longitude":11.58549976,"latitude":48.12900162},"fuelLevel":0.7899999999999999,"lastAddress":"Schwarzstraße 4, 81669 München, Germany"}
{"timestamp":"2016-10-04T20:35:00+0200","id":124006,"name":"Gustl","coordinate":{"longitude":11.57719994,"latitude":48.12120056},"fuelLevel":0.9400000000000001,"lastAddress":"Entenbachstraße 51, 81541 München, Germany"}
{"timestamp":"2016-10-04T20:35:00+0200","id":124020,"name":"Vinzenz","coordinate":{"longitude":11.57689953,"latitude":48.12480164},"fuelLevel":0.8999999999999999,"lastAddress":"Albanistraße 1, 81541 München, Germany"}
{"timestamp":"2016-10-04T20:35:00+0200","id":124049,"name":"Marei","coordinate":{"longitude":11.57439995,"latitude":48.11980057},"fuelLevel":0.69,"lastAddress":"Humboldtstraße 26, 81543 München, Germany"}
{"timestamp":"2016-10-04T20:35:00+0200","id":124045,"name":"Vroni","coordinate":{"longitude":11.56729984,"latitude":48.12760162},"fuelLevel":0.9199999999999999,"lastAddress":"Holzstraße 34, 80469 München, Germany"}
{"timestamp":"2016-10-04T20:35:00+0200","id":124018,"name":"Toni","coordinate":{"longitude":11.57019997,"latitude":48.13069916},"fuelLevel":0.9099999999999999,"lastAddress":"Hans-Sachs-Straße 2, 80469 München, Germany"}
{"timestamp":"2016-10-04T20:35:00+0200","id":124012,"name":"Peter","coordinate":{"longitude":11.57260036,"latitude":48.14960098},"fuelLevel":1,"lastAddress":"Barer Str. 48, 80799 München, Germany"}
{"timestamp":"2016-10-04T20:35:00+0200","id":124004,"name":"Fridl","coordinate":{"longitude":11.5656004,"latitude":48.15660095},"fuelLevel":0.55,"lastAddress":"Hiltenspergerstraße 15, 80798 München, Germany"}
{"timestamp":"2016-10-04T20:35:00+0200","id":124031,"name":"Heidi","coordinate":{"longitude":11.56659985,"latitude":48.15039825},"fuelLevel":0.8,"lastAddress":"Theresienstraße 43, 80333 München, Germany"}
{"timestamp":"2016-10-04T20:35:00+0200","id":124047,"name":"Walli","coordinate":{"longitude":11.56989956,"latitude":48.15060043},"fuelLevel":0.83,"lastAddress":"Arcisstraße 32, 80799 München, Germany"}
{"timestamp":"2016-10-04T20:35:00+0200","id":124002,"name":"Ferdl","coordinate":{"longitude":11.56470013,"latitude":48.15200043},"fuelLevel":0.9500000000000001,"lastAddress":"Augustenstraße 93, 80798 München, Germany"}
{"timestamp":"2016-10-04T20:35:00+0200","id":124048,"name":"Wiggerl","coordinate":{"longitude":11.57890034,"latitude":48.16090012},"fuelLevel":0.68,"lastAddress":"Kaiserstraße 45, 80801 München, Germany"}
{"timestamp":"2016-10-04T20:35:00+0200","id":124028,"name":"Gitte","coordinate":{"longitude":11.5770998,"latitude":48.16009903},"fuelLevel":0.75,"lastAddress":"Hohenzollernstraße 41, 80801 München, Germany"}
{"timestamp":"2016-10-04T20:35:00+0200","id":124027,"name":"Fanni","coordinate":{"longitude":11.57800007,"latitude":48.15879822},"fuelLevel":0.7899999999999999,"lastAddress":"Ainmillerstraße 33, 80801 München, Germany"}
{"timestamp":"2016-10-04T20:35:00+0200","id":124005,"name":"Georg","coordinate":{"longitude":11.58150005,"latitude":48.15890121},"fuelLevel":0.66,"lastAddress":"Ainmillerstraße 20, 80801 München, Germany"}
{"timestamp":"2016-10-04T20:35:00+0200","id":124032,"name":"Irmi","coordinate":{"longitude":11.57289982,"latitude":48.16030121},"fuelLevel":0.64,"lastAddress":"Isabellastraße 49, 80796 München, Germany"}
{"timestamp":"2016-10-04T20:35:00+0200","id":124037,"name":"Luise","coordinate":{"longitude":11.56630039,"latitude":48.15790176},"fuelLevel":0.58,"lastAddress":"Agnesstraße 38, 80798 München, Germany"}
{"timestamp":"2016-10-04T20:35:00+0200","id":124017,"name":"Siggi","coordinate":{"longitude":11.56980038,"latitude":48.16080093},"fuelLevel":0.56,"lastAddress":"Ansbacher Str. 5, 80796 München, Germany"}
{"timestamp":"2016-10-04T20:35:00+0200","id":124029,"name":"Hannah","coordinate":{"longitude":11.51019955,"latitude":48.04539871},"fuelLevel":0.71,"lastAddress":"Gistlstraße 159, 82049 Pullach im Isartal, Germany"}
{"timestamp":"2016-10-04T20:35:00+0200","id":124008,"name":"Johann","coordinate":{"longitude":11.50990009,"latitude":48.04539871},"fuelLevel":0.87,"lastAddress":"Gistlstraße 159, 82049 Pullach im Isartal, Germany"}
{"timestamp":"2016-10-04T20:35:00+0200","id":124039,"name":"Marie","coordinate":{"longitude":11.50949955,"latitude":48.04550171},"fuelLevel":0.58,"lastAddress":"Seitnerstraße 70, 82049 Pullach im Isartal, Germany"}
{"timestamp":"2016-10-04T20:35:00+0200","id":124009,"name":"Ludwig","coordinate":{"longitude":11.58500004,"latitude":48.16189957},"fuelLevel":0.8999999999999999,"lastAddress":"Herzogstraße 3, 80803 München, Germany"}