{"timestamp":"2016-10-12T01:40:00+0200","id":124041,"name":"Sophie","coordinate":{"longitude":11.5788002,"latitude":48.15050125},"fuelLevel":0.9400000000000001,"lastAddress":"Hauptgebäude, Geschwister-Scholl-Platz 1, 80539 München, Germany"}
{"timestamp":"2016-10-12T01:40:00+0200","id":124026,"name":"Eva","coordinate":{"longitude":11.57849979,"latitude":48.15370178},"fuelLevel":0.61,"lastAddress":"Türkenstraße 104, 80799 München, Germany"}
{"timestamp":"2016-10-12T01:40:00+0200","id":124025,"name":"Elli","coordinate":{"longitude":11.57619953,"latitude":48.15739822},"fuelLevel":0.9,"lastAddress":"Franz-Joseph-Straße 43, 80801 München, Germany"}
{"timestamp":"2016-10-12T01:40:00+0200","id":124033,"name":"Johanna","coordinate":{"longitude":11.58090019,"latitude":48.15219879},"fuelLevel":0.76,"lastAddress":"Akademiestraße 5, 80799 München, Germany"}
{"timestamp":"2016-10-12T01:40:00+0200","id":124036,"name":"Liesel","coordinate":{"longitude":11.58150005,"latitude":48.15050125},"fuelLevel":0.5900000000000001,"lastAddress":"Ludwigstraße 29, 80539 München, Germany"}
{"timestamp":"2016-10-12T01:40:00+0200","id":124044,"name":"Uschi","coordinate":{"longitude":11.57260036,"latitude":48.13190079},"fuelLevel":0.9199999999999999,"lastAddress":"Müllerstraße 9, 80469 München, Germany"}
{"timestamp":"2016-10-12T01:40:00+0200","id":124024,"name":"Christl","coordinate":{"longitude":11.57509995,"latitude":48.13299942},"fuelLevel":0.69,"lastAddress":"Rumfordstraße 2, 80469 München, Germany"}
{"timestamp":"2016-10-12T01:40:00+0200","id":124040,"name":"Reserl","coordinate":{"longitude":11.57199955,"latitude":48.13159943},"fuelLevel":0.83,"lastAddress":"Müllerstraße 13, 80469 München, Germany"}
{"timestamp":"2016-10-12T01:40:00+0200","id":124021,"name":"Xaver","coordinate":{"longitude":11.58040047,"latitude":48.12990189},"fuelLevel":0.9199999999999999,"lastAddress":"Erhardtstraße 27, 80469 München, Germany"}
{"timestamp":"2016-10-12T01:40:00+0200","id":124014,"name":"Quirin","coordinate":{"longitude":11.60529995,"latitude":48.13280106},"fuelLevel":0.6000000000000001,"lastAddress":"Kirchenstraße 66, 81675 München, Germany"}
{"timestamp":"2016-10-12T01:40:00+0200","id":124016,"name":"Sepp","coordinate":{"longitude":11.60249996,"latitude":48.12900162},"fuelLevel":0.9099999999999999,"lastAddress":"Wörthstraße 49, 81667 München, Germany"}
{"timestamp":"2016-10-12T01:40:00+0200","id":124038,"name":"Magda","coordinate":{"longitude":11.6001997,"latitude":48.12829971},"fuelLevel":0.67,"lastAddress":"Pariser Pl., 81667 München, Germany"}
{"timestamp":"2016-10-12T01:40:00+0200","id":124022,"name":"Anne","coordinate":{"longitude":11.5958004,"latitude":48.12739944},"fuelLevel":0.8300000000000001,"lastAddress":"Rosenheimer Str. 74, 81669 München, Germany"}
{"timestamp":"2016-10-12T01:40:00+0200","id":124000,"name":"Bertl","coordinate":{"longitude":11.59799957,"latitude":48.12639999},"fuelLevel":0.8,"lastAddress":"Rosenheimer Str. 117, 81667 München, Germany"}
{"timestamp":"2016-10-12T01:40:00+0200","id":124013,"name":"Poldi","coordinate":{"longitude":11.59449959,"latitude":48.12760162},"fuelLevel":0.79,"lastAddress":"Balanstraße 6A, 81669 München, Germany"}
{"timestamp":"2016-10-12T01:40:00+0200","id":124011,"name":"Maxl","coordinate":{"longitude":11.59490013,"latitude":48.12770081},"fuelLevel":0.6699999999999999,"lastAddress":"Metzstraße 1, 81667 München, Germany"}
{"timestamp":"2016-10-12T01:40:00+0200","id":124003,"name":"Franzl","coordinate":{"longitude":11.59309959,"latitude":48.12730026},"fuelLevel":0.8,"lastAddress":"Franziskanerstraße 15, 81669 München, Germany"}
{"timestamp":"2016-10-12T01:40:00+0200","id":124035,"name":"Leonie","coordinate":{"longitude":11.58549976,"latitude":48.12919998},"fuelLevel":0.76,"lastAddress":"Schwarzstraße 2, 81669 München, Germany"}
{"timestamp":"2016-10-12T01:40:00+0200","id":124006,"name":"Gustl","coordinate":{"longitude":11.57509995,"latitude":48.11989975},"fuelLevel":0.9500000000000001,"lastAddress":"Humboldtstraße 27A, 81543 München, Germany"}
{"timestamp":"2016-10-12T01:40:00+0200","id":124020,"name":"Vinzenz","coordinate":{"longitude":11.57800007,"latitude":48.1230011},"fuelLevel":0.8999999999999999,"lastAddress":"Entenbachstraße 26, 81541 München, Germany"}
{"timestamp":"2016-10-12T01:40:00+0200","id":124049,"name":"Marei","coordinate":{"longitude":11.57180023,"latitude":48.1208992},"fuelLevel":0.52,"lastAddress":"Humboldtstraße 4, 81543 München, Germany"}
{"timestamp":"2016-10-12T01:40:00+0200","id":124045,"name":"Vroni","coordinate":{"longitude":11.56499958,"latitude":48.12400055},"fuelLevel":0.64,"lastAddress":"Kapuzinerstraße 46, 80469 München, Germany"}
{"timestamp":"2016-10-12T01:40:00+0200","id":124018,"name":"Toni","coordinate":{"longitude":11.56989956,"latitude":48.12939835},"fuelLevel":0.66,"lastAddress":"Hans-Sachs-Straße 11, 80469 München, Germany"}
{"timestamp":"2016-10-12T01:40:00+0200","id":124012,"name":"Peter","coordinate":{"longitude":11.5571003,"latitude":48.15639877},"fuelLevel":0.9600000000000001,"lastAddress":"Lothstraße 21, 80797 München, Germany"}
{"timestamp":"2016-10-12T01:40:00+0200","id":124004,"name":"Fridl","coordinate":{"longitude":11.5564003,"latitude":48.15439987},"fuelLevel":0.9600000000000001,"lastAddress":"Heßstraße 85, 80797 München, Germany"}
{"timestamp":"2016-10-12T01:40:00+0200","id":124031,"name":"Heidi","coordinate":{"longitude":11.56680012,"latitude":48.15200043},"fuelLevel":0.6499999999999999,"lastAddress":"Heßstraße 46, 80798 München, Germany"}
{"timestamp":"2016-10-12T01:40:00+0200","id":124047,"name":"Walli","coordinate":{"longitude":11.57040024,"latitude":48.14960098},"fuelLevel":0.71,"lastAddress":"Theresienstraße, 80333 München, Germany"}
{"timestamp":"2016-10-12T01:40:00+0200","id":124002,"name":"Ferdl","coordinate":{"longitude":11.56849957,"latitude":48.14830017},"fuelLevel":0.4097222222222222,"lastAddress":"Arcisstraße 21, 80333 München, Germany"}
{"timestamp":"2016-10-12T01:40:00+0200","id":124048,"name":"Wiggerl","coordinate":{"longitude":11.58080006,"latitude":48.16279984},"fuelLevel":0.66,"lastAddress":"Herzogstraße 36, 80803 München, Germany"}
{"timestamp":"2016-10-12T01:40:00+0200","id":124028,"name":"Gitte","coordinate":{"longitude":11.57719994,"latitude":48.16019821},"fuelLevel":0.75,"lastAddress":"Hohenzollernstraße 70, 80801 München, Germany"}
{"timestamp":"2016-10-12T01:40:00+0200","id":124027,"name":"Fanni","coordinate":{"longitude":11.58609962,"latitude":48.16090012},"fuelLevel":0.7899999999999999,"lastAddress":"Leopoldstraße 53, 80802 München, Germany"}
{"timestamp":"2016-10-12T01:40:00+0200","id":124005,"name":"Georg","coordinate":{"longitude":11.57540035,"latitude":48.16199875},"fuelLevel":0.56,"lastAddress":"Viktor-Scheffel-Straße 20, 80803 München, Germany"}
{"timestamp":"2016-10-12T01:40:00+0200","id":124032,"name":"Irmi","coordinate":{"longitude":11.57320023,"latitude":48.16030121},"fuelLevel":0.64,"lastAddress":"Isabellastraße 46-48, 80796 München, Germany"}
{"timestamp":"2016-10-12T01:40:00+0200","id":124037,"name":"Luise","coordinate":{"longitude":11.5703001,"latitude":48.15739822},"fuelLevel":0.52,"lastAddress":"Agnesstraße 12-14, 80798 München, Germany"}
{"timestamp":"2016-10-12T01:40:00+0200","id":124017,"name":"Siggi","coordinate":{"longitude":11.57260036,"latitude":48.16059875},"fuelLevel":0.56,"lastAddress":"Hohenzollernstraße 102, 80796 München, Germany"}
{"timestamp":"2016-10-12T01:40:00+0200","id":124029,"name":"Hannah","coordinate":{"longitude":11.51019955,"latitude":48.04539871},"fuelLevel":0.7,"lastAddress":"Gistlstraße 159, 82049 Pullach im Isartal, Germany"}
{"timestamp":"2016-10-12T01:40:00+0200","id":124008,"name":"Johann","coordinate":{"longitude":11.50990009,"latitude":48.04550171},"fuelLevel":0.87,"lastAddress":"Gistlstraße 159, 82049 Pullach im Isartal, Germany"}
{"timestamp":"2016-10-12T01:40:00+0200","id":124009,"name":"Ludwig","coordinate":{"longitude":11.5848999,"latitude":48.16210175},"fuelLevel":0.8999999999999999,"lastAddress":"Herzogstraße 4, 80803 München, Germany"}
{"timestamp":"2016-10-12T01:40:00+0200","id":124007,"name":"Jakob","coordinate":{"longitude":11.57740021,"latitude":48.16680145},"fuelLevel":0.25,"lastAddress":"Karl-Theodor-Straße 62, 80803 München, Germany"}