{"timestamp":"2016-10-17T18:20:00+0200","id":124041,"name":"Sophie","coordinate":{"longitude":11.57839966,"latitude":48.15359879},"fuelLevel":0.8300000000000001,"lastAddress":"Türkenstraße 95, 80799 München, Germany"}
{"timestamp":"2016-10-17T18:20:00+0200","id":124026,"name":"Eva","coordinate":{"longitude":11.58090019,"latitude":48.14960098},"fuelLevel":0.9199999999999999,"lastAddress":"Ludwigstraße 24, 80539 München, Germany"}
{"timestamp":"2016-10-17T18:20:00+0200","id":124025,"name":"Elli","coordinate":{"longitude":11.57929993,"latitude":48.1556015},"fuelLevel":0.8300000000000001,"lastAddress":"Friedrichstraße 3, 80801 München, Germany"}
{"timestamp":"2016-10-17T18:20:00+0200","id":124044,"name":"Uschi","coordinate":{"longitude":11.57209969,"latitude":48.13150024},"fuelLevel":0.8,"lastAddress":"Müllerstraße 15, 80469 München, Germany"}
{"timestamp":"2016-10-17T18:20:00+0200","id":124040,"name":"Reserl","coordinate":{"longitude":11.57299995,"latitude":48.13190079},"fuelLevel":0.79,"lastAddress":"Müllerstraße 7, 80469 München, Germany"}
{"timestamp":"2016-10-17T18:20:00+0200","id":124014,"name":"Quirin","coordinate":{"longitude":11.59759998,"latitude":48.13460159},"fuelLevel":0.57,"lastAddress":"Innere Wiener Straße 58, 81667 München, Germany"}
{"timestamp":"2016-10-17T18:20:00+0200","id":124034,"name":"Kathi","coordinate":{"longitude":11.60919952,"latitude":48.13280106},"fuelLevel":0.57,"lastAddress":"Kirchenstraße 93, 81675 München, Germany"}
{"timestamp":"2016-10-17T18:20:00+0200","id":124016,"name":"Sepp","coordinate":{"longitude":11.59819984,"latitude":48.12649918},"fuelLevel":0.88,"lastAddress":"Rosenheimer Str. 117, 81667 München, Germany"}
{"timestamp":"2016-10-17T18:20:00+0200","id":124038,"name":"Magda","coordinate":{"longitude":11.60029984,"latitude":48.12879944},"fuelLevel":0.67,"lastAddress":"Sedanstraße 39, 81667 München, Germany"}
{"timestamp":"2016-10-17T18:20:00+0200","id":124022,"name":"Anne","coordinate":{"longitude":11.50599957,"latitude":48.09140015},"fuelLevel":0.7999999999999999,"lastAddress":"Meglingerstraße 40, 81477 München, Germany"}
{"timestamp":"2016-10-17T18:20:00+0200","id":124013,"name":"Poldi","coordinate":{"longitude":11.59430027,"latitude":48.12779999},"fuelLevel":0.61,"lastAddress":"Balanstraße 4, 81669 München, Germany"}
{"timestamp":"2016-10-17T18:20:00+0200","id":124011,"name":"Maxl","coordinate":{"longitude":11.59500027,"latitude":48.12779999},"fuelLevel":0.6699999999999999,"lastAddress":"Metzstraße 1, 81667 München, Germany"}
{"timestamp":"2016-10-17T18:20:00+0200","id":124003,"name":"Franzl","coordinate":{"longitude":11.59350014,"latitude":48.1271019},"fuelLevel":0.7799999999999999,"lastAddress":"Rablstraße 39, 81669 München, Germany"}
{"timestamp":"2016-10-17T18:20:00+0200","id":124010,"name":"Luitpold","coordinate":{"longitude":11.58769989,"latitude":48.12770081},"fuelLevel":0.87,"lastAddress":"Hochstraße 19, 81669 München, Germany"}
{"timestamp":"2016-10-17T18:20:00+0200","id":124019,"name":"Valentin","coordinate":{"longitude":11.50580025,"latitude":48.09090042},"fuelLevel":0.8680555555555556,"lastAddress":"Meglingerstraße 30-32, 81477 München, Germany"}
{"timestamp":"2016-10-17T18:20:00+0200","id":124020,"name":"Vinzenz","coordinate":{"longitude":11.5777998,"latitude":48.12310028},"fuelLevel":0.81,"lastAddress":"Schlotthauerstraße 14, 81541 München, Germany"}
{"timestamp":"2016-10-17T18:20:00+0200","id":124049,"name":"Marei","coordinate":{"longitude":11.57460022,"latitude":48.12260056},"fuelLevel":0.9400000000000001,"lastAddress":"Sommerstraße 8, 81543 München, Germany"}
{"timestamp":"2016-10-17T18:20:00+0200","id":124045,"name":"Vroni","coordinate":{"longitude":11.56509972,"latitude":48.12419891},"fuelLevel":0.64,"lastAddress":"Kapuzinerstraße 37, 80469 München, Germany"}
{"timestamp":"2016-10-17T18:20:00+0200","id":124018,"name":"Toni","coordinate":{"longitude":11.56960011,"latitude":48.12969971},"fuelLevel":0.6499999999999999,"lastAddress":"Hans-Sachs-Straße 12, 80469 München, Germany"}
{"timestamp":"2016-10-17T18:20:00+0200","id":124012,"name":"Peter","coordinate":{"longitude":11.56089973,"latitude":48.15420151},"fuelLevel":0.9600000000000001,"lastAddress":"Schleißheimer Str. 47, 80797 München, Germany"}
{"timestamp":"2016-10-17T18:20:00+0200","id":124004,"name":"Fridl","coordinate":{"longitude":11.55580044,"latitude":48.15539932},"fuelLevel":0.58,"lastAddress":"Lothstraße 34, 80335 München, Germany"}
{"timestamp":"2016-10-17T18:20:00+0200","id":124031,"name":"Heidi","coordinate":{"longitude":11.56369972,"latitude":48.14989853},"fuelLevel":0.62,"lastAddress":"Steinheilstraße 20, 80333 München, Germany"}
{"timestamp":"2016-10-17T18:20:00+0200","id":124047,"name":"Walli","coordinate":{"longitude":11.57019997,"latitude":48.1493988},"fuelLevel":0.71,"lastAddress":"Theresienstraße, 80333 München, Germany"}
{"timestamp":"2016-10-17T18:20:00+0200","id":124048,"name":"Wiggerl","coordinate":{"longitude":11.58069992,"latitude":48.16279984},"fuelLevel":0.67,"lastAddress":"Herzogstraße 36, 80803 München, Germany"}
{"timestamp":"2016-10-17T18:20:00+0200","id":124028,"name":"Gitte","coordinate":{"longitude":11.57540035,"latitude":48.16070175},"fuelLevel":0.7200000000000001,"lastAddress":"Belgradstraße 2, 80796 München, Germany"}
{"timestamp":"2016-10-17T18:20:00+0200","id":124032,"name":"Irmi","coordinate":{"longitude":11.57059956,"latitude":48.15909958},"fuelLevel":0.9400000000000001,"lastAddress":"Jakob-Klar-Straße 1, 80796 München, Germany"}
{"timestamp":"2016-10-17T18:20:00+0200","id":124037,"name":"Luise","coordinate":{"longitude":11.57019997,"latitude":48.15719986},"fuelLevel":0.52,"lastAddress":"Daimlerstraße 12, 80798 München, Germany"}
{"timestamp":"2016-10-17T18:20:00+0200","id":124017,"name":"Siggi","coordinate":{"longitude":11.57250023,"latitude":48.16059875},"fuelLevel":0.56,"lastAddress":"Hohenzollernstraße 102, 80796 München, Germany"}
{"timestamp":"2016-10-17T18:20:00+0200","id":124029,"name":"Hannah","coordinate":{"longitude":11.51010036,"latitude":48.04560089},"fuelLevel":0.59,"lastAddress":"Gistlstraße 159, 82049 Pullach im Isartal, Germany"}
{"timestamp":"2016-10-17T18:20:00+0200","id":124009,"name":"Ludwig","coordinate":{"longitude":11.58370018,"latitude":48.16239929},"fuelLevel":0.6499999999999999,"lastAddress":"Herzogstraße 14, 80803 München, Germany"}