{"timestamp":"2016-11-11T19:20:00+0100","id":124041,"name":"Sophie","coordinate":{"longitude":11.58050537,"latitude":48.15159607},"fuelLevel":0.63,"lastAddress":"Adalbertstraße 12, 80799 München, Germany"}
{"timestamp":"2016-11-11T19:20:00+0100","id":124026,"name":"Eva","coordinate":{"longitude":11.57981873,"latitude":48.1526947},"fuelLevel":0.89,"lastAddress":"Akademiestraße 11, 80799 München, Germany"}
{"timestamp":"2016-11-11T19:20:00+0100","id":124025,"name":"Elli","coordinate":{"longitude":11.57789612,"latitude":48.14981079},"fuelLevel":0.5599999999999999,"lastAddress":"Schellingstraße 16, 80799 München, Germany"}
{"timestamp":"2016-11-11T19:20:00+0100","id":124040,"name":"Reserl","coordinate":{"longitude":11.57759953,"latitude":48.12990189},"fuelLevel":0.75,"lastAddress":"Baaderstraße 50, 80469 München, Germany"}
{"timestamp":"2016-11-11T19:20:00+0100","id":124021,"name":"Xaver","coordinate":{"longitude":11.57249451,"latitude":48.13282776},"fuelLevel":0.75,"lastAddress":"Blumenstraße 28, 80331 München, Germany"}
{"timestamp":"2016-11-11T19:20:00+0100","id":124014,"name":"Quirin","coordinate":{"longitude":11.59912109,"latitude":48.13609314},"fuelLevel":0.9583333333333334,"lastAddress":"Einsteinstraße 3, 81675 München, Germany"}
{"timestamp":"2016-11-11T19:20:00+0100","id":124034,"name":"Kathi","coordinate":{"longitude":11.60528564,"latitude":48.12969971},"fuelLevel":0.9099999999999999,"lastAddress":"Elsässer Str. 31, 81667 München, Germany"}
{"timestamp":"2016-11-11T19:20:00+0100","id":124016,"name":"Sepp","coordinate":{"longitude":11.59918213,"latitude":48.13041687},"fuelLevel":0.59,"lastAddress":"Metzstraße 32, 81667 München, Germany"}
{"timestamp":"2016-11-11T19:20:00+0100","id":124022,"name":"Anne","coordinate":{"longitude":11.59840393,"latitude":48.1268158},"fuelLevel":0.9,"lastAddress":"Lothringer Str. 20, 81667 München, Germany"}
{"timestamp":"2016-11-11T19:20:00+0100","id":124000,"name":"Bertl","coordinate":{"longitude":11.59700012,"latitude":48.12799072},"fuelLevel":0.58,"lastAddress":"Lothringer Str. 4-6, 81667 München, Germany"}
{"timestamp":"2016-11-11T19:20:00+0100","id":124003,"name":"Franzl","coordinate":{"longitude":11.58988953,"latitude":48.12518311},"fuelLevel":0.79,"lastAddress":"Franziskanerstraße 43, 81669 München, Germany"}
{"timestamp":"2016-11-11T19:20:00+0100","id":124010,"name":"Luitpold","coordinate":{"longitude":11.58399963,"latitude":48.12651062},"fuelLevel":0.63,"lastAddress":"Sammtstraße 9, 81669 München, Germany"}
{"timestamp":"2016-11-11T19:20:00+0100","id":124019,"name":"Valentin","coordinate":{"longitude":11.58189392,"latitude":48.1210022},"fuelLevel":0.6499999999999999,"lastAddress":"Hochstraße 81, 81541 München, Germany"}
{"timestamp":"2016-11-11T19:20:00+0100","id":124035,"name":"Leonie","coordinate":{"longitude":11.58131409,"latitude":48.12750244},"fuelLevel":0.64,"lastAddress":"Schweigerstraße 4, 81541 München, Germany"}
{"timestamp":"2016-11-11T19:20:00+0100","id":124006,"name":"Gustl","coordinate":{"longitude":11.57800293,"latitude":48.12280273},"fuelLevel":0.5900000000000001,"lastAddress":"Entenbachstraße 26, 81541 München, Germany"}
{"timestamp":"2016-11-11T19:20:00+0100","id":124018,"name":"Toni","coordinate":{"longitude":11.56918335,"latitude":48.12400818},"fuelLevel":0.58,"lastAddress":"Wittelsbacherstraße 10-11, 80469 München, Germany"}
{"timestamp":"2016-11-11T19:20:00+0100","id":124012,"name":"Peter","coordinate":{"longitude":11.56109619,"latitude":48.15420532},"fuelLevel":0.73,"lastAddress":"Schleißheimer Str. 47, 80797 München, Germany"}
{"timestamp":"2016-11-11T19:20:00+0100","id":124004,"name":"Fridl","coordinate":{"longitude":11.56190491,"latitude":48.15679932},"fuelLevel":0.9199999999999999,"lastAddress":"Schleißheimer Str. 75, 80797 München, Germany"}
{"timestamp":"2016-11-11T19:20:00+0100","id":124031,"name":"Heidi","coordinate":{"longitude":11.56391907,"latitude":48.15060425},"fuelLevel":0.55,"lastAddress":"Augustenstraße 77-79, 80333 München, Germany"}
{"timestamp":"2016-11-11T19:20:00+0100","id":124047,"name":"Walli","coordinate":{"longitude":11.5664978,"latitude":48.14929199},"fuelLevel":0.8,"lastAddress":"Luisenstraße 47A, 80333 München, Germany"}
{"timestamp":"2016-11-11T19:20:00+0100","id":124002,"name":"Ferdl","coordinate":{"longitude":11.56350708,"latitude":48.1497345},"fuelLevel":0.76,"lastAddress":"Augustenstraße 72, 80333 München, Germany"}
{"timestamp":"2016-11-11T19:20:00+0100","id":124048,"name":"Wiggerl","coordinate":{"longitude":11.57778931,"latitude":48.15789795},"fuelLevel":0.88,"lastAddress":"Franz-Joseph-Straße 36A, 80801 München, Germany"}
{"timestamp":"2016-11-11T19:20:00+0100","id":124028,"name":"Gitte","coordinate":{"longitude":11.57810974,"latitude":48.15788269},"fuelLevel":0.58,"lastAddress":"Franz-Joseph-Straße 34, 80801 München, Germany"}
{"timestamp":"2016-11-11T19:20:00+0100","id":124027,"name":"Fanni","coordinate":{"longitude":11.58450317,"latitude":48.16221619},"fuelLevel":0.48000000000000004,"lastAddress":"Herzogstraße 8, 80803 München, Germany"}
{"timestamp":"2016-11-11T19:20:00+0100","id":124005,"name":"Georg","coordinate":{"longitude":11.57710266,"latitude":48.1583252},"fuelLevel":0.8,"lastAddress":"Römerstraße 4, 80801 München, Germany"}
{"timestamp":"2016-11-11T19:20:00+0100","id":124001,"name":"Edmund","coordinate":{"longitude":11.57670593,"latitude":48.16130066},"fuelLevel":0.63,"lastAddress":"Kaiserstraße 59-61, 80801 München, Germany"}
{"timestamp":"2016-11-11T19:20:00+0100","id":124032,"name":"Irmi","coordinate":{"longitude":11.57479858,"latitude":48.15950012},"fuelLevel":0.58,"lastAddress":"Nordendstraße 57-59, 80801 München, Germany"}
{"timestamp":"2016-11-11T19:20:00+0100","id":124037,"name":"Luise","coordinate":{"longitude":11.56742859,"latitude":48.15913391},"fuelLevel":0.73,"lastAddress":"Elisabethstraße 33, 80796 München, Germany"}
{"timestamp":"2016-11-11T19:20:00+0100","id":124029,"name":"Hannah","coordinate":{"longitude":11.50952148,"latitude":48.04551697},"fuelLevel":0.89,"lastAddress":"Seitnerstraße 70, 82049 Pullach im Isartal, Germany"}
{"timestamp":"2016-11-11T19:20:00+0100","id":124008,"name":"Johann","coordinate":{"longitude":11.50979614,"latitude":48.04518127},"fuelLevel":0.87,"lastAddress":"Seitnerstraße 70, 82049 Pullach im Isartal, Germany"}
{"timestamp":"2016-11-11T19:20:00+0100","id":124039,"name":"Marie","coordinate":{"longitude":11.50952148,"latitude":48.04541016},"fuelLevel":0.84,"lastAddress":"Seitnerstraße 70, 82049 Pullach im Isartal, Germany"}
{"timestamp":"2016-11-11T19:20:00+0100","id":124009,"name":"Ludwig","coordinate":{"longitude":11.58270264,"latitude":48.16531372},"fuelLevel":0.66,"lastAddress":"Muffatstraße 3, 80803 München, Germany"}
{"timestamp":"2016-11-11T19:20:00+0100","id":124007,"name":"Jakob","coordinate":{"longitude":11.57409668,"latitude":48.16430664},"fuelLevel":0.84,"lastAddress":"Belgradstraße 37, 80796 München, Germany"}