{"timestamp":"2016-09-28T07:55:00+0200","id":124041,"name":"Sophie","coordinate":{"longitude":11.57789993,"latitude":48.14970016},"fuelLevel":0.93,"lastAddress":"Schellingstraße 11, 80799 München, Germany"}
{"timestamp":"2016-09-28T07:55:00+0200","id":124026,"name":"Eva","coordinate":{"longitude":11.57789993,"latitude":48.1534996},"fuelLevel":0.61,"lastAddress":"Türkenstraße 95, 80799 München, Germany"}
{"timestamp":"2016-09-28T07:55:00+0200","id":124025,"name":"Elli","coordinate":{"longitude":11.57800007,"latitude":48.15299988},"fuelLevel":0.85,"lastAddress":"Akademiestraße 23, 80799 München, Germany"}
{"timestamp":"2016-09-28T07:55:00+0200","id":124033,"name":"Johanna","coordinate":{"longitude":11.57940006,"latitude":48.15650177},"fuelLevel":0.89,"lastAddress":"Hohenstaufenstraße 14, 80801 München, Germany"}
{"timestamp":"2016-09-28T07:55:00+0200","id":124036,"name":"Liesel","coordinate":{"longitude":11.57530022,"latitude":48.15639877},"fuelLevel":0.6699999999999999,"lastAddress":"Nordendstraße 38, 80801 München, Germany"}
{"timestamp":"2016-09-28T07:55:00+0200","id":124044,"name":"Uschi","coordinate":{"longitude":11.57629967,"latitude":48.13050079},"fuelLevel":0.51,"lastAddress":"Reichenbachstraße 29, 80469 München, Germany"}
{"timestamp":"2016-09-28T07:55:00+0200","id":124024,"name":"Christl","coordinate":{"longitude":11.58080006,"latitude":48.13219833},"fuelLevel":0.83,"lastAddress":"Baaderstraße 2, 80469 München, Germany"}
{"timestamp":"2016-09-28T07:55:00+0200","id":124021,"name":"Xaver","coordinate":{"longitude":11.58049965,"latitude":48.13180161},"fuelLevel":0.52,"lastAddress":"Kohlstraße 4, 80469 München, Germany"}
{"timestamp":"2016-09-28T07:55:00+0200","id":124014,"name":"Quirin","coordinate":{"longitude":11.60919952,"latitude":48.12559891},"fuelLevel":0.62,"lastAddress":"Haager Str. 14, 81671 München, Germany"}
{"timestamp":"2016-09-28T07:55:00+0200","id":124034,"name":"Kathi","coordinate":{"longitude":11.60490036,"latitude":48.13240051},"fuelLevel":0.67,"lastAddress":"Elsässer Str. 6, 81667 München, Germany"}
{"timestamp":"2016-09-28T07:55:00+0200","id":124030,"name":"Hedwig","coordinate":{"longitude":11.56289959,"latitude":48.12670135},"fuelLevel":0.9099999999999999,"lastAddress":"Thalkirchner Str. 66-68, 80337 München, Germany"}
{"timestamp":"2016-09-28T07:55:00+0200","id":124023,"name":"Babsi","coordinate":{"longitude":11.56340027,"latitude":48.1271019},"fuelLevel":0.93,"lastAddress":"Thalkirchner Str. 54, 80337 München, Germany"}
{"timestamp":"2016-09-28T07:55:00+0200","id":124016,"name":"Sepp","coordinate":{"longitude":11.59850025,"latitude":48.12590027},"fuelLevel":0.9199999999999999,"lastAddress":"Rosenheimer Str. 125, 81667 München, Germany"}
{"timestamp":"2016-09-28T07:55:00+0200","id":124022,"name":"Anne","coordinate":{"longitude":11.59700012,"latitude":48.1271019},"fuelLevel":0.8900000000000001,"lastAddress":"Rosenheimer Str. 105, 81667 München, Germany"}
{"timestamp":"2016-09-28T07:55:00+0200","id":124000,"name":"Bertl","coordinate":{"longitude":11.5948,"latitude":48.12950134},"fuelLevel":0.8500000000000001,"lastAddress":"Steinstraße 79, 81667 München, Germany"}
{"timestamp":"2016-09-28T07:55:00+0200","id":124013,"name":"Poldi","coordinate":{"longitude":11.59519958,"latitude":48.12649918},"fuelLevel":0.83,"lastAddress":"Balanstraße 21, 81669 München, Germany"}
{"timestamp":"2016-09-28T07:55:00+0200","id":124011,"name":"Maxl","coordinate":{"longitude":11.59290028,"latitude":48.12580109},"fuelLevel":0.8099999999999999,"lastAddress":"Sieboldstraße 5, 81669 München, Germany"}
{"timestamp":"2016-09-28T07:55:00+0200","id":124003,"name":"Franzl","coordinate":{"longitude":11.58950043,"latitude":48.12480164},"fuelLevel":0.88,"lastAddress":"Franziskanerstraße 49, 81669 München, Germany"}
{"timestamp":"2016-09-28T07:55:00+0200","id":124010,"name":"Luitpold","coordinate":{"longitude":11.58530045,"latitude":48.12739944},"fuelLevel":0.88,"lastAddress":"Franz-Prüller-Straße 12, 81669 München, Germany"}
{"timestamp":"2016-09-28T07:55:00+0200","id":124019,"name":"Valentin","coordinate":{"longitude":11.58510017,"latitude":48.12350082},"fuelLevel":0.9199999999999999,"lastAddress":"Hochstraße 49C, 81541 München, Germany"}
{"timestamp":"2016-09-28T07:55:00+0200","id":124035,"name":"Leonie","coordinate":{"longitude":11.58570004,"latitude":48.1291008},"fuelLevel":0.7899999999999999,"lastAddress":"Schwarzstraße 4, 81669 München, Germany"}
{"timestamp":"2016-09-28T07:55:00+0200","id":124006,"name":"Gustl","coordinate":{"longitude":11.57740021,"latitude":48.12099838},"fuelLevel":0.93,"lastAddress":"Falkenstraße 46, 81541 München, Germany"}
{"timestamp":"2016-09-28T07:55:00+0200","id":124020,"name":"Vinzenz","coordinate":{"longitude":11.57979965,"latitude":48.12329865},"fuelLevel":0.9299999999999999,"lastAddress":"Falkenstraße 7, 81541 München, Germany"}
{"timestamp":"2016-09-28T07:55:00+0200","id":124049,"name":"Marei","coordinate":{"longitude":11.57380009,"latitude":48.11989975},"fuelLevel":0.7200000000000001,"lastAddress":"Oefelestraße 9, 81543 München, Germany"}
{"timestamp":"2016-09-28T07:55:00+0200","id":124045,"name":"Vroni","coordinate":{"longitude":11.56770039,"latitude":48.12789917},"fuelLevel":0.9199999999999999,"lastAddress":"Holzstraße 41, 80469 München, Germany"}
{"timestamp":"2016-09-28T07:55:00+0200","id":124018,"name":"Toni","coordinate":{"longitude":11.56900024,"latitude":48.12639999},"fuelLevel":0.9500000000000001,"lastAddress":"Baumstraße 21, 80469 München, Germany"}
{"timestamp":"2016-09-28T07:55:00+0200","id":124012,"name":"Peter","coordinate":{"longitude":11.57289982,"latitude":48.15010071},"fuelLevel":1,"lastAddress":"Barer Str. 54B, 80799 München, Germany"}
{"timestamp":"2016-09-28T07:55:00+0200","id":124031,"name":"Heidi","coordinate":{"longitude":11.56680012,"latitude":48.14860153},"fuelLevel":0.8500000000000001,"lastAddress":"Gabelsbergerstraße 47, 80333 München, Germany"}
{"timestamp":"2016-09-28T07:55:00+0200","id":124047,"name":"Walli","coordinate":{"longitude":11.5717001,"latitude":48.15629959},"fuelLevel":0.8999999999999999,"lastAddress":"Georgenstraße 78, 80799 München, Germany"}
{"timestamp":"2016-09-28T07:55:00+0200","id":124002,"name":"Ferdl","coordinate":{"longitude":11.56359959,"latitude":48.15069962},"fuelLevel":0.48000000000000004,"lastAddress":"Augustenstraße 77, 80333 München, Germany"}
{"timestamp":"2016-09-28T07:55:00+0200","id":124048,"name":"Wiggerl","coordinate":{"longitude":11.5770998,"latitude":48.15930176},"fuelLevel":0.7200000000000001,"lastAddress":"Römerstraße 9, 80801 München, Germany"}
{"timestamp":"2016-09-28T07:55:00+0200","id":124028,"name":"Gitte","coordinate":{"longitude":11.58069992,"latitude":48.15810013},"fuelLevel":0.81,"lastAddress":"Habsburgerpl. 2, 80801 München, Germany"}
{"timestamp":"2016-09-28T07:55:00+0200","id":124027,"name":"Fanni","coordinate":{"longitude":11.5770998,"latitude":48.15919876},"fuelLevel":0.85,"lastAddress":"Römerstraße 9, 80801 München, Germany"}
{"timestamp":"2016-09-28T07:55:00+0200","id":124005,"name":"Georg","coordinate":{"longitude":11.58139992,"latitude":48.15819931},"fuelLevel":0.69,"lastAddress":"Franz-Joseph-Straße 16, 80801 München, Germany"}
{"timestamp":"2016-09-28T07:55:00+0200","id":124032,"name":"Irmi","coordinate":{"longitude":11.57320023,"latitude":48.16030121},"fuelLevel":0.64,"lastAddress":"Isabellastraße 46-48, 80796 München, Germany"}
{"timestamp":"2016-09-28T07:55:00+0200","id":124037,"name":"Luise","coordinate":{"longitude":11.56529999,"latitude":48.15969849},"fuelLevel":0.9400000000000001,"lastAddress":"Elisabethstraße 52, 80796 München, Germany"}
{"timestamp":"2016-09-28T07:55:00+0200","id":124017,"name":"Siggi","coordinate":{"longitude":11.57069969,"latitude":48.16030121},"fuelLevel":0.56,"lastAddress":"Jakob-Klar-Straße 11, 80796 München, Germany"}
{"timestamp":"2016-09-28T07:55:00+0200","id":124029,"name":"Hannah","coordinate":{"longitude":11.51029968,"latitude":48.04560089},"fuelLevel":0.7,"lastAddress":"Gistlstraße 159, 82049 Pullach im Isartal, Germany"}
{"timestamp":"2016-09-28T07:55:00+0200","id":124039,"name":"Marie","coordinate":{"longitude":11.50959969,"latitude":48.04539871},"fuelLevel":0.89,"lastAddress":"Seitnerstraße 70, 82049 Pullach im Isartal, Germany"}
{"timestamp":"2016-09-28T07:55:00+0200","id":124009,"name":"Ludwig","coordinate":{"longitude":11.57820034,"latitude":48.16400146},"fuelLevel":0.9400000000000001,"lastAddress":"Cherubinistraße 2, 80803 München, Germany"}
{"timestamp":"2016-09-28T07:55:00+0200","id":124007,"name":"Jakob","coordinate":{"longitude":11.5873003,"latitude":48.16400146},"fuelLevel":0.9500000000000001,"lastAddress":"Ungererstraße 15, 80802 München, Germany"}