{"timestamp":"2016-10-06T01:35:00+0200","id":124041,"name":"Sophie","coordinate":{"longitude":11.57800007,"latitude":48.15000153},"fuelLevel":0.93,"lastAddress":"Amalienstraße 59, 80799 München, Germany"}
{"timestamp":"2016-10-06T01:35:00+0200","id":124026,"name":"Eva","coordinate":{"longitude":11.57849979,"latitude":48.15359879},"fuelLevel":0.61,"lastAddress":"Türkenstraße 95, 80799 München, Germany"}
{"timestamp":"2016-10-06T01:35:00+0200","id":124033,"name":"Johanna","coordinate":{"longitude":11.58150005,"latitude":48.15179825},"fuelLevel":0.84,"lastAddress":"Ludwigstraße 31, 80539 München, Germany"}
{"timestamp":"2016-10-06T01:35:00+0200","id":124036,"name":"Liesel","coordinate":{"longitude":11.57479954,"latitude":48.15610123},"fuelLevel":0.6699999999999999,"lastAddress":"Nordendstraße 29, 80801 München, Germany"}
{"timestamp":"2016-10-06T01:35:00+0200","id":124044,"name":"Uschi","coordinate":{"longitude":11.57250023,"latitude":48.13190079},"fuelLevel":0.9199999999999999,"lastAddress":"Müllerstraße 20, 80469 München, Germany"}
{"timestamp":"2016-10-06T01:35:00+0200","id":124024,"name":"Christl","coordinate":{"longitude":11.57940006,"latitude":48.13389969},"fuelLevel":0.8,"lastAddress":"Rumfordstraße 30, 80469 München, Germany"}
{"timestamp":"2016-10-06T01:35:00+0200","id":124040,"name":"Reserl","coordinate":{"longitude":11.57310009,"latitude":48.13230133},"fuelLevel":0.8999999999999999,"lastAddress":"Theklastraße 1, 80469 München, Germany"}
{"timestamp":"2016-10-06T01:35:00+0200","id":124021,"name":"Xaver","coordinate":{"longitude":11.58160019,"latitude":48.13069916},"fuelLevel":0.9500000000000001,"lastAddress":"Erhardtstraße 27, 80469 München, Germany"}
{"timestamp":"2016-10-06T01:35:00+0200","id":124014,"name":"Quirin","coordinate":{"longitude":11.60840034,"latitude":48.13290024},"fuelLevel":0.63,"lastAddress":"Kirchenstraße 87, 81675 München, Germany"}
{"timestamp":"2016-10-06T01:35:00+0200","id":124030,"name":"Hedwig","coordinate":{"longitude":11.56359959,"latitude":48.12749863},"fuelLevel":0.9199999999999999,"lastAddress":"Thalkirchner Str. 52, 80337 München, Germany"}
{"timestamp":"2016-10-06T01:35:00+0200","id":124038,"name":"Magda","coordinate":{"longitude":11.60039997,"latitude":48.12810135},"fuelLevel":0.67,"lastAddress":"Gravelottestraße 1, 81667 München, Germany"}
{"timestamp":"2016-10-06T01:35:00+0200","id":124022,"name":"Anne","coordinate":{"longitude":11.59669971,"latitude":48.1269989},"fuelLevel":0.8800000000000001,"lastAddress":"Rosenheimer Str. 103, 81667 München, Germany"}
{"timestamp":"2016-10-06T01:35:00+0200","id":124000,"name":"Bertl","coordinate":{"longitude":11.59689999,"latitude":48.12950134},"fuelLevel":0.82,"lastAddress":"Kellerstraße 34, 81667 München, Germany"}
{"timestamp":"2016-10-06T01:35:00+0200","id":124013,"name":"Poldi","coordinate":{"longitude":11.59440041,"latitude":48.12760162},"fuelLevel":0.79,"lastAddress":"Balanstraße 6A, 81669 München, Germany"}
{"timestamp":"2016-10-06T01:35:00+0200","id":124011,"name":"Maxl","coordinate":{"longitude":11.59309959,"latitude":48.12559891},"fuelLevel":0.7899999999999999,"lastAddress":"Sieboldstraße 9, 81669 München, Germany"}
{"timestamp":"2016-10-06T01:35:00+0200","id":124003,"name":"Franzl","coordinate":{"longitude":11.59290028,"latitude":48.1271019},"fuelLevel":0.8,"lastAddress":"Rablstraße 37, 81669 München, Germany"}
{"timestamp":"2016-10-06T01:35:00+0200","id":124010,"name":"Luitpold","coordinate":{"longitude":11.58440018,"latitude":48.12749863},"fuelLevel":0.9500000000000001,"lastAddress":"Lilienstraße 68, 81669 München, Germany"}
{"timestamp":"2016-10-06T01:35:00+0200","id":124006,"name":"Gustl","coordinate":{"longitude":11.57740021,"latitude":48.12110138},"fuelLevel":0.9400000000000001,"lastAddress":"Falkenstraße 44, 81541 München, Germany"}
{"timestamp":"2016-10-06T01:35:00+0200","id":124020,"name":"Vinzenz","coordinate":{"longitude":11.57670021,"latitude":48.12450027},"fuelLevel":0.8999999999999999,"lastAddress":"Albanistraße 3, 81541 München, Germany"}
{"timestamp":"2016-10-06T01:35:00+0200","id":124049,"name":"Marei","coordinate":{"longitude":11.57439995,"latitude":48.11980057},"fuelLevel":0.69,"lastAddress":"Humboldtstraße 26, 81543 München, Germany"}
{"timestamp":"2016-10-06T01:35:00+0200","id":124045,"name":"Vroni","coordinate":{"longitude":11.56750011,"latitude":48.12749863},"fuelLevel":0.9199999999999999,"lastAddress":"Holzstraße 45, 80469 München, Germany"}
{"timestamp":"2016-10-06T01:35:00+0200","id":124018,"name":"Toni","coordinate":{"longitude":11.56999969,"latitude":48.13059998},"fuelLevel":0.9199999999999999,"lastAddress":"Hans-Sachs-Straße 2A, 80469 München, Germany"}
{"timestamp":"2016-10-06T01:35:00+0200","id":124012,"name":"Peter","coordinate":{"longitude":11.57269955,"latitude":48.14979935},"fuelLevel":1,"lastAddress":"Barer Str. 48, 80799 München, Germany"}
{"timestamp":"2016-10-06T01:35:00+0200","id":124004,"name":"Fridl","coordinate":{"longitude":11.56550026,"latitude":48.1568985},"fuelLevel":0.55,"lastAddress":"Georgenstraße 118, 80798 München, Germany"}
{"timestamp":"2016-10-06T01:35:00+0200","id":124031,"name":"Heidi","coordinate":{"longitude":11.56659985,"latitude":48.15000153},"fuelLevel":0.8,"lastAddress":"Luisenstraße 55, 80333 München, Germany"}
{"timestamp":"2016-10-06T01:35:00+0200","id":124002,"name":"Ferdl","coordinate":{"longitude":11.56480026,"latitude":48.15209961},"fuelLevel":0.9500000000000001,"lastAddress":"Augustenstraße 95, 80798 München, Germany"}
{"timestamp":"2016-10-06T01:35:00+0200","id":124048,"name":"Wiggerl","coordinate":{"longitude":11.57890034,"latitude":48.16139984},"fuelLevel":0.68,"lastAddress":"Kaiserstraße 36, 80801 München, Germany"}
{"timestamp":"2016-10-06T01:35:00+0200","id":124028,"name":"Gitte","coordinate":{"longitude":11.57719994,"latitude":48.15999985},"fuelLevel":0.75,"lastAddress":"Hohenzollernstraße 41, 80801 München, Germany"}
{"timestamp":"2016-10-06T01:35:00+0200","id":124027,"name":"Fanni","coordinate":{"longitude":11.5781002,"latitude":48.15909958},"fuelLevel":0.7899999999999999,"lastAddress":"Ainmillerstraße 38, 80801 München, Germany"}
{"timestamp":"2016-10-06T01:35:00+0200","id":124005,"name":"Georg","coordinate":{"longitude":11.58129978,"latitude":48.15850067},"fuelLevel":0.66,"lastAddress":"Ainmillerstraße 17, 80801 München, Germany"}
{"timestamp":"2016-10-06T01:35:00+0200","id":124032,"name":"Irmi","coordinate":{"longitude":11.57320023,"latitude":48.16049957},"fuelLevel":0.64,"lastAddress":"Hohenzollernstraße 65, 80796 München, Germany"}
{"timestamp":"2016-10-06T01:35:00+0200","id":124037,"name":"Luise","coordinate":{"longitude":11.56630039,"latitude":48.15779877},"fuelLevel":0.58,"lastAddress":"Agnesstraße 35, 80798 München, Germany"}
{"timestamp":"2016-10-06T01:35:00+0200","id":124017,"name":"Siggi","coordinate":{"longitude":11.5717001,"latitude":48.15950012},"fuelLevel":0.56,"lastAddress":"Bauerstraße 20, 80796 München, Germany"}
{"timestamp":"2016-10-06T01:35:00+0200","id":124029,"name":"Hannah","coordinate":{"longitude":11.51029968,"latitude":48.04529953},"fuelLevel":0.7,"lastAddress":"Gistlstraße 159, 82049 Pullach im Isartal, Germany"}
{"timestamp":"2016-10-06T01:35:00+0200","id":124008,"name":"Johann","coordinate":{"longitude":11.50979996,"latitude":48.04539871},"fuelLevel":0.87,"lastAddress":"Seitnerstraße 70, 82049 Pullach im Isartal, Germany"}
{"timestamp":"2016-10-06T01:35:00+0200","id":124039,"name":"Marie","coordinate":{"longitude":11.50959969,"latitude":48.04550171},"fuelLevel":0.58,"lastAddress":"Seitnerstraße 70, 82049 Pullach im Isartal, Germany"}
{"timestamp":"2016-10-06T01:35:00+0200","id":124009,"name":"Ludwig","coordinate":{"longitude":11.58520031,"latitude":48.16230011},"fuelLevel":0.8999999999999999,"lastAddress":"Siegfriedstraße 3, 80803 München, Germany"}
{"timestamp":"2016-10-06T01:35:00+0200","id":124007,"name":"Jakob","coordinate":{"longitude":11.57470036,"latitude":48.16699982},"fuelLevel":0.9400000000000001,"lastAddress":"Karl-Theodor-Straße 77, 80803 München, Germany"}