{"timestamp":"2016-10-10T20:00:00+0200","id":124041,"name":"Sophie","coordinate":{"longitude":11.57870007,"latitude":48.15050125},"fuelLevel":0.9400000000000001,"lastAddress":"Amalienstraße 54, 80799 München, Germany"}
{"timestamp":"2016-10-10T20:00:00+0200","id":124026,"name":"Eva","coordinate":{"longitude":11.57820034,"latitude":48.15370178},"fuelLevel":0.61,"lastAddress":"Türkenstraße 95, 80799 München, Germany"}
{"timestamp":"2016-10-10T20:00:00+0200","id":124025,"name":"Elli","coordinate":{"longitude":11.57619953,"latitude":48.1576004},"fuelLevel":0.9,"lastAddress":"Franz-Joseph-Straße 43, 80801 München, Germany"}
{"timestamp":"2016-10-10T20:00:00+0200","id":124033,"name":"Johanna","coordinate":{"longitude":11.58090019,"latitude":48.15259933},"fuelLevel":0.76,"lastAddress":"Akademiestraße 5, 80799 München, Germany"}
{"timestamp":"2016-10-10T20:00:00+0200","id":124036,"name":"Liesel","coordinate":{"longitude":11.58139992,"latitude":48.15060043},"fuelLevel":0.5900000000000001,"lastAddress":"Ludwigstraße 29, 80539 München, Germany"}
{"timestamp":"2016-10-10T20:00:00+0200","id":124044,"name":"Uschi","coordinate":{"longitude":11.57260036,"latitude":48.13180161},"fuelLevel":0.9199999999999999,"lastAddress":"Müllerstraße 9, 80469 München, Germany"}
{"timestamp":"2016-10-10T20:00:00+0200","id":124024,"name":"Christl","coordinate":{"longitude":11.57489967,"latitude":48.13339996},"fuelLevel":0.69,"lastAddress":"Am Einlaß 3A, 80469 München, Germany"}
{"timestamp":"2016-10-10T20:00:00+0200","id":124040,"name":"Reserl","coordinate":{"longitude":11.57229996,"latitude":48.13069916},"fuelLevel":0.83,"lastAddress":"Fraunhoferstraße 8, 80469 München, Germany"}
{"timestamp":"2016-10-10T20:00:00+0200","id":124021,"name":"Xaver","coordinate":{"longitude":11.58030033,"latitude":48.13000107},"fuelLevel":0.9199999999999999,"lastAddress":"Erhardtstraße 27, 80469 München, Germany"}
{"timestamp":"2016-10-10T20:00:00+0200","id":124014,"name":"Quirin","coordinate":{"longitude":11.60550022,"latitude":48.13249969},"fuelLevel":0.6000000000000001,"lastAddress":"Kirchenstraße 70, 81675 München, Germany"}
{"timestamp":"2016-10-10T20:00:00+0200","id":124023,"name":"Babsi","coordinate":{"longitude":11.56190014,"latitude":48.12630081},"fuelLevel":0.9,"lastAddress":"Thalkirchner Str. 78, 80337 München, Germany"}
{"timestamp":"2016-10-10T20:00:00+0200","id":124016,"name":"Sepp","coordinate":{"longitude":11.60239983,"latitude":48.1291008},"fuelLevel":0.9099999999999999,"lastAddress":"Wörthstraße 47, 81667 München, Germany"}
{"timestamp":"2016-10-10T20:00:00+0200","id":124038,"name":"Magda","coordinate":{"longitude":11.6001997,"latitude":48.12829971},"fuelLevel":0.67,"lastAddress":"Pariser Pl., 81667 München, Germany"}
{"timestamp":"2016-10-10T20:00:00+0200","id":124022,"name":"Anne","coordinate":{"longitude":11.59640026,"latitude":48.12720108},"fuelLevel":0.8300000000000001,"lastAddress":"Rosenheimer Str. 87, 81667 München, Germany"}
{"timestamp":"2016-10-10T20:00:00+0200","id":124000,"name":"Bertl","coordinate":{"longitude":11.59799957,"latitude":48.12620163},"fuelLevel":0.8,"lastAddress":"Rosenheimer Str. 119, 81667 München, Germany"}
{"timestamp":"2016-10-10T20:00:00+0200","id":124013,"name":"Poldi","coordinate":{"longitude":11.59430027,"latitude":48.12779999},"fuelLevel":0.79,"lastAddress":"Balanstraße 4, 81669 München, Germany"}
{"timestamp":"2016-10-10T20:00:00+0200","id":124011,"name":"Maxl","coordinate":{"longitude":11.5948,"latitude":48.12760162},"fuelLevel":0.6699999999999999,"lastAddress":"Metzstraße, 81669 München, Germany"}
{"timestamp":"2016-10-10T20:00:00+0200","id":124003,"name":"Franzl","coordinate":{"longitude":11.59319973,"latitude":48.12739944},"fuelLevel":0.8,"lastAddress":"Franziskanerstraße 15, 81669 München, Germany"}
{"timestamp":"2016-10-10T20:00:00+0200","id":124010,"name":"Luitpold","coordinate":{"longitude":11.58419991,"latitude":48.12749863},"fuelLevel":0.9500000000000001,"lastAddress":"Lilienstraße 68, 81669 München, Germany"}
{"timestamp":"2016-10-10T20:00:00+0200","id":124019,"name":"Valentin","coordinate":{"longitude":11.58530045,"latitude":48.12329865},"fuelLevel":0.87,"lastAddress":"Hochstraße 51, 81541 München, Germany"}
{"timestamp":"2016-10-10T20:00:00+0200","id":124035,"name":"Leonie","coordinate":{"longitude":11.58570004,"latitude":48.1291008},"fuelLevel":0.76,"lastAddress":"Schwarzstraße 4, 81669 München, Germany"}
{"timestamp":"2016-10-10T20:00:00+0200","id":124006,"name":"Gustl","coordinate":{"longitude":11.57460022,"latitude":48.12039948},"fuelLevel":0.9500000000000001,"lastAddress":"Oefelestraße 8, 81543 München, Germany"}
{"timestamp":"2016-10-10T20:00:00+0200","id":124020,"name":"Vinzenz","coordinate":{"longitude":11.57830048,"latitude":48.1228981},"fuelLevel":0.8999999999999999,"lastAddress":"Entenbachstraße 27, 81541 München, Germany"}
{"timestamp":"2016-10-10T20:00:00+0200","id":124049,"name":"Marei","coordinate":{"longitude":11.57180023,"latitude":48.12099838},"fuelLevel":0.52,"lastAddress":"Humboldtstraße 1, 81543 München, Germany"}
{"timestamp":"2016-10-10T20:00:00+0200","id":124045,"name":"Vroni","coordinate":{"longitude":11.56499958,"latitude":48.12390137},"fuelLevel":0.6499999999999999,"lastAddress":"Kapuzinerstraße 46, 80469 München, Germany"}
{"timestamp":"2016-10-10T20:00:00+0200","id":124043,"name":"Traudl","coordinate":{"longitude":11.50269985,"latitude":48.10129929},"fuelLevel":0.71,"lastAddress":"Boschetsrieder Str., 81475 München, Germany"}
{"timestamp":"2016-10-10T20:00:00+0200","id":124018,"name":"Toni","coordinate":{"longitude":11.5692997,"latitude":48.12950134},"fuelLevel":0.66,"lastAddress":"Holzstraße 27A, 80469 München, Germany"}
{"timestamp":"2016-10-10T20:00:00+0200","id":124012,"name":"Peter","coordinate":{"longitude":11.55729961,"latitude":48.15620041},"fuelLevel":0.9600000000000001,"lastAddress":"Lothstraße 21, 80797 München, Germany"}
{"timestamp":"2016-10-10T20:00:00+0200","id":124004,"name":"Fridl","coordinate":{"longitude":11.55669975,"latitude":48.1548996},"fuelLevel":0.9600000000000001,"lastAddress":"Heßstraße 108, 80797 München, Germany"}
{"timestamp":"2016-10-10T20:00:00+0200","id":124031,"name":"Heidi","coordinate":{"longitude":11.56659985,"latitude":48.15179825},"fuelLevel":0.6499999999999999,"lastAddress":"Heßstraße 42, 80798 München, Germany"}
{"timestamp":"2016-10-10T20:00:00+0200","id":124047,"name":"Walli","coordinate":{"longitude":11.56989956,"latitude":48.1493988},"fuelLevel":0.71,"lastAddress":"Theresienstraße 90, 80333 München, Germany"}
{"timestamp":"2016-10-10T20:00:00+0200","id":124002,"name":"Ferdl","coordinate":{"longitude":11.56770039,"latitude":48.15100098},"fuelLevel":0.9861111111111112,"lastAddress":"Luisenstraße 67, 80798 München, Germany"}
{"timestamp":"2016-10-10T20:00:00+0200","id":124048,"name":"Wiggerl","coordinate":{"longitude":11.57909966,"latitude":48.16120148},"fuelLevel":0.68,"lastAddress":"Kaiserstraße 36, 80801 München, Germany"}
{"timestamp":"2016-10-10T20:00:00+0200","id":124028,"name":"Gitte","coordinate":{"longitude":11.57730007,"latitude":48.16049957},"fuelLevel":0.75,"lastAddress":"Römerstraße 21, 80801 München, Germany"}
{"timestamp":"2016-10-10T20:00:00+0200","id":124027,"name":"Fanni","coordinate":{"longitude":11.57789993,"latitude":48.15890121},"fuelLevel":0.7899999999999999,"lastAddress":"Ainmillerstraße 31-33, 80801 München, Germany"}
{"timestamp":"2016-10-10T20:00:00+0200","id":124005,"name":"Georg","coordinate":{"longitude":11.57540035,"latitude":48.16030121},"fuelLevel":0.56,"lastAddress":"Hohenzollernstraße 82, 80801 München, Germany"}
{"timestamp":"2016-10-10T20:00:00+0200","id":124001,"name":"Edmund","coordinate":{"longitude":11.57919979,"latitude":48.15769958},"fuelLevel":0.5700000000000001,"lastAddress":"Franz-Joseph-Straße 27, 80801 München, Germany"}
{"timestamp":"2016-10-10T20:00:00+0200","id":124032,"name":"Irmi","coordinate":{"longitude":11.57310009,"latitude":48.16040039},"fuelLevel":0.64,"lastAddress":"Isabellastraße 49, 80796 München, Germany"}
{"timestamp":"2016-10-10T20:00:00+0200","id":124037,"name":"Luise","coordinate":{"longitude":11.57009983,"latitude":48.15750122},"fuelLevel":0.52,"lastAddress":"Agnesstraße 16, 80798 München, Germany"}
{"timestamp":"2016-10-10T20:00:00+0200","id":124017,"name":"Siggi","coordinate":{"longitude":11.57089996,"latitude":48.16059875},"fuelLevel":0.56,"lastAddress":"Hohenzollernstraße 81, 80796 München, Germany"}
{"timestamp":"2016-10-10T20:00:00+0200","id":124029,"name":"Hannah","coordinate":{"longitude":11.51029968,"latitude":48.04539871},"fuelLevel":0.7,"lastAddress":"Gistlstraße 159, 82049 Pullach im Isartal, Germany"}
{"timestamp":"2016-10-10T20:00:00+0200","id":124008,"name":"Johann","coordinate":{"longitude":11.50979996,"latitude":48.04550171},"fuelLevel":0.87,"lastAddress":"Gistlstraße 159, 82049 Pullach im Isartal, Germany"}
{"timestamp":"2016-10-10T20:00:00+0200","id":124039,"name":"Marie","coordinate":{"longitude":11.50959969,"latitude":48.04550171},"fuelLevel":0.58,"lastAddress":"Seitnerstraße 70, 82049 Pullach im Isartal, Germany"}
{"timestamp":"2016-10-10T20:00:00+0200","id":124009,"name":"Ludwig","coordinate":{"longitude":11.58500004,"latitude":48.16210175},"fuelLevel":0.8999999999999999,"lastAddress":"Herzogstraße 2, 80803 München, Germany"}
{"timestamp":"2016-10-10T20:00:00+0200","id":124007,"name":"Jakob","coordinate":{"longitude":11.57429981,"latitude":48.16719818},"fuelLevel":0.68,"lastAddress":"Karl-Theodor-Straße 84, 80803 München, Germany"}