{"timestamp":"2016-10-15T11:05:00+0200","id":124041,"name":"Sophie","coordinate":{"longitude":11.57820034,"latitude":48.15029907},"fuelLevel":0.87,"lastAddress":"Amalienstraße 67, 80799 München, Germany"}
{"timestamp":"2016-10-15T11:05:00+0200","id":124026,"name":"Eva","coordinate":{"longitude":11.57820034,"latitude":48.15370178},"fuelLevel":0.61,"lastAddress":"Türkenstraße 95, 80799 München, Germany"}
{"timestamp":"2016-10-15T11:05:00+0200","id":124025,"name":"Elli","coordinate":{"longitude":11.57660007,"latitude":48.1576004},"fuelLevel":0.87,"lastAddress":"Franz-Joseph-Straße 41, 80801 München, Germany"}
{"timestamp":"2016-10-15T11:05:00+0200","id":124033,"name":"Johanna","coordinate":{"longitude":11.57769966,"latitude":48.15100098},"fuelLevel":0.73,"lastAddress":"Türkenstraße 70, 80799 München, Germany"}
{"timestamp":"2016-10-15T11:05:00+0200","id":124044,"name":"Uschi","coordinate":{"longitude":11.57250023,"latitude":48.13190079},"fuelLevel":0.9199999999999999,"lastAddress":"Müllerstraße 20, 80469 München, Germany"}
{"timestamp":"2016-10-15T11:05:00+0200","id":124040,"name":"Reserl","coordinate":{"longitude":11.57269955,"latitude":48.13190079},"fuelLevel":0.79,"lastAddress":"Müllerstraße 7, 80469 München, Germany"}
{"timestamp":"2016-10-15T11:05:00+0200","id":124021,"name":"Xaver","coordinate":{"longitude":11.58049965,"latitude":48.12990189},"fuelLevel":0.9199999999999999,"lastAddress":"Erhardtstraße 27, 80469 München, Germany"}
{"timestamp":"2016-10-15T11:05:00+0200","id":124014,"name":"Quirin","coordinate":{"longitude":11.59739971,"latitude":48.13439941},"fuelLevel":0.57,"lastAddress":"Innere Wiener Straße 54, 81667 München, Germany"}
{"timestamp":"2016-10-15T11:05:00+0200","id":124034,"name":"Kathi","coordinate":{"longitude":11.60890007,"latitude":48.13299942},"fuelLevel":0.57,"lastAddress":"Kirchenstraße 89, 81675 München, Germany"}
{"timestamp":"2016-10-15T11:05:00+0200","id":124016,"name":"Sepp","coordinate":{"longitude":11.59790039,"latitude":48.12590027},"fuelLevel":0.88,"lastAddress":"Rosenheimer Str. 98, 81669 München, Germany"}
{"timestamp":"2016-10-15T11:05:00+0200","id":124038,"name":"Magda","coordinate":{"longitude":11.60029984,"latitude":48.12820053},"fuelLevel":0.67,"lastAddress":"Pariser Pl., 81667 München, Germany"}
{"timestamp":"2016-10-15T11:05:00+0200","id":124022,"name":"Anne","coordinate":{"longitude":11.59980011,"latitude":48.12599945},"fuelLevel":0.7999999999999999,"lastAddress":"Lothringer Str. 34, 81667 München, Germany"}
{"timestamp":"2016-10-15T11:05:00+0200","id":124013,"name":"Poldi","coordinate":{"longitude":11.59469986,"latitude":48.12850189},"fuelLevel":0.61,"lastAddress":"Weißenburger Str. 4, 81667 München, Germany"}
{"timestamp":"2016-10-15T11:05:00+0200","id":124011,"name":"Maxl","coordinate":{"longitude":11.59469986,"latitude":48.12810135},"fuelLevel":0.6699999999999999,"lastAddress":"Rosenheimer Str. 62, 81667 München, Germany"}
{"timestamp":"2016-10-15T11:05:00+0200","id":124003,"name":"Franzl","coordinate":{"longitude":11.59300041,"latitude":48.1271019},"fuelLevel":0.8,"lastAddress":"Franziskanerstraße 17, 81669 München, Germany"}
{"timestamp":"2016-10-15T11:05:00+0200","id":124010,"name":"Luitpold","coordinate":{"longitude":11.58460045,"latitude":48.12749863},"fuelLevel":0.9400000000000001,"lastAddress":"Lilienstraße 75, 81669 München, Germany"}
{"timestamp":"2016-10-15T11:05:00+0200","id":124006,"name":"Gustl","coordinate":{"longitude":11.57460022,"latitude":48.12039948},"fuelLevel":0.9400000000000001,"lastAddress":"Oefelestraße 8, 81543 München, Germany"}
{"timestamp":"2016-10-15T11:05:00+0200","id":124020,"name":"Vinzenz","coordinate":{"longitude":11.5781002,"latitude":48.12239838},"fuelLevel":0.81,"lastAddress":"Entenbachstraße 35, 81541 München, Germany"}
{"timestamp":"2016-10-15T11:05:00+0200","id":124049,"name":"Marei","coordinate":{"longitude":11.57409954,"latitude":48.12229919},"fuelLevel":0.9400000000000001,"lastAddress":"Sommerstraße 8, 81543 München, Germany"}
{"timestamp":"2016-10-15T11:05:00+0200","id":124045,"name":"Vroni","coordinate":{"longitude":11.56589985,"latitude":48.12379837},"fuelLevel":0.64,"lastAddress":"Kapuzinerstraße 41, 80469 München, Germany"}
{"timestamp":"2016-10-15T11:05:00+0200","id":124012,"name":"Peter","coordinate":{"longitude":11.56110001,"latitude":48.15480042},"fuelLevel":0.9600000000000001,"lastAddress":"Schleißheimer Str. 51, 80797 München, Germany"}
{"timestamp":"2016-10-15T11:05:00+0200","id":124031,"name":"Heidi","coordinate":{"longitude":11.56639957,"latitude":48.15159988},"fuelLevel":0.63,"lastAddress":"Heßstraße 23, 80798 München, Germany"}
{"timestamp":"2016-10-15T11:05:00+0200","id":124047,"name":"Walli","coordinate":{"longitude":11.57019997,"latitude":48.1495018},"fuelLevel":0.71,"lastAddress":"Theresienstraße, 80333 München, Germany"}
{"timestamp":"2016-10-15T11:05:00+0200","id":124048,"name":"Wiggerl","coordinate":{"longitude":11.58080006,"latitude":48.16279984},"fuelLevel":0.67,"lastAddress":"Herzogstraße 36, 80803 München, Germany"}
{"timestamp":"2016-10-15T11:05:00+0200","id":124028,"name":"Gitte","coordinate":{"longitude":11.5763998,"latitude":48.16159821},"fuelLevel":0.7200000000000001,"lastAddress":"Kaiserstraße 52, 80801 München, Germany"}
{"timestamp":"2016-10-15T11:05:00+0200","id":124027,"name":"Fanni","coordinate":{"longitude":11.58460045,"latitude":48.16080093},"fuelLevel":0.7899999999999999,"lastAddress":"Kaiserstraße 12, 80801 München, Germany"}
{"timestamp":"2016-10-15T11:05:00+0200","id":124005,"name":"Georg","coordinate":{"longitude":11.57540035,"latitude":48.16180038},"fuelLevel":0.56,"lastAddress":"Viktor-Scheffel-Straße 21, 80803 München, Germany"}
{"timestamp":"2016-10-15T11:05:00+0200","id":124032,"name":"Irmi","coordinate":{"longitude":11.57320023,"latitude":48.16040039},"fuelLevel":0.64,"lastAddress":"Isabellastraße 49, 80796 München, Germany"}
{"timestamp":"2016-10-15T11:05:00+0200","id":124037,"name":"Luise","coordinate":{"longitude":11.57019997,"latitude":48.1576004},"fuelLevel":0.52,"lastAddress":"Agnesstraße 14, 80798 München, Germany"}
{"timestamp":"2016-10-15T11:05:00+0200","id":124017,"name":"Siggi","coordinate":{"longitude":11.57260036,"latitude":48.16059875},"fuelLevel":0.56,"lastAddress":"Hohenzollernstraße 102, 80796 München, Germany"}
{"timestamp":"2016-10-15T11:05:00+0200","id":124039,"name":"Marie","coordinate":{"longitude":11.50469971,"latitude":48.03710175},"fuelLevel":0.9099999999999999,"lastAddress":"Zugspitzstraße 15, 82049 Pullach im Isartal, Germany"}
{"timestamp":"2016-10-15T11:05:00+0200","id":124009,"name":"Ludwig","coordinate":{"longitude":11.58399963,"latitude":48.16210175},"fuelLevel":0.69,"lastAddress":"Herzogstraße 11, 80803 München, Germany"}