{"timestamp":"2016-10-16T05:00:00+0200","id":124041,"name":"Sophie","coordinate":{"longitude":11.57830048,"latitude":48.15359879},"fuelLevel":0.8300000000000001,"lastAddress":"Türkenstraße 95, 80799 München, Germany"}
{"timestamp":"2016-10-16T05:00:00+0200","id":124026,"name":"Eva","coordinate":{"longitude":11.57890034,"latitude":48.15209961},"fuelLevel":0.9400000000000001,"lastAddress":"Adalbertstraße 9, 80799 München, Germany"}
{"timestamp":"2016-10-16T05:00:00+0200","id":124025,"name":"Elli","coordinate":{"longitude":11.57929993,"latitude":48.15599823},"fuelLevel":0.8300000000000001,"lastAddress":"Friedrichstraße 9, 80801 München, Germany"}
{"timestamp":"2016-10-16T05:00:00+0200","id":124033,"name":"Johanna","coordinate":{"longitude":11.57689953,"latitude":48.15010071},"fuelLevel":0.73,"lastAddress":"Schellingstraße 24, 80799 München, Germany"}
{"timestamp":"2016-10-16T05:00:00+0200","id":124040,"name":"Reserl","coordinate":{"longitude":11.57190037,"latitude":48.13230133},"fuelLevel":0.79,"lastAddress":"Blumenstraße 21, 80331 München, Germany"}
{"timestamp":"2016-10-16T05:00:00+0200","id":124021,"name":"Xaver","coordinate":{"longitude":11.58040047,"latitude":48.13019943},"fuelLevel":0.9199999999999999,"lastAddress":"Erhardtstraße 27, 80469 München, Germany"}
{"timestamp":"2016-10-16T05:00:00+0200","id":124014,"name":"Quirin","coordinate":{"longitude":11.59689999,"latitude":48.13479996},"fuelLevel":0.57,"lastAddress":"An der Kreppe 5, 81667 München, Germany"}
{"timestamp":"2016-10-16T05:00:00+0200","id":124034,"name":"Kathi","coordinate":{"longitude":11.60879993,"latitude":48.13290024},"fuelLevel":0.57,"lastAddress":"Kirchenstraße 87, 81675 München, Germany"}
{"timestamp":"2016-10-16T05:00:00+0200","id":124016,"name":"Sepp","coordinate":{"longitude":11.59819984,"latitude":48.12609863},"fuelLevel":0.88,"lastAddress":"Rosenheimer Str. 123, 81667 München, Germany"}
{"timestamp":"2016-10-16T05:00:00+0200","id":124038,"name":"Magda","coordinate":{"longitude":11.60039997,"latitude":48.12829971},"fuelLevel":0.67,"lastAddress":"Weißenburger Str. 36, 81667 München, Germany"}
{"timestamp":"2016-10-16T05:00:00+0200","id":124022,"name":"Anne","coordinate":{"longitude":11.60000038,"latitude":48.12599945},"fuelLevel":0.7999999999999999,"lastAddress":"Lothringer Str., 81667 München, Germany"}
{"timestamp":"2016-10-16T05:00:00+0200","id":124013,"name":"Poldi","coordinate":{"longitude":11.5948,"latitude":48.12760162},"fuelLevel":0.61,"lastAddress":"Metzstraße, 81669 München, Germany"}
{"timestamp":"2016-10-16T05:00:00+0200","id":124011,"name":"Maxl","coordinate":{"longitude":11.59469986,"latitude":48.12770081},"fuelLevel":0.6699999999999999,"lastAddress":"Metzstraße 1, 81667 München, Germany"}
{"timestamp":"2016-10-16T05:00:00+0200","id":124003,"name":"Franzl","coordinate":{"longitude":11.59290028,"latitude":48.12730026},"fuelLevel":0.8,"lastAddress":"Rablstraße 37, 81669 München, Germany"}
{"timestamp":"2016-10-16T05:00:00+0200","id":124010,"name":"Luitpold","coordinate":{"longitude":11.58450031,"latitude":48.12770081},"fuelLevel":0.9400000000000001,"lastAddress":"Lilienstraße 66, 81669 München, Germany"}
{"timestamp":"2016-10-16T05:00:00+0200","id":124020,"name":"Vinzenz","coordinate":{"longitude":11.5781002,"latitude":48.1228981},"fuelLevel":0.81,"lastAddress":"Entenbachstraße 26, 81541 München, Germany"}
{"timestamp":"2016-10-16T05:00:00+0200","id":124049,"name":"Marei","coordinate":{"longitude":11.57429981,"latitude":48.12220001},"fuelLevel":0.9400000000000001,"lastAddress":"Sommerstraße 9, 81543 München, Germany"}
{"timestamp":"2016-10-16T05:00:00+0200","id":124045,"name":"Vroni","coordinate":{"longitude":11.56480026,"latitude":48.12400055},"fuelLevel":0.64,"lastAddress":"Kapuzinerstraße 44, 80469 München, Germany"}
{"timestamp":"2016-10-16T05:00:00+0200","id":124018,"name":"Toni","coordinate":{"longitude":11.56970024,"latitude":48.13029861},"fuelLevel":0.6499999999999999,"lastAddress":"Hans-Sachs-Straße 6, 80469 München, Germany"}
{"timestamp":"2016-10-16T05:00:00+0200","id":124012,"name":"Peter","coordinate":{"longitude":11.56130028,"latitude":48.15480042},"fuelLevel":0.9600000000000001,"lastAddress":"Schleißheimer Str. 51, 80797 München, Germany"}
{"timestamp":"2016-10-16T05:00:00+0200","id":124004,"name":"Fridl","coordinate":{"longitude":11.5557003,"latitude":48.15520096},"fuelLevel":0.58,"lastAddress":"Lothstraße 64, 80335 München, Germany"}
{"timestamp":"2016-10-16T05:00:00+0200","id":124031,"name":"Heidi","coordinate":{"longitude":11.56649971,"latitude":48.15159988},"fuelLevel":0.63,"lastAddress":"Heßstraße 23, 80798 München, Germany"}
{"timestamp":"2016-10-16T05:00:00+0200","id":124047,"name":"Walli","coordinate":{"longitude":11.57019997,"latitude":48.14970016},"fuelLevel":0.71,"lastAddress":"Theresienstraße 90, 80333 München, Germany"}
{"timestamp":"2016-10-16T05:00:00+0200","id":124048,"name":"Wiggerl","coordinate":{"longitude":11.58069992,"latitude":48.16270065},"fuelLevel":0.67,"lastAddress":"Herzogstraße 36-38, 80803 München, Germany"}
{"timestamp":"2016-10-16T05:00:00+0200","id":124028,"name":"Gitte","coordinate":{"longitude":11.57559967,"latitude":48.16049957},"fuelLevel":0.7200000000000001,"lastAddress":"Hohenzollernstraße 82, 80801 München, Germany"}
{"timestamp":"2016-10-16T05:00:00+0200","id":124027,"name":"Fanni","coordinate":{"longitude":11.58450031,"latitude":48.16059875},"fuelLevel":0.7899999999999999,"lastAddress":"Kaiserstraße 9, 80801 München, Germany"}
{"timestamp":"2016-10-16T05:00:00+0200","id":124005,"name":"Georg","coordinate":{"longitude":11.57530022,"latitude":48.16210175},"fuelLevel":0.56,"lastAddress":"Viktor-Scheffel-Straße 20, 80803 München, Germany"}
{"timestamp":"2016-10-16T05:00:00+0200","id":124032,"name":"Irmi","coordinate":{"longitude":11.57279968,"latitude":48.16040039},"fuelLevel":0.64,"lastAddress":"Hohenzollernstraße 65, 80796 München, Germany"}
{"timestamp":"2016-10-16T05:00:00+0200","id":124037,"name":"Luise","coordinate":{"longitude":11.5703001,"latitude":48.15719986},"fuelLevel":0.52,"lastAddress":"Agnesstraße 13, 80798 München, Germany"}
{"timestamp":"2016-10-16T05:00:00+0200","id":124017,"name":"Siggi","coordinate":{"longitude":11.57260036,"latitude":48.16030121},"fuelLevel":0.56,"lastAddress":"Hohenzollernstraße 67, 80796 München, Germany"}
{"timestamp":"2016-10-16T05:00:00+0200","id":124029,"name":"Hannah","coordinate":{"longitude":11.51019955,"latitude":48.04550171},"fuelLevel":0.68,"lastAddress":"Gistlstraße 159, 82049 Pullach im Isartal, Germany"}
{"timestamp":"2016-10-16T05:00:00+0200","id":124039,"name":"Marie","coordinate":{"longitude":11.50469971,"latitude":48.03710175},"fuelLevel":0.9099999999999999,"lastAddress":"Zugspitzstraße 15, 82049 Pullach im Isartal, Germany"}
{"timestamp":"2016-10-16T05:00:00+0200","id":124009,"name":"Ludwig","coordinate":{"longitude":11.58349991,"latitude":48.16249847},"fuelLevel":0.6499999999999999,"lastAddress":"Herzogstraße 16, 80803 München, Germany"}