{"timestamp":"2016-10-01T20:20:00+0200","id":124041,"name":"Sophie","coordinate":{"longitude":11.57759953,"latitude":48.15000153},"fuelLevel":0.93,"lastAddress":"Schellingstraße 18, 80799 München, Germany"}
{"timestamp":"2016-10-01T20:20:00+0200","id":124026,"name":"Eva","coordinate":{"longitude":11.57849979,"latitude":48.15370178},"fuelLevel":0.61,"lastAddress":"Türkenstraße 104, 80799 München, Germany"}
{"timestamp":"2016-10-01T20:20:00+0200","id":124033,"name":"Johanna","coordinate":{"longitude":11.58119965,"latitude":48.15280151},"fuelLevel":0.88,"lastAddress":"Akademiestraße 5, 80799 München, Germany"}
{"timestamp":"2016-10-01T20:20:00+0200","id":124036,"name":"Liesel","coordinate":{"longitude":11.57499981,"latitude":48.15620041},"fuelLevel":0.6699999999999999,"lastAddress":"Nordendstraße 29, 80801 München, Germany"}
{"timestamp":"2016-10-01T20:20:00+0200","id":124024,"name":"Christl","coordinate":{"longitude":11.5795002,"latitude":48.13359833},"fuelLevel":0.8,"lastAddress":"Klenzestraße 1, 80469 München, Germany"}
{"timestamp":"2016-10-01T20:20:00+0200","id":124040,"name":"Reserl","coordinate":{"longitude":11.57649994,"latitude":48.13180161},"fuelLevel":0.38,"lastAddress":"Klenzestraße 33, 80469 München, Germany"}
{"timestamp":"2016-10-01T20:20:00+0200","id":124021,"name":"Xaver","coordinate":{"longitude":11.58049965,"latitude":48.13199997},"fuelLevel":0.52,"lastAddress":"Kohlstraße 3, 80469 München, Germany"}
{"timestamp":"2016-10-01T20:20:00+0200","id":124014,"name":"Quirin","coordinate":{"longitude":11.6072998,"latitude":48.13079834},"fuelLevel":0.9099999999999999,"lastAddress":"Spicherenstraße 14, 81667 München, Germany"}
{"timestamp":"2016-10-01T20:20:00+0200","id":124034,"name":"Kathi","coordinate":{"longitude":11.60499954,"latitude":48.13219833},"fuelLevel":0.67,"lastAddress":"Elsässer Str. 16, 81667 München, Germany"}
{"timestamp":"2016-10-01T20:20:00+0200","id":124023,"name":"Babsi","coordinate":{"longitude":11.56369972,"latitude":48.1271019},"fuelLevel":0.93,"lastAddress":"Thalkirchner Str. 54, 80337 München, Germany"}
{"timestamp":"2016-10-01T20:20:00+0200","id":124016,"name":"Sepp","coordinate":{"longitude":11.59819984,"latitude":48.12530136},"fuelLevel":0.9199999999999999,"lastAddress":"Bazeillesstraße 5, 81669 München, Germany"}
{"timestamp":"2016-10-01T20:20:00+0200","id":124038,"name":"Magda","coordinate":{"longitude":11.60039997,"latitude":48.12889862},"fuelLevel":0.67,"lastAddress":"Pariser Str. 33, 81667 München, Germany"}
{"timestamp":"2016-10-01T20:20:00+0200","id":124022,"name":"Anne","coordinate":{"longitude":11.59669971,"latitude":48.12680054},"fuelLevel":0.8900000000000001,"lastAddress":"Rosenheimer Str. 88, 81669 München, Germany"}
{"timestamp":"2016-10-01T20:20:00+0200","id":124000,"name":"Bertl","coordinate":{"longitude":11.59679985,"latitude":48.1291008},"fuelLevel":0.82,"lastAddress":"Metzstraße 7, 81667 München, Germany"}
{"timestamp":"2016-10-01T20:20:00+0200","id":124013,"name":"Poldi","coordinate":{"longitude":11.59440041,"latitude":48.12770081},"fuelLevel":0.79,"lastAddress":"Balanstraße 6A, 81669 München, Germany"}
{"timestamp":"2016-10-01T20:20:00+0200","id":124011,"name":"Maxl","coordinate":{"longitude":11.5927,"latitude":48.12599945},"fuelLevel":0.8099999999999999,"lastAddress":"Sieboldstraße 2, 81669 München, Germany"}
{"timestamp":"2016-10-01T20:20:00+0200","id":124003,"name":"Franzl","coordinate":{"longitude":11.59300041,"latitude":48.12730026},"fuelLevel":0.79,"lastAddress":"Franziskanerstraße 8, 81669 München, Germany"}
{"timestamp":"2016-10-01T20:20:00+0200","id":124010,"name":"Luitpold","coordinate":{"longitude":11.58570004,"latitude":48.12549973},"fuelLevel":0.88,"lastAddress":"Gebsattelstraße 2, 81541 München, Germany"}
{"timestamp":"2016-10-01T20:20:00+0200","id":124019,"name":"Valentin","coordinate":{"longitude":11.58520031,"latitude":48.12379837},"fuelLevel":0.9199999999999999,"lastAddress":"Hochstraße 47A, 81541 München, Germany"}
{"timestamp":"2016-10-01T20:20:00+0200","id":124035,"name":"Leonie","coordinate":{"longitude":11.58570004,"latitude":48.12919998},"fuelLevel":0.7899999999999999,"lastAddress":"Schwarzstraße 2, 81669 München, Germany"}
{"timestamp":"2016-10-01T20:20:00+0200","id":124006,"name":"Gustl","coordinate":{"longitude":11.57730007,"latitude":48.12170029},"fuelLevel":0.9400000000000001,"lastAddress":"Entenbachstraße 45, 81541 München, Germany"}
{"timestamp":"2016-10-01T20:20:00+0200","id":124020,"name":"Vinzenz","coordinate":{"longitude":11.57890034,"latitude":48.12360001},"fuelLevel":0.9099999999999999,"lastAddress":"Entenbachstrasse 15, Entenbachstraße, 81541 München, Germany"}
{"timestamp":"2016-10-01T20:20:00+0200","id":124049,"name":"Marei","coordinate":{"longitude":11.57400036,"latitude":48.12030029},"fuelLevel":0.7200000000000001,"lastAddress":"Oefelestraße 12, 81543 München, Germany"}
{"timestamp":"2016-10-01T20:20:00+0200","id":124045,"name":"Vroni","coordinate":{"longitude":11.56739998,"latitude":48.12779999},"fuelLevel":0.9199999999999999,"lastAddress":"Holzstraße 34, 80469 München, Germany"}
{"timestamp":"2016-10-01T20:20:00+0200","id":124018,"name":"Toni","coordinate":{"longitude":11.57269955,"latitude":48.12979889},"fuelLevel":0.9299999999999999,"lastAddress":"Klenzestraße 46A, 80469 München, Germany"}
{"timestamp":"2016-10-01T20:20:00+0200","id":124012,"name":"Peter","coordinate":{"longitude":11.57229996,"latitude":48.15000153},"fuelLevel":1,"lastAddress":"Heßstraße 2, 80799 München, Germany"}
{"timestamp":"2016-10-01T20:20:00+0200","id":124004,"name":"Fridl","coordinate":{"longitude":11.56579971,"latitude":48.15589905},"fuelLevel":0.55,"lastAddress":"Hiltenspergerstraße 7, 80798 München, Germany"}
{"timestamp":"2016-10-01T20:20:00+0200","id":124031,"name":"Heidi","coordinate":{"longitude":11.56669998,"latitude":48.15019989},"fuelLevel":0.8,"lastAddress":"Luisenstraße 55, 80333 München, Germany"}
{"timestamp":"2016-10-01T20:20:00+0200","id":124002,"name":"Ferdl","coordinate":{"longitude":11.56400013,"latitude":48.15110016},"fuelLevel":0.9500000000000001,"lastAddress":"Theresienstraße 63, 80333 München, Germany"}
{"timestamp":"2016-10-01T20:20:00+0200","id":124028,"name":"Gitte","coordinate":{"longitude":11.57979965,"latitude":48.16009903},"fuelLevel":0.77,"lastAddress":"Hohenzollernstraße 44, 80801 München, Germany"}
{"timestamp":"2016-10-01T20:20:00+0200","id":124027,"name":"Fanni","coordinate":{"longitude":11.5770998,"latitude":48.15969849},"fuelLevel":0.8099999999999999,"lastAddress":"Römerstraße 15, 80801 München, Germany"}
{"timestamp":"2016-10-01T20:20:00+0200","id":124005,"name":"Georg","coordinate":{"longitude":11.58119965,"latitude":48.15890121},"fuelLevel":0.69,"lastAddress":"Ainmillerstraße 20, 80801 München, Germany"}
{"timestamp":"2016-10-01T20:20:00+0200","id":124001,"name":"Edmund","coordinate":{"longitude":11.57820034,"latitude":48.15769958},"fuelLevel":0.62,"lastAddress":"Franz-Joseph-Straße 35, 80801 München, Germany"}
{"timestamp":"2016-10-01T20:20:00+0200","id":124032,"name":"Irmi","coordinate":{"longitude":11.57310009,"latitude":48.16049957},"fuelLevel":0.64,"lastAddress":"Hohenzollernstraße 65, 80796 München, Germany"}
{"timestamp":"2016-10-01T20:20:00+0200","id":124037,"name":"Luise","coordinate":{"longitude":11.56630039,"latitude":48.15790176},"fuelLevel":0.58,"lastAddress":"Agnesstraße 38, 80798 München, Germany"}
{"timestamp":"2016-10-01T20:20:00+0200","id":124017,"name":"Siggi","coordinate":{"longitude":11.57089996,"latitude":48.16080093},"fuelLevel":0.56,"lastAddress":"Hohenzollernstraße 79-81, 80796 München, Germany"}
{"timestamp":"2016-10-01T20:20:00+0200","id":124029,"name":"Hannah","coordinate":{"longitude":11.51049995,"latitude":48.04539871},"fuelLevel":0.71,"lastAddress":"Gistlstraße 159, 82049 Pullach im Isartal, Germany"}
{"timestamp":"2016-10-01T20:20:00+0200","id":124042,"name":"Tilli","coordinate":{"longitude":11.50969982,"latitude":48.04529953},"fuelLevel":0.77,"lastAddress":"Seitnerstraße 70, 82049 Pullach im Isartal, Germany"}
{"timestamp":"2016-10-01T20:20:00+0200","id":124008,"name":"Johann","coordinate":{"longitude":11.50959969,"latitude":48.04550171},"fuelLevel":0.87,"lastAddress":"Seitnerstraße 70, 82049 Pullach im Isartal, Germany"}
{"timestamp":"2016-10-01T20:20:00+0200","id":124009,"name":"Ludwig","coordinate":{"longitude":11.58479977,"latitude":48.16210175},"fuelLevel":0.8999999999999999,"lastAddress":"Herzogstraße 5-7, 80803 München, Germany"}
{"timestamp":"2016-10-01T20:20:00+0200","id":124007,"name":"Jakob","coordinate":{"longitude":11.58619976,"latitude":48.1637001},"fuelLevel":0.9500000000000001,"lastAddress":"Leopoldstraße 85, 80802 München, Germany"}