{"timestamp":"2016-10-15T03:55:00+0200","id":124041,"name":"Sophie","coordinate":{"longitude":11.57750034,"latitude":48.14979935},"fuelLevel":0.87,"lastAddress":"Schellingstraße 13, 80799 München, Germany"}
{"timestamp":"2016-10-15T03:55:00+0200","id":124026,"name":"Eva","coordinate":{"longitude":11.57909966,"latitude":48.15370178},"fuelLevel":0.61,"lastAddress":"Türkenstraße 104, 80799 München, Germany"}
{"timestamp":"2016-10-15T03:55:00+0200","id":124025,"name":"Elli","coordinate":{"longitude":11.5763998,"latitude":48.15790176},"fuelLevel":0.87,"lastAddress":"Franz-Joseph-Straße 42, 80801 München, Germany"}
{"timestamp":"2016-10-15T03:55:00+0200","id":124033,"name":"Johanna","coordinate":{"longitude":11.57660007,"latitude":48.14979935},"fuelLevel":0.73,"lastAddress":"Türkenstraße 60, 80799 München, Germany"}
{"timestamp":"2016-10-15T03:55:00+0200","id":124044,"name":"Uschi","coordinate":{"longitude":11.57269955,"latitude":48.13199997},"fuelLevel":0.9199999999999999,"lastAddress":"Müllerstraße 18, 80469 München, Germany"}
{"timestamp":"2016-10-15T03:55:00+0200","id":124040,"name":"Reserl","coordinate":{"longitude":11.57260036,"latitude":48.13199997},"fuelLevel":0.79,"lastAddress":"Müllerstraße 20, 80469 München, Germany"}
{"timestamp":"2016-10-15T03:55:00+0200","id":124021,"name":"Xaver","coordinate":{"longitude":11.58030033,"latitude":48.13010025},"fuelLevel":0.9199999999999999,"lastAddress":"Erhardtstraße 27, 80469 München, Germany"}
{"timestamp":"2016-10-15T03:55:00+0200","id":124014,"name":"Quirin","coordinate":{"longitude":11.59749985,"latitude":48.13489914},"fuelLevel":0.57,"lastAddress":"Innere Wiener Straße 61, 81667 München, Germany"}
{"timestamp":"2016-10-15T03:55:00+0200","id":124034,"name":"Kathi","coordinate":{"longitude":11.60499954,"latitude":48.13370132},"fuelLevel":0.73,"lastAddress":"Flurstraße 2-4, 81675 München, Germany"}
{"timestamp":"2016-10-15T03:55:00+0200","id":124016,"name":"Sepp","coordinate":{"longitude":11.59799957,"latitude":48.12639999},"fuelLevel":0.88,"lastAddress":"Rosenheimer Str. 117, 81667 München, Germany"}
{"timestamp":"2016-10-15T03:55:00+0200","id":124038,"name":"Magda","coordinate":{"longitude":11.59939957,"latitude":48.12820053},"fuelLevel":0.67,"lastAddress":"Pariser Str. 29A, 81667 München, Germany"}
{"timestamp":"2016-10-15T03:55:00+0200","id":124022,"name":"Anne","coordinate":{"longitude":11.60009956,"latitude":48.12590027},"fuelLevel":0.7999999999999999,"lastAddress":"Lothringer Str., 81667 München, Germany"}
{"timestamp":"2016-10-15T03:55:00+0200","id":124013,"name":"Poldi","coordinate":{"longitude":11.59420013,"latitude":48.12770081},"fuelLevel":0.61,"lastAddress":"Balanstraße 6A, 81669 München, Germany"}
{"timestamp":"2016-10-15T03:55:00+0200","id":124011,"name":"Maxl","coordinate":{"longitude":11.59500027,"latitude":48.12770081},"fuelLevel":0.6699999999999999,"lastAddress":"Rosenheimer Str. 66, 81669 München, Germany"}
{"timestamp":"2016-10-15T03:55:00+0200","id":124003,"name":"Franzl","coordinate":{"longitude":11.59290028,"latitude":48.1269989},"fuelLevel":0.8,"lastAddress":"Franziskanerstraße 14, 81669 München, Germany"}
{"timestamp":"2016-10-15T03:55:00+0200","id":124010,"name":"Luitpold","coordinate":{"longitude":11.58440018,"latitude":48.12770081},"fuelLevel":0.9400000000000001,"lastAddress":"Lilienstraße 66, 81669 München, Germany"}
{"timestamp":"2016-10-15T03:55:00+0200","id":124006,"name":"Gustl","coordinate":{"longitude":11.57530022,"latitude":48.11920166},"fuelLevel":0.9400000000000001,"lastAddress":"Pilgersheimer Str. 9, 81543 München, Germany"}
{"timestamp":"2016-10-15T03:55:00+0200","id":124020,"name":"Vinzenz","coordinate":{"longitude":11.57789993,"latitude":48.1228981},"fuelLevel":0.81,"lastAddress":"Entenbachstraße 26, 81541 München, Germany"}
{"timestamp":"2016-10-15T03:55:00+0200","id":124049,"name":"Marei","coordinate":{"longitude":11.57409954,"latitude":48.12229919},"fuelLevel":0.9400000000000001,"lastAddress":"Sommerstraße 8, 81543 München, Germany"}
{"timestamp":"2016-10-15T03:55:00+0200","id":124045,"name":"Vroni","coordinate":{"longitude":11.56480026,"latitude":48.12419891},"fuelLevel":0.64,"lastAddress":"Kapuzinerstraße 37, 80469 München, Germany"}
{"timestamp":"2016-10-15T03:55:00+0200","id":124012,"name":"Peter","coordinate":{"longitude":11.56089973,"latitude":48.15499878},"fuelLevel":0.9600000000000001,"lastAddress":"Schleißheimer Str. 53A, 80797 München, Germany"}
{"timestamp":"2016-10-15T03:55:00+0200","id":124004,"name":"Fridl","coordinate":{"longitude":11.55900002,"latitude":48.15390015},"fuelLevel":0.66,"lastAddress":"Heßstraße 79, 80797 München, Germany"}
{"timestamp":"2016-10-15T03:55:00+0200","id":124031,"name":"Heidi","coordinate":{"longitude":11.56649971,"latitude":48.15169907},"fuelLevel":0.63,"lastAddress":"Heßstraße 23, 80798 München, Germany"}
{"timestamp":"2016-10-15T03:55:00+0200","id":124047,"name":"Walli","coordinate":{"longitude":11.57019997,"latitude":48.1493988},"fuelLevel":0.71,"lastAddress":"Theresienstraße, 80333 München, Germany"}
{"timestamp":"2016-10-15T03:55:00+0200","id":124048,"name":"Wiggerl","coordinate":{"longitude":11.58080006,"latitude":48.16279984},"fuelLevel":0.67,"lastAddress":"Herzogstraße 36, 80803 München, Germany"}
{"timestamp":"2016-10-15T03:55:00+0200","id":124028,"name":"Gitte","coordinate":{"longitude":11.57590008,"latitude":48.16059875},"fuelLevel":0.7200000000000001,"lastAddress":"Hohenzollernstraße 78, 80801 München, Germany"}
{"timestamp":"2016-10-15T03:55:00+0200","id":124027,"name":"Fanni","coordinate":{"longitude":11.58469963,"latitude":48.16070175},"fuelLevel":0.7899999999999999,"lastAddress":"Kaiserstraße 10, 80801 München, Germany"}
{"timestamp":"2016-10-15T03:55:00+0200","id":124005,"name":"Georg","coordinate":{"longitude":11.57530022,"latitude":48.16199875},"fuelLevel":0.56,"lastAddress":"Viktor-Scheffel-Straße 20, 80803 München, Germany"}
{"timestamp":"2016-10-15T03:55:00+0200","id":124032,"name":"Irmi","coordinate":{"longitude":11.57310009,"latitude":48.16019821},"fuelLevel":0.64,"lastAddress":"Isabellastraße 49, 80796 München, Germany"}
{"timestamp":"2016-10-15T03:55:00+0200","id":124037,"name":"Luise","coordinate":{"longitude":11.5703001,"latitude":48.15750122},"fuelLevel":0.52,"lastAddress":"Agnesstraße 14, 80798 München, Germany"}
{"timestamp":"2016-10-15T03:55:00+0200","id":124017,"name":"Siggi","coordinate":{"longitude":11.57289982,"latitude":48.1609993},"fuelLevel":0.56,"lastAddress":"Fallmerayerstraße 1A, 80796 München, Germany"}
{"timestamp":"2016-10-15T03:55:00+0200","id":124039,"name":"Marie","coordinate":{"longitude":11.50469971,"latitude":48.03710175},"fuelLevel":0.9099999999999999,"lastAddress":"Zugspitzstraße 15, 82049 Pullach im Isartal, Germany"}
{"timestamp":"2016-10-15T03:55:00+0200","id":124009,"name":"Ludwig","coordinate":{"longitude":11.58409977,"latitude":48.16239929},"fuelLevel":0.69,"lastAddress":"Herzogstraße 12, 80803 München, Germany"}