{"timestamp":"2016-10-13T05:55:00+0200","id":124041,"name":"Sophie","coordinate":{"longitude":11.57820034,"latitude":48.15000153},"fuelLevel":0.86,"lastAddress":"Amalienstraße 61, 80799 München, Germany"}
{"timestamp":"2016-10-13T05:55:00+0200","id":124026,"name":"Eva","coordinate":{"longitude":11.57839966,"latitude":48.15359879},"fuelLevel":0.61,"lastAddress":"Türkenstraße 95, 80799 München, Germany"}
{"timestamp":"2016-10-13T05:55:00+0200","id":124025,"name":"Elli","coordinate":{"longitude":11.57649994,"latitude":48.1576004},"fuelLevel":0.87,"lastAddress":"Franz-Joseph-Straße 43, 80801 München, Germany"}
{"timestamp":"2016-10-13T05:55:00+0200","id":124033,"name":"Johanna","coordinate":{"longitude":11.57689953,"latitude":48.15019989},"fuelLevel":0.73,"lastAddress":"Schellingstraße 24, 80799 München, Germany"}
{"timestamp":"2016-10-13T05:55:00+0200","id":124036,"name":"Liesel","coordinate":{"longitude":11.58100033,"latitude":48.15019989},"fuelLevel":0.45,"lastAddress":"Ludwigstraße 24, 80539 München, Germany"}
{"timestamp":"2016-10-13T05:55:00+0200","id":124044,"name":"Uschi","coordinate":{"longitude":11.57260036,"latitude":48.13169861},"fuelLevel":0.9199999999999999,"lastAddress":"Müllerstraße 9, 80469 München, Germany"}
{"timestamp":"2016-10-13T05:55:00+0200","id":124024,"name":"Christl","coordinate":{"longitude":11.57629967,"latitude":48.13230133},"fuelLevel":0.47000000000000003,"lastAddress":"Reichenbachstraße 19, 80469 München, Germany"}
{"timestamp":"2016-10-13T05:55:00+0200","id":124040,"name":"Reserl","coordinate":{"longitude":11.57199955,"latitude":48.13169861},"fuelLevel":0.83,"lastAddress":"Müllerstraße 24, 80469 München, Germany"}
{"timestamp":"2016-10-13T05:55:00+0200","id":124021,"name":"Xaver","coordinate":{"longitude":11.58049965,"latitude":48.13000107},"fuelLevel":0.9199999999999999,"lastAddress":"Erhardtstraße 27, 80469 München, Germany"}
{"timestamp":"2016-10-13T05:55:00+0200","id":124014,"name":"Quirin","coordinate":{"longitude":11.59770012,"latitude":48.13479996},"fuelLevel":0.57,"lastAddress":"Innere Wiener Straße 60, 81667 München, Germany"}
{"timestamp":"2016-10-13T05:55:00+0200","id":124034,"name":"Kathi","coordinate":{"longitude":11.60249996,"latitude":48.12939835},"fuelLevel":0.82,"lastAddress":"Wörthstraße 45, 81667 München, Germany"}
{"timestamp":"2016-10-13T05:55:00+0200","id":124023,"name":"Babsi","coordinate":{"longitude":11.56239986,"latitude":48.12620163},"fuelLevel":0.9,"lastAddress":"Thalkirchner Str. 76, 80337 München, Germany"}
{"timestamp":"2016-10-13T05:55:00+0200","id":124016,"name":"Sepp","coordinate":{"longitude":11.60280037,"latitude":48.12929916},"fuelLevel":0.9099999999999999,"lastAddress":"Wörthstraße 47, 81667 München, Germany"}
{"timestamp":"2016-10-13T05:55:00+0200","id":124038,"name":"Magda","coordinate":{"longitude":11.59990025,"latitude":48.12879944},"fuelLevel":0.67,"lastAddress":"Sedanstraße 34, 81667 München, Germany"}
{"timestamp":"2016-10-13T05:55:00+0200","id":124022,"name":"Anne","coordinate":{"longitude":11.59599972,"latitude":48.12760162},"fuelLevel":0.8300000000000001,"lastAddress":"Rosenheimer Str. 81, 81667 München, Germany"}
{"timestamp":"2016-10-13T05:55:00+0200","id":124000,"name":"Bertl","coordinate":{"longitude":11.59790039,"latitude":48.12609863},"fuelLevel":0.8,"lastAddress":"Rosenheimer Str. 96, 81669 München, Germany"}
{"timestamp":"2016-10-13T05:55:00+0200","id":124013,"name":"Poldi","coordinate":{"longitude":11.59440041,"latitude":48.12730026},"fuelLevel":0.79,"lastAddress":"Balanstraße 10, 81669 München, Germany"}
{"timestamp":"2016-10-13T05:55:00+0200","id":124011,"name":"Maxl","coordinate":{"longitude":11.59500027,"latitude":48.12760162},"fuelLevel":0.6699999999999999,"lastAddress":"Rosenheimer Str. 66, 81669 München, Germany"}
{"timestamp":"2016-10-13T05:55:00+0200","id":124003,"name":"Franzl","coordinate":{"longitude":11.59309959,"latitude":48.12770081},"fuelLevel":0.8,"lastAddress":"Franziskanerstraße 8, 81669 München, Germany"}
{"timestamp":"2016-10-13T05:55:00+0200","id":124010,"name":"Luitpold","coordinate":{"longitude":11.58430004,"latitude":48.12749863},"fuelLevel":0.9400000000000001,"lastAddress":"Lilienstraße 68, 81669 München, Germany"}
{"timestamp":"2016-10-13T05:55:00+0200","id":124006,"name":"Gustl","coordinate":{"longitude":11.57450008,"latitude":48.12030029},"fuelLevel":0.9500000000000001,"lastAddress":"Oefelestraße 10, 81543 München, Germany"}
{"timestamp":"2016-10-13T05:55:00+0200","id":124020,"name":"Vinzenz","coordinate":{"longitude":11.57750034,"latitude":48.12310028},"fuelLevel":0.8999999999999999,"lastAddress":"Schlotthauerstraße 14, 81541 München, Germany"}
{"timestamp":"2016-10-13T05:55:00+0200","id":124049,"name":"Marei","coordinate":{"longitude":11.57419968,"latitude":48.12239838},"fuelLevel":0.9400000000000001,"lastAddress":"Sommerstraße 8, 81543 München, Germany"}
{"timestamp":"2016-10-13T05:55:00+0200","id":124045,"name":"Vroni","coordinate":{"longitude":11.56480026,"latitude":48.12369919},"fuelLevel":0.64,"lastAddress":"Kapuzinerstraße 44, 80469 München, Germany"}
{"timestamp":"2016-10-13T05:55:00+0200","id":124018,"name":"Toni","coordinate":{"longitude":11.56999969,"latitude":48.12990189},"fuelLevel":0.66,"lastAddress":"Hans-Sachs-Straße 7, 80469 München, Germany"}
{"timestamp":"2016-10-13T05:55:00+0200","id":124004,"name":"Fridl","coordinate":{"longitude":11.5564003,"latitude":48.15480042},"fuelLevel":0.9600000000000001,"lastAddress":"Heßstraße 110, 80797 München, Germany"}
{"timestamp":"2016-10-13T05:55:00+0200","id":124031,"name":"Heidi","coordinate":{"longitude":11.56630039,"latitude":48.15159988},"fuelLevel":0.6499999999999999,"lastAddress":"Heßstraße 25, 80798 München, Germany"}
{"timestamp":"2016-10-13T05:55:00+0200","id":124047,"name":"Walli","coordinate":{"longitude":11.56989956,"latitude":48.15000153},"fuelLevel":0.71,"lastAddress":"Arcisstraße 32, 80799 München, Germany"}
{"timestamp":"2016-10-13T05:55:00+0200","id":124002,"name":"Ferdl","coordinate":{"longitude":11.56270027,"latitude":48.15499878},"fuelLevel":0.9444444444444444,"lastAddress":"Zentnerstraße 7, 80798 München, Germany"}
{"timestamp":"2016-10-13T05:55:00+0200","id":124048,"name":"Wiggerl","coordinate":{"longitude":11.58080006,"latitude":48.16289902},"fuelLevel":0.66,"lastAddress":"Herzogstraße 36, 80803 München, Germany"}
{"timestamp":"2016-10-13T05:55:00+0200","id":124028,"name":"Gitte","coordinate":{"longitude":11.57719994,"latitude":48.16009903},"fuelLevel":0.76,"lastAddress":"Hohenzollernstraße 41, 80801 München, Germany"}
{"timestamp":"2016-10-13T05:55:00+0200","id":124027,"name":"Fanni","coordinate":{"longitude":11.58430004,"latitude":48.16080093},"fuelLevel":0.7899999999999999,"lastAddress":"Kaiserstraße 14-16, 80801 München, Germany"}
{"timestamp":"2016-10-13T05:55:00+0200","id":124005,"name":"Georg","coordinate":{"longitude":11.57530022,"latitude":48.1617012},"fuelLevel":0.56,"lastAddress":"Viktor-Scheffel-Straße 21, 80803 München, Germany"}
{"timestamp":"2016-10-13T05:55:00+0200","id":124032,"name":"Irmi","coordinate":{"longitude":11.57339954,"latitude":48.16070175},"fuelLevel":0.64,"lastAddress":"Fallmerayerstraße 2, 80796 München, Germany"}
{"timestamp":"2016-10-13T05:55:00+0200","id":124037,"name":"Luise","coordinate":{"longitude":11.57009983,"latitude":48.15719986},"fuelLevel":0.52,"lastAddress":"Daimlerstraße 12, 80798 München, Germany"}
{"timestamp":"2016-10-13T05:55:00+0200","id":124017,"name":"Siggi","coordinate":{"longitude":11.57250023,"latitude":48.16040039},"fuelLevel":0.56,"lastAddress":"Hohenzollernstraße 67, 80796 München, Germany"}
{"timestamp":"2016-10-13T05:55:00+0200","id":124029,"name":"Hannah","coordinate":{"longitude":11.50990009,"latitude":48.04510117},"fuelLevel":0.7,"lastAddress":"Seitnerstraße 70, 82049 Pullach im Isartal, Germany"}
{"timestamp":"2016-10-13T05:55:00+0200","id":124009,"name":"Ludwig","coordinate":{"longitude":11.58409977,"latitude":48.16239929},"fuelLevel":0.71,"lastAddress":"Herzogstraße 12, 80803 München, Germany"}
{"timestamp":"2016-10-13T05:55:00+0200","id":124007,"name":"Jakob","coordinate":{"longitude":11.5770998,"latitude":48.16680145},"fuelLevel":0.9400000000000001,"lastAddress":"Karl-Theodor-Straße 63, 80803 München, Germany"}