{"timestamp":"2016-09-30T07:50:00+0200","id":124041,"name":"Sophie","coordinate":{"longitude":11.57789993,"latitude":48.15050125},"fuelLevel":0.93,"lastAddress":"Amalienstraße 67, 80799 München, Germany"}
{"timestamp":"2016-09-30T07:50:00+0200","id":124026,"name":"Eva","coordinate":{"longitude":11.57820034,"latitude":48.15390015},"fuelLevel":0.61,"lastAddress":"Türkenstraße 97, 80799 München, Germany"}
{"timestamp":"2016-09-30T07:50:00+0200","id":124025,"name":"Elli","coordinate":{"longitude":11.5763998,"latitude":48.15530014},"fuelLevel":0.77,"lastAddress":"Georgenstraße 46, 80799 München, Germany"}
{"timestamp":"2016-09-30T07:50:00+0200","id":124033,"name":"Johanna","coordinate":{"longitude":11.58119965,"latitude":48.15250015},"fuelLevel":0.88,"lastAddress":"Akademiestraße 5, 80799 München, Germany"}
{"timestamp":"2016-09-30T07:50:00+0200","id":124036,"name":"Liesel","coordinate":{"longitude":11.57540035,"latitude":48.15639877},"fuelLevel":0.6699999999999999,"lastAddress":"Nordendstraße 38, 80801 München, Germany"}
{"timestamp":"2016-09-30T07:50:00+0200","id":124024,"name":"Christl","coordinate":{"longitude":11.57909966,"latitude":48.13349915},"fuelLevel":0.8,"lastAddress":"Klenzestraße 5, 80469 München, Germany"}
{"timestamp":"2016-09-30T07:50:00+0200","id":124040,"name":"Reserl","coordinate":{"longitude":11.57870007,"latitude":48.13100052},"fuelLevel":0.79,"lastAddress":"Baaderstraße 42, 80469 München, Germany"}
{"timestamp":"2016-09-30T07:50:00+0200","id":124021,"name":"Xaver","coordinate":{"longitude":11.58090019,"latitude":48.13190079},"fuelLevel":0.52,"lastAddress":"Kohlstraße 5, 80469 München, Germany"}
{"timestamp":"2016-09-30T07:50:00+0200","id":124034,"name":"Kathi","coordinate":{"longitude":11.60480022,"latitude":48.13219833},"fuelLevel":0.67,"lastAddress":"Elsässer Str. 16, 81667 München, Germany"}
{"timestamp":"2016-09-30T07:50:00+0200","id":124030,"name":"Hedwig","coordinate":{"longitude":11.56739998,"latitude":48.13130188},"fuelLevel":0.89,"lastAddress":"Pestalozzistraße 12, 80469 München, Germany"}
{"timestamp":"2016-09-30T07:50:00+0200","id":124023,"name":"Babsi","coordinate":{"longitude":11.5635004,"latitude":48.1269989},"fuelLevel":0.93,"lastAddress":"Thalkirchner Str. 54, 80337 München, Germany"}
{"timestamp":"2016-09-30T07:50:00+0200","id":124038,"name":"Magda","coordinate":{"longitude":11.6001997,"latitude":48.12820053},"fuelLevel":0.76,"lastAddress":"Pariser Pl., 81667 München, Germany"}
{"timestamp":"2016-09-30T07:50:00+0200","id":124022,"name":"Anne","coordinate":{"longitude":11.59739971,"latitude":48.1271019},"fuelLevel":0.8900000000000001,"lastAddress":"Pariser Str. 13, 81667 München, Germany"}
{"timestamp":"2016-09-30T07:50:00+0200","id":124000,"name":"Bertl","coordinate":{"longitude":11.59500027,"latitude":48.12969971},"fuelLevel":0.84,"lastAddress":"Steinstraße 77, 81667 München, Germany"}
{"timestamp":"2016-09-30T07:50:00+0200","id":124013,"name":"Poldi","coordinate":{"longitude":11.59420013,"latitude":48.12779999},"fuelLevel":0.79,"lastAddress":"Balanstraße 2, 81669 München, Germany"}
{"timestamp":"2016-09-30T07:50:00+0200","id":124011,"name":"Maxl","coordinate":{"longitude":11.59319973,"latitude":48.12609863},"fuelLevel":0.8099999999999999,"lastAddress":"Enzenspergerstraße 2, 81669 München, Germany"}
{"timestamp":"2016-09-30T07:50:00+0200","id":124003,"name":"Franzl","coordinate":{"longitude":11.59290028,"latitude":48.12749863},"fuelLevel":0.79,"lastAddress":"Franziskanerstraße 8, 81669 München, Germany"}
{"timestamp":"2016-09-30T07:50:00+0200","id":124010,"name":"Luitpold","coordinate":{"longitude":11.58609962,"latitude":48.12590027},"fuelLevel":0.88,"lastAddress":"Hochstraße 33, 81541 München, Germany"}
{"timestamp":"2016-09-30T07:50:00+0200","id":124019,"name":"Valentin","coordinate":{"longitude":11.5848999,"latitude":48.12369919},"fuelLevel":0.9199999999999999,"lastAddress":"Hochstraße 49C, 81541 München, Germany"}
{"timestamp":"2016-09-30T07:50:00+0200","id":124035,"name":"Leonie","coordinate":{"longitude":11.58580017,"latitude":48.12919998},"fuelLevel":0.7899999999999999,"lastAddress":"Schwarzstraße 1, 81669 München, Germany"}
{"timestamp":"2016-09-30T07:50:00+0200","id":124006,"name":"Gustl","coordinate":{"longitude":11.57730007,"latitude":48.12110138},"fuelLevel":0.93,"lastAddress":"Falkenstraße 44, 81541 München, Germany"}
{"timestamp":"2016-09-30T07:50:00+0200","id":124020,"name":"Vinzenz","coordinate":{"longitude":11.57870007,"latitude":48.12369919},"fuelLevel":0.9099999999999999,"lastAddress":"Entenbachstraße 16, 81541 München, Germany"}
{"timestamp":"2016-09-30T07:50:00+0200","id":124049,"name":"Marei","coordinate":{"longitude":11.57409954,"latitude":48.12020111},"fuelLevel":0.7200000000000001,"lastAddress":"Oefelestraße 12, 81543 München, Germany"}
{"timestamp":"2016-09-30T07:50:00+0200","id":124045,"name":"Vroni","coordinate":{"longitude":11.56760025,"latitude":48.1269989},"fuelLevel":0.9199999999999999,"lastAddress":"Holzstraße 49-51, 80469 München, Germany"}
{"timestamp":"2016-09-30T07:50:00+0200","id":124018,"name":"Toni","coordinate":{"longitude":11.57310009,"latitude":48.12829971},"fuelLevel":0.9299999999999999,"lastAddress":"Ickstattstraße 13, 80469 München, Germany"}
{"timestamp":"2016-09-30T07:50:00+0200","id":124012,"name":"Peter","coordinate":{"longitude":11.57260036,"latitude":48.14989853},"fuelLevel":1,"lastAddress":"Barer Str. 50-52, 80799 München, Germany"}
{"timestamp":"2016-09-30T07:50:00+0200","id":124004,"name":"Fridl","coordinate":{"longitude":11.56589985,"latitude":48.15639877},"fuelLevel":0.55,"lastAddress":"Hiltenspergerstraße 6, 80798 München, Germany"}
{"timestamp":"2016-09-30T07:50:00+0200","id":124031,"name":"Heidi","coordinate":{"longitude":11.56659985,"latitude":48.15000153},"fuelLevel":0.8,"lastAddress":"Luisenstraße 55, 80333 München, Germany"}
{"timestamp":"2016-09-30T07:50:00+0200","id":124002,"name":"Ferdl","coordinate":{"longitude":11.56400013,"latitude":48.15100098},"fuelLevel":0.9500000000000001,"lastAddress":"Theresienstraße 63, 80333 München, Germany"}
{"timestamp":"2016-09-30T07:50:00+0200","id":124048,"name":"Wiggerl","coordinate":{"longitude":11.57740021,"latitude":48.1590004},"fuelLevel":0.7200000000000001,"lastAddress":"Ainmillerstraße 33, 80801 München, Germany"}
{"timestamp":"2016-09-30T07:50:00+0200","id":124028,"name":"Gitte","coordinate":{"longitude":11.57989979,"latitude":48.16009903},"fuelLevel":0.77,"lastAddress":"Hohenzollernstraße 44, 80801 München, Germany"}
{"timestamp":"2016-09-30T07:50:00+0200","id":124027,"name":"Fanni","coordinate":{"longitude":11.57649994,"latitude":48.15969849},"fuelLevel":0.8099999999999999,"lastAddress":"Ainmillerstraße 48, 80801 München, Germany"}
{"timestamp":"2016-09-30T07:50:00+0200","id":124005,"name":"Georg","coordinate":{"longitude":11.58090019,"latitude":48.15990067},"fuelLevel":0.69,"lastAddress":"Hohenzollernstraße 23-25, 80801 München, Germany"}
{"timestamp":"2016-09-30T07:50:00+0200","id":124001,"name":"Edmund","coordinate":{"longitude":11.57820034,"latitude":48.15810013},"fuelLevel":0.62,"lastAddress":"Franz-Joseph-Straße 34, 80801 München, Germany"}
{"timestamp":"2016-09-30T07:50:00+0200","id":124032,"name":"Irmi","coordinate":{"longitude":11.57299995,"latitude":48.16019821},"fuelLevel":0.64,"lastAddress":"Isabellastraße 47, 80796 München, Germany"}
{"timestamp":"2016-09-30T07:50:00+0200","id":124037,"name":"Luise","coordinate":{"longitude":11.56630039,"latitude":48.15810013},"fuelLevel":0.9027777777777778,"lastAddress":"Hiltenspergerstraße 18, 80798 München, Germany"}
{"timestamp":"2016-09-30T07:50:00+0200","id":124017,"name":"Siggi","coordinate":{"longitude":11.57089996,"latitude":48.16080093},"fuelLevel":0.56,"lastAddress":"Hohenzollernstraße 79-81, 80796 München, Germany"}
{"timestamp":"2016-09-30T07:50:00+0200","id":124029,"name":"Hannah","coordinate":{"longitude":11.51010036,"latitude":48.04539871},"fuelLevel":0.7,"lastAddress":"Gistlstraße 159, 82049 Pullach im Isartal, Germany"}
{"timestamp":"2016-09-30T07:50:00+0200","id":124042,"name":"Tilli","coordinate":{"longitude":11.50969982,"latitude":48.04550171},"fuelLevel":0.77,"lastAddress":"Seitnerstraße 70, 82049 Pullach im Isartal, Germany"}
{"timestamp":"2016-09-30T07:50:00+0200","id":124009,"name":"Ludwig","coordinate":{"longitude":11.5848999,"latitude":48.16210175},"fuelLevel":0.89,"lastAddress":"Herzogstraße 4, 80803 München, Germany"}
{"timestamp":"2016-09-30T07:50:00+0200","id":124007,"name":"Jakob","coordinate":{"longitude":11.58679962,"latitude":48.16389847},"fuelLevel":0.9500000000000001,"lastAddress":"Leopoldstraße 85, 80802 München, Germany"}