{"timestamp":"2016-10-05T17:50:00+0200","id":124041,"name":"Sophie","coordinate":{"longitude":11.57769966,"latitude":48.15010071},"fuelLevel":0.93,"lastAddress":"Schellingstraße 18, 80799 München, Germany"}
{"timestamp":"2016-10-05T17:50:00+0200","id":124026,"name":"Eva","coordinate":{"longitude":11.57800007,"latitude":48.15380096},"fuelLevel":0.61,"lastAddress":"Rambergstraße 4, 80799 München, Germany"}
{"timestamp":"2016-10-05T17:50:00+0200","id":124033,"name":"Johanna","coordinate":{"longitude":11.58230019,"latitude":48.15200043},"fuelLevel":0.84,"lastAddress":"Leopoldstraße 4, 80802 München, Germany"}
{"timestamp":"2016-10-05T17:50:00+0200","id":124036,"name":"Liesel","coordinate":{"longitude":11.57520008,"latitude":48.15620041},"fuelLevel":0.6699999999999999,"lastAddress":"Nordendstraße 34, 80801 München, Germany"}
{"timestamp":"2016-10-05T17:50:00+0200","id":124044,"name":"Uschi","coordinate":{"longitude":11.57240009,"latitude":48.13199997},"fuelLevel":0.9199999999999999,"lastAddress":"Müllerstraße 20, 80469 München, Germany"}
{"timestamp":"2016-10-05T17:50:00+0200","id":124024,"name":"Christl","coordinate":{"longitude":11.57979965,"latitude":48.13359833},"fuelLevel":0.8,"lastAddress":"Klenzestraße 1A, 80469 München, Germany"}
{"timestamp":"2016-10-05T17:50:00+0200","id":124040,"name":"Reserl","coordinate":{"longitude":11.57289982,"latitude":48.13209915},"fuelLevel":0.8999999999999999,"lastAddress":"Müllerstraße 18, 80469 München, Germany"}
{"timestamp":"2016-10-05T17:50:00+0200","id":124021,"name":"Xaver","coordinate":{"longitude":11.58160019,"latitude":48.13069916},"fuelLevel":0.9500000000000001,"lastAddress":"Erhardtstraße 27, 80469 München, Germany"}
{"timestamp":"2016-10-05T17:50:00+0200","id":124014,"name":"Quirin","coordinate":{"longitude":11.60840034,"latitude":48.13290024},"fuelLevel":0.63,"lastAddress":"Kirchenstraße 87, 81675 München, Germany"}
{"timestamp":"2016-10-05T17:50:00+0200","id":124030,"name":"Hedwig","coordinate":{"longitude":11.56359959,"latitude":48.12749863},"fuelLevel":0.9199999999999999,"lastAddress":"Thalkirchner Str. 52, 80337 München, Germany"}
{"timestamp":"2016-10-05T17:50:00+0200","id":124038,"name":"Magda","coordinate":{"longitude":11.6001997,"latitude":48.12779999},"fuelLevel":0.67,"lastAddress":"Gravelottestraße 2, 81667 München, Germany"}
{"timestamp":"2016-10-05T17:50:00+0200","id":124022,"name":"Anne","coordinate":{"longitude":11.59659958,"latitude":48.12670135},"fuelLevel":0.8800000000000001,"lastAddress":"Rosenheimer Str. 88, 81669 München, Germany"}
{"timestamp":"2016-10-05T17:50:00+0200","id":124000,"name":"Bertl","coordinate":{"longitude":11.59689999,"latitude":48.12950134},"fuelLevel":0.82,"lastAddress":"Kellerstraße 34, 81667 München, Germany"}
{"timestamp":"2016-10-05T17:50:00+0200","id":124013,"name":"Poldi","coordinate":{"longitude":11.5948,"latitude":48.12760162},"fuelLevel":0.79,"lastAddress":"Metzstraße, 81669 München, Germany"}
{"timestamp":"2016-10-05T17:50:00+0200","id":124011,"name":"Maxl","coordinate":{"longitude":11.59319973,"latitude":48.12559891},"fuelLevel":0.7899999999999999,"lastAddress":"Barnabasstraße 1, 81669 München, Germany"}
{"timestamp":"2016-10-05T17:50:00+0200","id":124003,"name":"Franzl","coordinate":{"longitude":11.59300041,"latitude":48.1271019},"fuelLevel":0.8,"lastAddress":"Franziskanerstraße 17, 81669 München, Germany"}
{"timestamp":"2016-10-05T17:50:00+0200","id":124010,"name":"Luitpold","coordinate":{"longitude":11.58440018,"latitude":48.12760162},"fuelLevel":0.9500000000000001,"lastAddress":"Lilienstraße 66, 81669 München, Germany"}
{"timestamp":"2016-10-05T17:50:00+0200","id":124006,"name":"Gustl","coordinate":{"longitude":11.57800007,"latitude":48.12080002},"fuelLevel":0.9400000000000001,"lastAddress":"Dollmannstraße 3-5, 81541 München, Germany"}
{"timestamp":"2016-10-05T17:50:00+0200","id":124020,"name":"Vinzenz","coordinate":{"longitude":11.57670021,"latitude":48.12450027},"fuelLevel":0.8999999999999999,"lastAddress":"Albanistraße 3, 81541 München, Germany"}
{"timestamp":"2016-10-05T17:50:00+0200","id":124049,"name":"Marei","coordinate":{"longitude":11.57439995,"latitude":48.11959839},"fuelLevel":0.69,"lastAddress":"Humboldtstraße 28, 81543 München, Germany"}
{"timestamp":"2016-10-05T17:50:00+0200","id":124045,"name":"Vroni","coordinate":{"longitude":11.56729984,"latitude":48.12779999},"fuelLevel":0.9199999999999999,"lastAddress":"Pestalozzistraße 54, 80469 München, Germany"}
{"timestamp":"2016-10-05T17:50:00+0200","id":124018,"name":"Toni","coordinate":{"longitude":11.57019997,"latitude":48.1310997},"fuelLevel":0.9199999999999999,"lastAddress":"Angertorstraße 7, 80469 München, Germany"}
{"timestamp":"2016-10-05T17:50:00+0200","id":124012,"name":"Peter","coordinate":{"longitude":11.57240009,"latitude":48.14979935},"fuelLevel":1,"lastAddress":"Barer Str. 29, 80799 München, Germany"}
{"timestamp":"2016-10-05T17:50:00+0200","id":124004,"name":"Fridl","coordinate":{"longitude":11.56569958,"latitude":48.15629959},"fuelLevel":0.55,"lastAddress":"Hiltenspergerstraße 13, 80798 München, Germany"}
{"timestamp":"2016-10-05T17:50:00+0200","id":124031,"name":"Heidi","coordinate":{"longitude":11.56659985,"latitude":48.15039825},"fuelLevel":0.8,"lastAddress":"Theresienstraße 43, 80333 München, Germany"}
{"timestamp":"2016-10-05T17:50:00+0200","id":124002,"name":"Ferdl","coordinate":{"longitude":11.5649004,"latitude":48.15219879},"fuelLevel":0.9500000000000001,"lastAddress":"Heßstraße 39, 80798 München, Germany"}
{"timestamp":"2016-10-05T17:50:00+0200","id":124048,"name":"Wiggerl","coordinate":{"longitude":11.57870007,"latitude":48.16139984},"fuelLevel":0.68,"lastAddress":"Kaiserstraße 38, 80801 München, Germany"}
{"timestamp":"2016-10-05T17:50:00+0200","id":124028,"name":"Gitte","coordinate":{"longitude":11.57719994,"latitude":48.16019821},"fuelLevel":0.75,"lastAddress":"Hohenzollernstraße 70, 80801 München, Germany"}
{"timestamp":"2016-10-05T17:50:00+0200","id":124027,"name":"Fanni","coordinate":{"longitude":11.57800007,"latitude":48.1590004},"fuelLevel":0.7899999999999999,"lastAddress":"Ainmillerstraße 40, 80801 München, Germany"}
{"timestamp":"2016-10-05T17:50:00+0200","id":124005,"name":"Georg","coordinate":{"longitude":11.58139992,"latitude":48.15879822},"fuelLevel":0.66,"lastAddress":"Ainmillerstraße 20, 80801 München, Germany"}
{"timestamp":"2016-10-05T17:50:00+0200","id":124032,"name":"Irmi","coordinate":{"longitude":11.57289982,"latitude":48.16019821},"fuelLevel":0.64,"lastAddress":"Isabellastraße 47, 80796 München, Germany"}
{"timestamp":"2016-10-05T17:50:00+0200","id":124037,"name":"Luise","coordinate":{"longitude":11.56610012,"latitude":48.15790176},"fuelLevel":0.58,"lastAddress":"Agnesstraße 37, 80798 München, Germany"}
{"timestamp":"2016-10-05T17:50:00+0200","id":124017,"name":"Siggi","coordinate":{"longitude":11.57149982,"latitude":48.16090012},"fuelLevel":0.56,"lastAddress":"Hohenzollernstraße 110, 80796 München, Germany"}
{"timestamp":"2016-10-05T17:50:00+0200","id":124029,"name":"Hannah","coordinate":{"longitude":11.51039982,"latitude":48.04539871},"fuelLevel":0.7,"lastAddress":"Gistlstraße 159, 82049 Pullach im Isartal, Germany"}
{"timestamp":"2016-10-05T17:50:00+0200","id":124008,"name":"Johann","coordinate":{"longitude":11.50990009,"latitude":48.04560089},"fuelLevel":0.87,"lastAddress":"Gistlstraße 159, 82049 Pullach im Isartal, Germany"}
{"timestamp":"2016-10-05T17:50:00+0200","id":124039,"name":"Marie","coordinate":{"longitude":11.50949955,"latitude":48.04550171},"fuelLevel":0.58,"lastAddress":"Seitnerstraße 70, 82049 Pullach im Isartal, Germany"}
{"timestamp":"2016-10-05T17:50:00+0200","id":124009,"name":"Ludwig","coordinate":{"longitude":11.58460045,"latitude":48.16199875},"fuelLevel":0.8999999999999999,"lastAddress":"Herzogstraße 7, 80803 München, Germany"}
{"timestamp":"2016-10-05T17:50:00+0200","id":124007,"name":"Jakob","coordinate":{"longitude":11.57470036,"latitude":48.16719818},"fuelLevel":0.9400000000000001,"lastAddress":"Karl-Theodor-Straße 80, 80803 München, Germany"}