{"timestamp":"2016-11-13T00:15:00+0100","id":124041,"name":"Sophie","coordinate":{"longitude":11.58050537,"latitude":48.15159607},"fuelLevel":0.63,"lastAddress":"Adalbertstraße 12, 80799 München, Germany"}
{"timestamp":"2016-11-13T00:15:00+0100","id":124026,"name":"Eva","coordinate":{"longitude":11.57980347,"latitude":48.1526947},"fuelLevel":0.89,"lastAddress":"Akademiestraße 11, 80799 München, Germany"}
{"timestamp":"2016-11-13T00:15:00+0100","id":124025,"name":"Elli","coordinate":{"longitude":11.57789612,"latitude":48.14978027},"fuelLevel":0.5599999999999999,"lastAddress":"Schellingstraße 16, 80799 München, Germany"}
{"timestamp":"2016-11-13T00:15:00+0100","id":124021,"name":"Xaver","coordinate":{"longitude":11.57369995,"latitude":48.129776},"fuelLevel":0.45999999999999996,"lastAddress":"Fraunhoferstraße 19, 80469 München, Germany"}
{"timestamp":"2016-11-13T00:15:00+0100","id":124014,"name":"Quirin","coordinate":{"longitude":11.59922791,"latitude":48.13606262},"fuelLevel":0.9583333333333334,"lastAddress":"Einsteinstraße 3, 81675 München, Germany"}
{"timestamp":"2016-11-13T00:15:00+0100","id":124034,"name":"Kathi","coordinate":{"longitude":11.60514832,"latitude":48.13011169},"fuelLevel":0.81,"lastAddress":"Elsässer Str. 27, 81667 München, Germany"}
{"timestamp":"2016-11-13T00:15:00+0100","id":124030,"name":"Hedwig","coordinate":{"longitude":11.56370544,"latitude":48.12820435},"fuelLevel":0.63,"lastAddress":"Waltherstraße 5, 80337 München, Germany"}
{"timestamp":"2016-11-13T00:15:00+0100","id":124016,"name":"Sepp","coordinate":{"longitude":11.59919739,"latitude":48.13041687},"fuelLevel":0.59,"lastAddress":"Metzstraße 32, 81667 München, Germany"}
{"timestamp":"2016-11-13T00:15:00+0100","id":124022,"name":"Anne","coordinate":{"longitude":11.59805298,"latitude":48.12695312},"fuelLevel":0.9,"lastAddress":"Pariser Str. 22, 81667 München, Germany"}
{"timestamp":"2016-11-13T00:15:00+0100","id":124000,"name":"Bertl","coordinate":{"longitude":11.59698486,"latitude":48.12799072},"fuelLevel":0.58,"lastAddress":"Lothringer Str. 4-6, 81667 München, Germany"}
{"timestamp":"2016-11-13T00:15:00+0100","id":124003,"name":"Franzl","coordinate":{"longitude":11.58988953,"latitude":48.12518311},"fuelLevel":0.79,"lastAddress":"Franziskanerstraße 43, 81669 München, Germany"}
{"timestamp":"2016-11-13T00:15:00+0100","id":124019,"name":"Valentin","coordinate":{"longitude":11.58189392,"latitude":48.12101746},"fuelLevel":0.6499999999999999,"lastAddress":"Hochstraße 81, 81541 München, Germany"}
{"timestamp":"2016-11-13T00:15:00+0100","id":124035,"name":"Leonie","coordinate":{"longitude":11.58131409,"latitude":48.12748718},"fuelLevel":0.64,"lastAddress":"Schweigerstraße 4, 81541 München, Germany"}
{"timestamp":"2016-11-13T00:15:00+0100","id":124006,"name":"Gustl","coordinate":{"longitude":11.57582092,"latitude":48.12268066},"fuelLevel":0.44000000000000006,"lastAddress":"Kolumbusstraße 1-3, 81543 München, Germany"}
{"timestamp":"2016-11-13T00:15:00+0100","id":124045,"name":"Vroni","coordinate":{"longitude":11.56768799,"latitude":48.1269989},"fuelLevel":0.8500000000000001,"lastAddress":"Holzstraße 49-51, 80469 München, Germany"}
{"timestamp":"2016-11-13T00:15:00+0100","id":124012,"name":"Peter","coordinate":{"longitude":11.56109619,"latitude":48.15420532},"fuelLevel":0.73,"lastAddress":"Schleißheimer Str. 47, 80797 München, Germany"}
{"timestamp":"2016-11-13T00:15:00+0100","id":124004,"name":"Fridl","coordinate":{"longitude":11.55906677,"latitude":48.15391541},"fuelLevel":0.88,"lastAddress":"Heßstraße 79, 80797 München, Germany"}
{"timestamp":"2016-11-13T00:15:00+0100","id":124031,"name":"Heidi","coordinate":{"longitude":11.56388855,"latitude":48.15060425},"fuelLevel":0.55,"lastAddress":"Augustenstraße 77-79, 80333 München, Germany"}
{"timestamp":"2016-11-13T00:15:00+0100","id":124047,"name":"Walli","coordinate":{"longitude":11.5664978,"latitude":48.14930725},"fuelLevel":0.8,"lastAddress":"Luisenstraße 47A, 80333 München, Germany"}
{"timestamp":"2016-11-13T00:15:00+0100","id":124002,"name":"Ferdl","coordinate":{"longitude":11.56340027,"latitude":48.14970398},"fuelLevel":0.59,"lastAddress":"Augustenstraße 70, 80333 München, Germany"}
{"timestamp":"2016-11-13T00:15:00+0100","id":124048,"name":"Wiggerl","coordinate":{"longitude":11.5776825,"latitude":48.15786743},"fuelLevel":0.88,"lastAddress":"Franz-Joseph-Straße 38, 80801 München, Germany"}
{"timestamp":"2016-11-13T00:15:00+0100","id":124028,"name":"Gitte","coordinate":{"longitude":11.57809448,"latitude":48.15769958},"fuelLevel":0.58,"lastAddress":"Franz-Joseph-Straße 35, 80801 München, Germany"}
{"timestamp":"2016-11-13T00:15:00+0100","id":124027,"name":"Fanni","coordinate":{"longitude":11.58450317,"latitude":48.16218567},"fuelLevel":0.48000000000000004,"lastAddress":"Herzogstraße 8, 80803 München, Germany"}
{"timestamp":"2016-11-13T00:15:00+0100","id":124005,"name":"Georg","coordinate":{"longitude":11.5770874,"latitude":48.15820312},"fuelLevel":0.8,"lastAddress":"Römerstraße 4, 80801 München, Germany"}
{"timestamp":"2016-11-13T00:15:00+0100","id":124001,"name":"Edmund","coordinate":{"longitude":11.57669067,"latitude":48.16131592},"fuelLevel":0.63,"lastAddress":"Kaiserstraße 50, 80801 München, Germany"}
{"timestamp":"2016-11-13T00:15:00+0100","id":124032,"name":"Irmi","coordinate":{"longitude":11.57481384,"latitude":48.15950012},"fuelLevel":0.58,"lastAddress":"Nordendstraße 64, 80801 München, Germany"}
{"timestamp":"2016-11-13T00:15:00+0100","id":124037,"name":"Luise","coordinate":{"longitude":11.56809998,"latitude":48.15678406},"fuelLevel":0.63,"lastAddress":"Georgenstraße 104, 80798 München, Germany"}
{"timestamp":"2016-11-13T00:15:00+0100","id":124017,"name":"Siggi","coordinate":{"longitude":11.56898499,"latitude":48.1592865},"fuelLevel":0.67,"lastAddress":"Tengstraße 31, 80796 München, Germany"}
{"timestamp":"2016-11-13T00:15:00+0100","id":124029,"name":"Hannah","coordinate":{"longitude":11.50950623,"latitude":48.04551697},"fuelLevel":0.89,"lastAddress":"Seitnerstraße 70, 82049 Pullach im Isartal, Germany"}
{"timestamp":"2016-11-13T00:15:00+0100","id":124008,"name":"Johann","coordinate":{"longitude":11.50978088,"latitude":48.04518127},"fuelLevel":0.87,"lastAddress":"Seitnerstraße 70, 82049 Pullach im Isartal, Germany"}
{"timestamp":"2016-11-13T00:15:00+0100","id":124039,"name":"Marie","coordinate":{"longitude":11.50959778,"latitude":48.0453949},"fuelLevel":0.84,"lastAddress":"Seitnerstraße 70, 82049 Pullach im Isartal, Germany"}
{"timestamp":"2016-11-13T00:15:00+0100","id":124009,"name":"Ludwig","coordinate":{"longitude":11.58082581,"latitude":48.1663208},"fuelLevel":0.44,"lastAddress":"Karl-Theodor-Straße 33A, 80803 München, Germany"}
{"timestamp":"2016-11-13T00:15:00+0100","id":124007,"name":"Jakob","coordinate":{"longitude":11.57409668,"latitude":48.16430664},"fuelLevel":0.84,"lastAddress":"Belgradstraße 37, 80796 München, Germany"}