{"timestamp":"2016-09-27T06:50:00+0200","id":124041,"name":"Sophie","coordinate":{"longitude":11.57769966,"latitude":48.1495018},"fuelLevel":0.93,"lastAddress":"Amalienstraße 55, 80799 München, Germany"}
{"timestamp":"2016-09-27T06:50:00+0200","id":124026,"name":"Eva","coordinate":{"longitude":11.57820034,"latitude":48.15370178},"fuelLevel":0.61,"lastAddress":"Türkenstraße 95, 80799 München, Germany"}
{"timestamp":"2016-09-27T06:50:00+0200","id":124025,"name":"Elli","coordinate":{"longitude":11.57789993,"latitude":48.1534996},"fuelLevel":0.85,"lastAddress":"Türkenstraße 95, 80799 München, Germany"}
{"timestamp":"2016-09-27T06:50:00+0200","id":124033,"name":"Johanna","coordinate":{"longitude":11.5781002,"latitude":48.15370178},"fuelLevel":0.89,"lastAddress":"Rambergstraße 3, 80799 München, Germany"}
{"timestamp":"2016-09-27T06:50:00+0200","id":124036,"name":"Liesel","coordinate":{"longitude":11.57530022,"latitude":48.15629959},"fuelLevel":0.6699999999999999,"lastAddress":"Nordendstraße 36, 80801 München, Germany"}
{"timestamp":"2016-09-27T06:50:00+0200","id":124044,"name":"Uschi","coordinate":{"longitude":11.57549953,"latitude":48.13019943},"fuelLevel":0.51,"lastAddress":"Reichenbachstraße 24, 80469 München, Germany"}
{"timestamp":"2016-09-27T06:50:00+0200","id":124024,"name":"Christl","coordinate":{"longitude":11.58040047,"latitude":48.13209915},"fuelLevel":0.83,"lastAddress":"Baaderpl. 2, 80469 München, Germany"}
{"timestamp":"2016-09-27T06:50:00+0200","id":124021,"name":"Xaver","coordinate":{"longitude":11.58030033,"latitude":48.13199997},"fuelLevel":0.52,"lastAddress":"Kohlstraße 2, 80469 München, Germany"}
{"timestamp":"2016-09-27T06:50:00+0200","id":124014,"name":"Quirin","coordinate":{"longitude":11.60299969,"latitude":48.1330986},"fuelLevel":0.63,"lastAddress":"Wolfgangstraße 20A, 81667 München, Germany"}
{"timestamp":"2016-09-27T06:50:00+0200","id":124034,"name":"Kathi","coordinate":{"longitude":11.60509968,"latitude":48.13219833},"fuelLevel":0.67,"lastAddress":"Elsässer Str. 16, 81667 München, Germany"}
{"timestamp":"2016-09-27T06:50:00+0200","id":124030,"name":"Hedwig","coordinate":{"longitude":11.56280041,"latitude":48.12670135},"fuelLevel":0.9099999999999999,"lastAddress":"Thalkirchner Str. 66-68, 80337 München, Germany"}
{"timestamp":"2016-09-27T06:50:00+0200","id":124023,"name":"Babsi","coordinate":{"longitude":11.56340027,"latitude":48.12730026},"fuelLevel":0.93,"lastAddress":"Thalkirchner Str. 54, 80337 München, Germany"}
{"timestamp":"2016-09-27T06:50:00+0200","id":124016,"name":"Sepp","coordinate":{"longitude":11.59850025,"latitude":48.12580109},"fuelLevel":0.9199999999999999,"lastAddress":"Rosenheimer Str. 100, 81669 München, Germany"}
{"timestamp":"2016-09-27T06:50:00+0200","id":124038,"name":"Magda","coordinate":{"longitude":11.60000038,"latitude":48.1283989},"fuelLevel":0.76,"lastAddress":"Pariser Pl., 81667 München, Germany"}
{"timestamp":"2016-09-27T06:50:00+0200","id":124022,"name":"Anne","coordinate":{"longitude":11.59700012,"latitude":48.12689972},"fuelLevel":0.8900000000000001,"lastAddress":"Rosenheimer Str. 109, 81667 München, Germany"}
{"timestamp":"2016-09-27T06:50:00+0200","id":124000,"name":"Bertl","coordinate":{"longitude":11.59449959,"latitude":48.12939835},"fuelLevel":0.8500000000000001,"lastAddress":"Steinstraße 70, 81667 München, Germany"}
{"timestamp":"2016-09-27T06:50:00+0200","id":124013,"name":"Poldi","coordinate":{"longitude":11.59490013,"latitude":48.1271019},"fuelLevel":0.83,"lastAddress":"Balanstraße 15, 81669 München, Germany"}
{"timestamp":"2016-09-27T06:50:00+0200","id":124011,"name":"Maxl","coordinate":{"longitude":11.59280014,"latitude":48.12590027},"fuelLevel":0.8099999999999999,"lastAddress":"Sieboldstraße 2, 81669 München, Germany"}
{"timestamp":"2016-09-27T06:50:00+0200","id":124003,"name":"Franzl","coordinate":{"longitude":11.58940029,"latitude":48.12490082},"fuelLevel":0.88,"lastAddress":"Franziskanerstraße 49, 81669 München, Germany"}
{"timestamp":"2016-09-27T06:50:00+0200","id":124010,"name":"Luitpold","coordinate":{"longitude":11.58580017,"latitude":48.12599945},"fuelLevel":0.88,"lastAddress":"Gebsattelstraße 2, 81541 München, Germany"}
{"timestamp":"2016-09-27T06:50:00+0200","id":124019,"name":"Valentin","coordinate":{"longitude":11.58479977,"latitude":48.12329865},"fuelLevel":0.9199999999999999,"lastAddress":"Hochstraße 51, 81541 München, Germany"}
{"timestamp":"2016-09-27T06:50:00+0200","id":124035,"name":"Leonie","coordinate":{"longitude":11.58640003,"latitude":48.12900162},"fuelLevel":0.7899999999999999,"lastAddress":"Lilienstraße 51, 81669 München, Germany"}
{"timestamp":"2016-09-27T06:50:00+0200","id":124006,"name":"Gustl","coordinate":{"longitude":11.5770998,"latitude":48.12170029},"fuelLevel":0.93,"lastAddress":"Entenbachstraße 40-42, 81541 München, Germany"}
{"timestamp":"2016-09-27T06:50:00+0200","id":124020,"name":"Vinzenz","coordinate":{"longitude":11.57940006,"latitude":48.12310028},"fuelLevel":0.9299999999999999,"lastAddress":"Albanistraße 19, 81541 München, Germany"}
{"timestamp":"2016-09-27T06:50:00+0200","id":124049,"name":"Marei","coordinate":{"longitude":11.57400036,"latitude":48.11999893},"fuelLevel":0.7200000000000001,"lastAddress":"Humboldtstraße 22, 81543 München, Germany"}
{"timestamp":"2016-09-27T06:50:00+0200","id":124045,"name":"Vroni","coordinate":{"longitude":11.56719971,"latitude":48.12739944},"fuelLevel":0.9199999999999999,"lastAddress":"Holzstraße 34, 80469 München, Germany"}
{"timestamp":"2016-09-27T06:50:00+0200","id":124043,"name":"Traudl","coordinate":{"longitude":11.57470036,"latitude":48.12799835},"fuelLevel":0.71,"lastAddress":"Baaderstraße 82-84, 80469 München, Germany"}
{"timestamp":"2016-09-27T06:50:00+0200","id":124018,"name":"Toni","coordinate":{"longitude":11.56949997,"latitude":48.12630081},"fuelLevel":0.9500000000000001,"lastAddress":"Baumstraße 17A, 80469 München, Germany"}
{"timestamp":"2016-09-27T06:50:00+0200","id":124012,"name":"Peter","coordinate":{"longitude":11.57260036,"latitude":48.14979935},"fuelLevel":1,"lastAddress":"Barer Str. 48-50, 80799 München, Germany"}
{"timestamp":"2016-09-27T06:50:00+0200","id":124004,"name":"Fridl","coordinate":{"longitude":11.56630039,"latitude":48.15579987},"fuelLevel":0.7799999999999999,"lastAddress":"Josephspl. 7, 80798 München, Germany"}
{"timestamp":"2016-09-27T06:50:00+0200","id":124031,"name":"Heidi","coordinate":{"longitude":11.56690025,"latitude":48.14870071},"fuelLevel":0.8500000000000001,"lastAddress":"Dachauer Str. 25, 80335 München, Germany"}
{"timestamp":"2016-09-27T06:50:00+0200","id":124047,"name":"Walli","coordinate":{"longitude":11.57110023,"latitude":48.15610123},"fuelLevel":0.8999999999999999,"lastAddress":"Georgenstraße 65, 80799 München, Germany"}
{"timestamp":"2016-09-27T06:50:00+0200","id":124002,"name":"Ferdl","coordinate":{"longitude":11.56379986,"latitude":48.15069962},"fuelLevel":0.61,"lastAddress":"Augustenstraße 79, 80333 München, Germany"}
{"timestamp":"2016-09-27T06:50:00+0200","id":124048,"name":"Wiggerl","coordinate":{"longitude":11.5770998,"latitude":48.15919876},"fuelLevel":0.7200000000000001,"lastAddress":"Römerstraße 9, 80801 München, Germany"}
{"timestamp":"2016-09-27T06:50:00+0200","id":124028,"name":"Gitte","coordinate":{"longitude":11.58040047,"latitude":48.15800095},"fuelLevel":0.81,"lastAddress":"Habsburgerpl. 2, 80801 München, Germany"}
{"timestamp":"2016-09-27T06:50:00+0200","id":124027,"name":"Fanni","coordinate":{"longitude":11.57730007,"latitude":48.15940094},"fuelLevel":0.85,"lastAddress":"Römerstraße 10-14, 80801 München, Germany"}
{"timestamp":"2016-09-27T06:50:00+0200","id":124005,"name":"Georg","coordinate":{"longitude":11.58139992,"latitude":48.15869904},"fuelLevel":0.69,"lastAddress":"Ainmillerstraße 15, 80801 München, Germany"}
{"timestamp":"2016-09-27T06:50:00+0200","id":124032,"name":"Irmi","coordinate":{"longitude":11.57299995,"latitude":48.16109848},"fuelLevel":0.64,"lastAddress":"Fallmerayerstraße 6, 80796 München, Germany"}
{"timestamp":"2016-09-27T06:50:00+0200","id":124017,"name":"Siggi","coordinate":{"longitude":11.57139969,"latitude":48.16049957},"fuelLevel":0.56,"lastAddress":"Hohenzollernstraße 77, 80796 München, Germany"}
{"timestamp":"2016-09-27T06:50:00+0200","id":124029,"name":"Hannah","coordinate":{"longitude":11.51029968,"latitude":48.04529953},"fuelLevel":0.7,"lastAddress":"Gistlstraße 159, 82049 Pullach im Isartal, Germany"}
{"timestamp":"2016-09-27T06:50:00+0200","id":124042,"name":"Tilli","coordinate":{"longitude":11.50979996,"latitude":48.04539871},"fuelLevel":0.84,"lastAddress":"Seitnerstraße 70, 82049 Pullach im Isartal, Germany"}
{"timestamp":"2016-09-27T06:50:00+0200","id":124039,"name":"Marie","coordinate":{"longitude":11.50949955,"latitude":48.04539871},"fuelLevel":0.89,"lastAddress":"Seitnerstraße 70, 82049 Pullach im Isartal, Germany"}
{"timestamp":"2016-09-27T06:50:00+0200","id":124009,"name":"Ludwig","coordinate":{"longitude":11.57789993,"latitude":48.16419983},"fuelLevel":0.9400000000000001,"lastAddress":"Cherubinistraße 3, 80803 München, Germany"}
{"timestamp":"2016-09-27T06:50:00+0200","id":124007,"name":"Jakob","coordinate":{"longitude":11.5866003,"latitude":48.16379929},"fuelLevel":0.9500000000000001,"lastAddress":"Leopoldstraße 85, 80802 München, Germany"}