{"timestamp":"2016-10-28T23:20:00+0200","id":124041,"name":"Sophie","coordinate":{"longitude":11.57962036,"latitude":48.15280151},"fuelLevel":0.72,"lastAddress":"Akademiestraße 11, 80799 München, Germany"}
{"timestamp":"2016-10-28T23:20:00+0200","id":124026,"name":"Eva","coordinate":{"longitude":11.57980347,"latitude":48.15270996},"fuelLevel":0.89,"lastAddress":"Akademiestraße 11, 80799 München, Germany"}
{"timestamp":"2016-10-28T23:20:00+0200","id":124025,"name":"Elli","coordinate":{"longitude":11.57621765,"latitude":48.15577698},"fuelLevel":0.6900000000000001,"lastAddress":"Konradstraße 2, 80801 München, Germany"}
{"timestamp":"2016-10-28T23:20:00+0200","id":124033,"name":"Johanna","coordinate":{"longitude":11.57841492,"latitude":48.15309143},"fuelLevel":0.55,"lastAddress":"Akademiestraße 4, 80799 München, Germany"}
{"timestamp":"2016-10-28T23:20:00+0200","id":124036,"name":"Liesel","coordinate":{"longitude":11.58059692,"latitude":48.15170288},"fuelLevel":0.8099999999999999,"lastAddress":"Adalbertstraße 12, 80799 München, Germany"}
{"timestamp":"2016-10-28T23:20:00+0200","id":124044,"name":"Uschi","coordinate":{"longitude":11.57139587,"latitude":48.13220215},"fuelLevel":0.5902777777777778,"lastAddress":"Blumenstraße 28-30, 80331 München, Germany"}
{"timestamp":"2016-10-28T23:20:00+0200","id":124040,"name":"Reserl","coordinate":{"longitude":11.57269955,"latitude":48.1332016},"fuelLevel":0.62,"lastAddress":"Blumenstraße 28, 80331 München, Germany"}
{"timestamp":"2016-10-28T23:20:00+0200","id":124021,"name":"Xaver","coordinate":{"longitude":11.57200623,"latitude":48.1309967},"fuelLevel":0.88,"lastAddress":"Fraunhoferstraße 5, 80469 München, Germany"}
{"timestamp":"2016-10-28T23:20:00+0200","id":124030,"name":"Hedwig","coordinate":{"longitude":11.56262207,"latitude":48.12602234},"fuelLevel":0.9236111111111112,"lastAddress":"Thalkirchner Str. 17, 80337 München, Germany"}
{"timestamp":"2016-10-28T23:20:00+0200","id":124022,"name":"Anne","coordinate":{"longitude":11.59861755,"latitude":48.12582397},"fuelLevel":0.5782312925170068,"lastAddress":"Rosenheimer Str. 125, 81667 München, Germany"}
{"timestamp":"2016-10-28T23:20:00+0200","id":124000,"name":"Bertl","coordinate":{"longitude":11.59970093,"latitude":48.12808228},"fuelLevel":0.8,"lastAddress":"Pariser Str. 38, 81667 München, Germany"}
{"timestamp":"2016-10-28T23:20:00+0200","id":124013,"name":"Poldi","coordinate":{"longitude":11.59029961,"latitude":48.12540054},"fuelLevel":0.86,"lastAddress":"Franziskanerstraße 43, 81669 München, Germany"}
{"timestamp":"2016-10-28T23:20:00+0200","id":124011,"name":"Maxl","coordinate":{"longitude":11.59750366,"latitude":48.1242981},"fuelLevel":0.61,"lastAddress":"Orleansstraße 1, 81669 München, Germany"}
{"timestamp":"2016-10-28T23:20:00+0200","id":124003,"name":"Franzl","coordinate":{"longitude":11.59899902,"latitude":48.12550354},"fuelLevel":0.88,"lastAddress":"Rosenheimer Str. 106, 81669 München, Germany"}
{"timestamp":"2016-10-28T23:20:00+0200","id":124010,"name":"Luitpold","coordinate":{"longitude":11.58189964,"latitude":48.12720108},"fuelLevel":0.4097222222222222,"lastAddress":"Schweigerstraße 8, 81541 München, Germany"}
{"timestamp":"2016-10-28T23:20:00+0200","id":124019,"name":"Valentin","coordinate":{"longitude":11.58180237,"latitude":48.12519836},"fuelLevel":0.76,"lastAddress":"Mariahilfpl. 23, 81541 München, Germany"}
{"timestamp":"2016-10-28T23:20:00+0200","id":124035,"name":"Leonie","coordinate":{"longitude":11.58399963,"latitude":48.12852478},"fuelLevel":0.8639455782312925,"lastAddress":"Zeppelinstraße 47, 81669 München, Germany"}
{"timestamp":"2016-10-28T23:20:00+0200","id":124006,"name":"Gustl","coordinate":{"longitude":11.57891846,"latitude":48.12361145},"fuelLevel":0.7100000000000001,"lastAddress":"Entenbachstrasse 15, Entenbachstraße, 81541 München, Germany"}
{"timestamp":"2016-10-28T23:20:00+0200","id":124020,"name":"Vinzenz","coordinate":{"longitude":11.5789032,"latitude":48.12330627},"fuelLevel":0.79,"lastAddress":"Albanistraße 17, 81541 München, Germany"}
{"timestamp":"2016-10-28T23:20:00+0200","id":124049,"name":"Marei","coordinate":{"longitude":11.57920837,"latitude":48.12461853},"fuelLevel":0.62,"lastAddress":"Boosstraße 17, 81541 München, Germany"}
{"timestamp":"2016-10-28T23:20:00+0200","id":124045,"name":"Vroni","coordinate":{"longitude":11.5684967,"latitude":48.13101196},"fuelLevel":0.5902777777777778,"lastAddress":"Müllerstraße 43, 80469 München, Germany"}
{"timestamp":"2016-10-28T23:20:00+0200","id":124018,"name":"Toni","coordinate":{"longitude":11.57060242,"latitude":48.13020325},"fuelLevel":0.6499999999999999,"lastAddress":"Hans-Sachs-Straße 5, 80469 München, Germany"}
{"timestamp":"2016-10-28T23:20:00+0200","id":124012,"name":"Peter","coordinate":{"longitude":11.55659485,"latitude":48.15480042},"fuelLevel":0.8800000000000001,"lastAddress":"Heßstraße 108, 80797 München, Germany"}
{"timestamp":"2016-10-28T23:20:00+0200","id":124004,"name":"Fridl","coordinate":{"longitude":11.56221008,"latitude":48.15701294},"fuelLevel":0.55,"lastAddress":"Schleißheimer Str. 106, 80797 München, Germany"}
{"timestamp":"2016-10-28T23:20:00+0200","id":124031,"name":"Heidi","coordinate":{"longitude":11.56974792,"latitude":48.14950562},"fuelLevel":0.6388888888888888,"lastAddress":"Theresienstraße 90, 80333 München, Germany"}
{"timestamp":"2016-10-28T23:20:00+0200","id":124048,"name":"Wiggerl","coordinate":{"longitude":11.57531738,"latitude":48.15888977},"fuelLevel":0.6000000000000001,"lastAddress":"Nordendstraße 62, 80801 München, Germany"}
{"timestamp":"2016-10-28T23:20:00+0200","id":124028,"name":"Gitte","coordinate":{"longitude":11.57582092,"latitude":48.16009521},"fuelLevel":0.7200000000000001,"lastAddress":"Hohenzollernstraße 49, 80801 München, Germany"}
{"timestamp":"2016-10-28T23:20:00+0200","id":124027,"name":"Fanni","coordinate":{"longitude":11.58470154,"latitude":48.16210938},"fuelLevel":0.6900000000000001,"lastAddress":"Herzogstraße 5-7, 80803 München, Germany"}
{"timestamp":"2016-10-28T23:20:00+0200","id":124005,"name":"Georg","coordinate":{"longitude":11.57678223,"latitude":48.15800476},"fuelLevel":0.8500000000000001,"lastAddress":"Römerstraße 1, 80801 München, Germany"}
{"timestamp":"2016-10-28T23:20:00+0200","id":124001,"name":"Edmund","coordinate":{"longitude":11.57939148,"latitude":48.15788269},"fuelLevel":0.7999999999999999,"lastAddress":"Franz-Joseph-Straße 26, 80801 München, Germany"}
{"timestamp":"2016-10-28T23:20:00+0200","id":124032,"name":"Irmi","coordinate":{"longitude":11.57492065,"latitude":48.15890503},"fuelLevel":0.57,"lastAddress":"Nordendstraße 62-64, 80801 München, Germany"}
{"timestamp":"2016-10-28T23:20:00+0200","id":124029,"name":"Hannah","coordinate":{"longitude":11.50990295,"latitude":48.04550171},"fuelLevel":0.81,"lastAddress":"Gistlstraße 159, 82049 Pullach im Isartal, Germany"}
{"timestamp":"2016-10-28T23:20:00+0200","id":124008,"name":"Johann","coordinate":{"longitude":11.50952148,"latitude":48.04548645},"fuelLevel":0.6944444444444444,"lastAddress":"Seitnerstraße 70, 82049 Pullach im Isartal, Germany"}
{"timestamp":"2016-10-28T23:20:00+0200","id":124039,"name":"Marie","coordinate":{"longitude":11.50990295,"latitude":48.0453186},"fuelLevel":0.82,"lastAddress":"Gistlstraße 159, 82049 Pullach im Isartal, Germany"}
{"timestamp":"2016-10-28T23:20:00+0200","id":124009,"name":"Ludwig","coordinate":{"longitude":11.57629395,"latitude":48.16699219},"fuelLevel":0.76,"lastAddress":"Karl-Theodor-Straße 72, 80803 München, Germany"}
{"timestamp":"2016-10-28T23:20:00+0200","id":124007,"name":"Jakob","coordinate":{"longitude":11.57443237,"latitude":48.16438293},"fuelLevel":0.84,"lastAddress":"Belgradstraße 34, 80796 München, Germany"}