{"timestamp":"2016-11-03T03:35:00+0100","id":124044,"name":"Uschi","coordinate":{"longitude":11.57139587,"latitude":48.13220215},"fuelLevel":0.5902777777777778,"lastAddress":"Blumenstraße 28-30, 80331 München, Germany"}
{"timestamp":"2016-11-03T03:35:00+0100","id":124024,"name":"Christl","coordinate":{"longitude":11.57258606,"latitude":48.13049316},"fuelLevel":0.82,"lastAddress":"Jahnstraße 1, 80469 München, Germany"}
{"timestamp":"2016-11-03T03:35:00+0100","id":124040,"name":"Reserl","coordinate":{"longitude":11.57269287,"latitude":48.13319397},"fuelLevel":0.62,"lastAddress":"Blumenstraße 28, 80331 München, Germany"}
{"timestamp":"2016-11-03T03:35:00+0100","id":124021,"name":"Xaver","coordinate":{"longitude":11.57200623,"latitude":48.1309967},"fuelLevel":0.88,"lastAddress":"Fraunhoferstraße 5, 80469 München, Germany"}
{"timestamp":"2016-11-03T03:35:00+0100","id":124014,"name":"Quirin","coordinate":{"longitude":11.60070801,"latitude":48.13150024},"fuelLevel":0.87,"lastAddress":"Metzstraße 38, 81667 München, Germany"}
{"timestamp":"2016-11-03T03:35:00+0100","id":124034,"name":"Kathi","coordinate":{"longitude":11.59809875,"latitude":48.13249207},"fuelLevel":0.86,"lastAddress":"Preysingstraße 43, 81667 München, Germany"}
{"timestamp":"2016-11-03T03:35:00+0100","id":124030,"name":"Hedwig","coordinate":{"longitude":11.56088257,"latitude":48.12559509},"fuelLevel":0.7799999999999999,"lastAddress":"Maistraße 73, 80337 München, Germany"}
{"timestamp":"2016-11-03T03:35:00+0100","id":124013,"name":"Poldi","coordinate":{"longitude":11.59029961,"latitude":48.12540054},"fuelLevel":0.86,"lastAddress":"Franziskanerstraße 43, 81669 München, Germany"}
{"timestamp":"2016-11-03T03:35:00+0100","id":124019,"name":"Valentin","coordinate":{"longitude":11.58190918,"latitude":48.1210022},"fuelLevel":0.6499999999999999,"lastAddress":"Hochstraße 81, 81541 München, Germany"}
{"timestamp":"2016-11-03T03:35:00+0100","id":124035,"name":"Leonie","coordinate":{"longitude":11.58569336,"latitude":48.12971497},"fuelLevel":0.5499999999999999,"lastAddress":"Zeppelinstraße 65, 81669 München, Germany"}
{"timestamp":"2016-11-03T03:35:00+0100","id":124006,"name":"Gustl","coordinate":{"longitude":11.57879639,"latitude":48.12361145},"fuelLevel":0.7100000000000001,"lastAddress":"Entenbachstraße 15, 81541 München, Germany"}
{"timestamp":"2016-11-03T03:35:00+0100","id":124020,"name":"Vinzenz","coordinate":{"longitude":11.57420349,"latitude":48.11999512},"fuelLevel":0.56,"lastAddress":"Humboldtstraße 23, 81543 München, Germany"}
{"timestamp":"2016-11-03T03:35:00+0100","id":124049,"name":"Marei","coordinate":{"longitude":11.57919312,"latitude":48.12458801},"fuelLevel":0.62,"lastAddress":"Boosstraße 17, 81541 München, Germany"}
{"timestamp":"2016-11-03T03:35:00+0100","id":124012,"name":"Peter","coordinate":{"longitude":11.55659485,"latitude":48.15478516},"fuelLevel":0.8800000000000001,"lastAddress":"Heßstraße 108, 80797 München, Germany"}
{"timestamp":"2016-11-03T03:35:00+0100","id":124031,"name":"Heidi","coordinate":{"longitude":11.5697937,"latitude":48.1493988},"fuelLevel":0.6388888888888888,"lastAddress":"Theresienstraße 90, 80333 München, Germany"}
{"timestamp":"2016-11-03T03:35:00+0100","id":124047,"name":"Walli","coordinate":{"longitude":11.56608582,"latitude":48.14950562},"fuelLevel":0.8500000000000001,"lastAddress":"Luisenstraße 47, 80333 München, Germany"}
{"timestamp":"2016-11-03T03:35:00+0100","id":124002,"name":"Ferdl","coordinate":{"longitude":11.56350708,"latitude":48.14970398},"fuelLevel":0.7799999999999999,"lastAddress":"Augustenstraße 72, 80333 München, Germany"}
{"timestamp":"2016-11-03T03:35:00+0100","id":124032,"name":"Irmi","coordinate":{"longitude":11.5749054,"latitude":48.15888977},"fuelLevel":0.57,"lastAddress":"Nordendstraße 62-64, 80801 München, Germany"}
{"timestamp":"2016-11-03T03:35:00+0100","id":124017,"name":"Siggi","coordinate":{"longitude":11.57107544,"latitude":48.1595459},"fuelLevel":0.54,"lastAddress":"Jakob-Klar-Straße 5, 80796 München, Germany"}