{"timestamp":"2016-10-02T15:35:00+0200","id":124041,"name":"Sophie","coordinate":{"longitude":11.5777998,"latitude":48.14960098},"fuelLevel":0.93,"lastAddress":"Amalienstraße 55, 80799 München, Germany"}
{"timestamp":"2016-10-02T15:35:00+0200","id":124026,"name":"Eva","coordinate":{"longitude":11.57859993,"latitude":48.15330124},"fuelLevel":0.61,"lastAddress":"Akademiestraße 4, 80799 München, Germany"}
{"timestamp":"2016-10-02T15:35:00+0200","id":124025,"name":"Elli","coordinate":{"longitude":11.57569981,"latitude":48.15190125},"fuelLevel":0.9500000000000001,"lastAddress":"Blütenstraße 9-11, 80799 München, Germany"}
{"timestamp":"2016-10-02T15:35:00+0200","id":124033,"name":"Johanna","coordinate":{"longitude":11.58160019,"latitude":48.15190125},"fuelLevel":0.84,"lastAddress":"Ludwigstraße 31, 80539 München, Germany"}
{"timestamp":"2016-10-02T15:35:00+0200","id":124036,"name":"Liesel","coordinate":{"longitude":11.57530022,"latitude":48.15629959},"fuelLevel":0.6699999999999999,"lastAddress":"Nordendstraße 36, 80801 München, Germany"}
{"timestamp":"2016-10-02T15:35:00+0200","id":124024,"name":"Christl","coordinate":{"longitude":11.57960033,"latitude":48.13410187},"fuelLevel":0.8,"lastAddress":"Zwingerstraße, 80469 München, Germany"}
{"timestamp":"2016-10-02T15:35:00+0200","id":124021,"name":"Xaver","coordinate":{"longitude":11.58049965,"latitude":48.13180161},"fuelLevel":0.52,"lastAddress":"Kohlstraße 4, 80469 München, Germany"}
{"timestamp":"2016-10-02T15:35:00+0200","id":124034,"name":"Kathi","coordinate":{"longitude":11.60509968,"latitude":48.13230133},"fuelLevel":0.67,"lastAddress":"Elsässer Str. 6, 81667 München, Germany"}
{"timestamp":"2016-10-02T15:35:00+0200","id":124023,"name":"Babsi","coordinate":{"longitude":11.56340027,"latitude":48.1269989},"fuelLevel":0.93,"lastAddress":"Thalkirchner Str. 54, 80337 München, Germany"}
{"timestamp":"2016-10-02T15:35:00+0200","id":124016,"name":"Sepp","coordinate":{"longitude":11.59850025,"latitude":48.12559891},"fuelLevel":0.9199999999999999,"lastAddress":"Rosenheimer Str. 102, 81669 München, Germany"}
{"timestamp":"2016-10-02T15:35:00+0200","id":124038,"name":"Magda","coordinate":{"longitude":11.60009956,"latitude":48.12889862},"fuelLevel":0.67,"lastAddress":"Sedanstraße 39, 81667 München, Germany"}
{"timestamp":"2016-10-02T15:35:00+0200","id":124022,"name":"Anne","coordinate":{"longitude":11.59669971,"latitude":48.12649918},"fuelLevel":0.8900000000000001,"lastAddress":"Pariser Str. 14-16, 81669 München, Germany"}
{"timestamp":"2016-10-02T15:35:00+0200","id":124000,"name":"Bertl","coordinate":{"longitude":11.59700012,"latitude":48.12950134},"fuelLevel":0.82,"lastAddress":"Kellerstraße 34-36, 81667 München, Germany"}
{"timestamp":"2016-10-02T15:35:00+0200","id":124013,"name":"Poldi","coordinate":{"longitude":11.59350014,"latitude":48.12779999},"fuelLevel":0.79,"lastAddress":"Franziskanerstraße 9, 81669 München, Germany"}
{"timestamp":"2016-10-02T15:35:00+0200","id":124011,"name":"Maxl","coordinate":{"longitude":11.59300041,"latitude":48.12590027},"fuelLevel":0.8099999999999999,"lastAddress":"Sieboldstraße 5, 81669 München, Germany"}
{"timestamp":"2016-10-02T15:35:00+0200","id":124003,"name":"Franzl","coordinate":{"longitude":11.59300041,"latitude":48.12730026},"fuelLevel":0.79,"lastAddress":"Franziskanerstraße 8, 81669 München, Germany"}
{"timestamp":"2016-10-02T15:35:00+0200","id":124010,"name":"Luitpold","coordinate":{"longitude":11.58600044,"latitude":48.12590027},"fuelLevel":0.88,"lastAddress":"Gebsattelstraße 2, 81541 München, Germany"}
{"timestamp":"2016-10-02T15:35:00+0200","id":124019,"name":"Valentin","coordinate":{"longitude":11.58479977,"latitude":48.12329865},"fuelLevel":0.9199999999999999,"lastAddress":"Hochstraße 51, 81541 München, Germany"}
{"timestamp":"2016-10-02T15:35:00+0200","id":124035,"name":"Leonie","coordinate":{"longitude":11.58539963,"latitude":48.12919998},"fuelLevel":0.7899999999999999,"lastAddress":"Schwarzstraße 2, 81669 München, Germany"}
{"timestamp":"2016-10-02T15:35:00+0200","id":124006,"name":"Gustl","coordinate":{"longitude":11.57750034,"latitude":48.12099838},"fuelLevel":0.9400000000000001,"lastAddress":"Falkenstraße 44, 81541 München, Germany"}
{"timestamp":"2016-10-02T15:35:00+0200","id":124020,"name":"Vinzenz","coordinate":{"longitude":11.57960033,"latitude":48.12450027},"fuelLevel":0.9099999999999999,"lastAddress":"Entenbachstraße 3, 81541 München, Germany"}
{"timestamp":"2016-10-02T15:35:00+0200","id":124049,"name":"Marei","coordinate":{"longitude":11.57400036,"latitude":48.12030029},"fuelLevel":0.7200000000000001,"lastAddress":"Oefelestraße 12, 81543 München, Germany"}
{"timestamp":"2016-10-02T15:35:00+0200","id":124045,"name":"Vroni","coordinate":{"longitude":11.56739998,"latitude":48.12770081},"fuelLevel":0.9199999999999999,"lastAddress":"Holzstraße 34, 80469 München, Germany"}
{"timestamp":"2016-10-02T15:35:00+0200","id":124018,"name":"Toni","coordinate":{"longitude":11.57009983,"latitude":48.13090134},"fuelLevel":0.9099999999999999,"lastAddress":"Müllerstraße 31, 80469 München, Germany"}
{"timestamp":"2016-10-02T15:35:00+0200","id":124012,"name":"Peter","coordinate":{"longitude":11.57260036,"latitude":48.15010071},"fuelLevel":1,"lastAddress":"Heßstraße 2, 80799 München, Germany"}
{"timestamp":"2016-10-02T15:35:00+0200","id":124004,"name":"Fridl","coordinate":{"longitude":11.56599998,"latitude":48.15650177},"fuelLevel":0.55,"lastAddress":"Hiltenspergerstraße 6, 80798 München, Germany"}
{"timestamp":"2016-10-02T15:35:00+0200","id":124031,"name":"Heidi","coordinate":{"longitude":11.56659985,"latitude":48.15029907},"fuelLevel":0.8,"lastAddress":"Theresienstraße 43, 80333 München, Germany"}
{"timestamp":"2016-10-02T15:35:00+0200","id":124002,"name":"Ferdl","coordinate":{"longitude":11.41139984,"latitude":47.82899857},"fuelLevel":0.9500000000000001,"lastAddress":"Klosterstraße 6, 82547 Eurasburg, Germany"}
{"timestamp":"2016-10-02T15:35:00+0200","id":124048,"name":"Wiggerl","coordinate":{"longitude":11.57890034,"latitude":48.16120148},"fuelLevel":0.68,"lastAddress":"Kaiserstraße 45, 80801 München, Germany"}
{"timestamp":"2016-10-02T15:35:00+0200","id":124028,"name":"Gitte","coordinate":{"longitude":11.57730007,"latitude":48.16009903},"fuelLevel":0.75,"lastAddress":"Römerstraße 17, 80801 München, Germany"}
{"timestamp":"2016-10-02T15:35:00+0200","id":124027,"name":"Fanni","coordinate":{"longitude":11.57789993,"latitude":48.1590004},"fuelLevel":0.7899999999999999,"lastAddress":"Ainmillerstraße 40, 80801 München, Germany"}
{"timestamp":"2016-10-02T15:35:00+0200","id":124005,"name":"Georg","coordinate":{"longitude":11.58170033,"latitude":48.1590004},"fuelLevel":0.66,"lastAddress":"Ainmillerstraße 18, 80801 München, Germany"}
{"timestamp":"2016-10-02T15:35:00+0200","id":124032,"name":"Irmi","coordinate":{"longitude":11.57269955,"latitude":48.15999985},"fuelLevel":0.64,"lastAddress":"Isabellastraße 45, 80796 München, Germany"}
{"timestamp":"2016-10-02T15:35:00+0200","id":124037,"name":"Luise","coordinate":{"longitude":11.56659985,"latitude":48.15779877},"fuelLevel":0.58,"lastAddress":"Agnesstraße 35, 80798 München, Germany"}
{"timestamp":"2016-10-02T15:35:00+0200","id":124017,"name":"Siggi","coordinate":{"longitude":11.57089996,"latitude":48.16080093},"fuelLevel":0.56,"lastAddress":"Hohenzollernstraße 79-81, 80796 München, Germany"}
{"timestamp":"2016-10-02T15:35:00+0200","id":124029,"name":"Hannah","coordinate":{"longitude":11.51019955,"latitude":48.04539871},"fuelLevel":0.71,"lastAddress":"Gistlstraße 159, 82049 Pullach im Isartal, Germany"}
{"timestamp":"2016-10-02T15:35:00+0200","id":124042,"name":"Tilli","coordinate":{"longitude":11.50959969,"latitude":48.04539871},"fuelLevel":0.77,"lastAddress":"Seitnerstraße 70, 82049 Pullach im Isartal, Germany"}
{"timestamp":"2016-10-02T15:35:00+0200","id":124009,"name":"Ludwig","coordinate":{"longitude":11.5848999,"latitude":48.16230011},"fuelLevel":0.8999999999999999,"lastAddress":"Herzogstraße 4, 80803 München, Germany"}
{"timestamp":"2016-10-02T15:35:00+0200","id":124007,"name":"Jakob","coordinate":{"longitude":11.5873003,"latitude":48.16389847},"fuelLevel":0.9500000000000001,"lastAddress":"Feilitzschstraße 3, 80802 München, Germany"}