{"timestamp":"2016-09-30T01:20:00+0200","id":124041,"name":"Sophie","coordinate":{"longitude":11.57800007,"latitude":48.14979935},"fuelLevel":0.93,"lastAddress":"Amalienstraße 57, 80799 München, Germany"}
{"timestamp":"2016-09-30T01:20:00+0200","id":124026,"name":"Eva","coordinate":{"longitude":11.57800007,"latitude":48.15449905},"fuelLevel":0.61,"lastAddress":"Georgenstraße 23, 80799 München, Germany"}
{"timestamp":"2016-09-30T01:20:00+0200","id":124025,"name":"Elli","coordinate":{"longitude":11.57600021,"latitude":48.15499878},"fuelLevel":0.77,"lastAddress":"Georgenstraße 37, 80799 München, Germany"}
{"timestamp":"2016-09-30T01:20:00+0200","id":124033,"name":"Johanna","coordinate":{"longitude":11.58110046,"latitude":48.15250015},"fuelLevel":0.88,"lastAddress":"Akademiestraße 5, 80799 München, Germany"}
{"timestamp":"2016-09-30T01:20:00+0200","id":124036,"name":"Liesel","coordinate":{"longitude":11.57489967,"latitude":48.15629959},"fuelLevel":0.6699999999999999,"lastAddress":"Nordendstraße 29, 80801 München, Germany"}
{"timestamp":"2016-09-30T01:20:00+0200","id":124024,"name":"Christl","coordinate":{"longitude":11.57940006,"latitude":48.13380051},"fuelLevel":0.8,"lastAddress":"Klenzestraße 2, 80469 München, Germany"}
{"timestamp":"2016-09-30T01:20:00+0200","id":124040,"name":"Reserl","coordinate":{"longitude":11.57890034,"latitude":48.13079834},"fuelLevel":0.79,"lastAddress":"Baaderstraße 25, 80469 München, Germany"}
{"timestamp":"2016-09-30T01:20:00+0200","id":124021,"name":"Xaver","coordinate":{"longitude":11.58010006,"latitude":48.13199997},"fuelLevel":0.52,"lastAddress":"Baaderstraße 22, 80469 München, Germany"}
{"timestamp":"2016-09-30T01:20:00+0200","id":124034,"name":"Kathi","coordinate":{"longitude":11.60490036,"latitude":48.13230133},"fuelLevel":0.67,"lastAddress":"Elsässer Str. 6, 81667 München, Germany"}
{"timestamp":"2016-09-30T01:20:00+0200","id":124030,"name":"Hedwig","coordinate":{"longitude":11.56739998,"latitude":48.13190079},"fuelLevel":0.89,"lastAddress":"Pestalozzistraße 6, 80469 München, Germany"}
{"timestamp":"2016-09-30T01:20:00+0200","id":124023,"name":"Babsi","coordinate":{"longitude":11.5635004,"latitude":48.12730026},"fuelLevel":0.93,"lastAddress":"Thalkirchner Str. 54, 80337 München, Germany"}
{"timestamp":"2016-09-30T01:20:00+0200","id":124016,"name":"Sepp","coordinate":{"longitude":11.59860039,"latitude":48.12580109},"fuelLevel":0.9199999999999999,"lastAddress":"Rosenheimer Str. 125, 81667 München, Germany"}
{"timestamp":"2016-09-30T01:20:00+0200","id":124038,"name":"Magda","coordinate":{"longitude":11.6001997,"latitude":48.12810135},"fuelLevel":0.76,"lastAddress":"Gravelottestraße 1, 81667 München, Germany"}
{"timestamp":"2016-09-30T01:20:00+0200","id":124022,"name":"Anne","coordinate":{"longitude":11.59679985,"latitude":48.12659836},"fuelLevel":0.8900000000000001,"lastAddress":"Rosenheimer Str. 90, 81669 München, Germany"}
{"timestamp":"2016-09-30T01:20:00+0200","id":124000,"name":"Bertl","coordinate":{"longitude":11.59469986,"latitude":48.12990189},"fuelLevel":0.84,"lastAddress":"Steinstraße 58, 81667 München, Germany"}
{"timestamp":"2016-09-30T01:20:00+0200","id":124013,"name":"Poldi","coordinate":{"longitude":11.59420013,"latitude":48.12789917},"fuelLevel":0.79,"lastAddress":"Balanstraße 2, 81669 München, Germany"}
{"timestamp":"2016-09-30T01:20:00+0200","id":124011,"name":"Maxl","coordinate":{"longitude":11.5927,"latitude":48.12590027},"fuelLevel":0.8099999999999999,"lastAddress":"Sieboldstraße 2, 81669 München, Germany"}
{"timestamp":"2016-09-30T01:20:00+0200","id":124003,"name":"Franzl","coordinate":{"longitude":11.59290028,"latitude":48.12730026},"fuelLevel":0.79,"lastAddress":"Rablstraße 37, 81669 München, Germany"}
{"timestamp":"2016-09-30T01:20:00+0200","id":124010,"name":"Luitpold","coordinate":{"longitude":11.58590031,"latitude":48.12590027},"fuelLevel":0.88,"lastAddress":"Gebsattelstraße 2, 81541 München, Germany"}
{"timestamp":"2016-09-30T01:20:00+0200","id":124019,"name":"Valentin","coordinate":{"longitude":11.5848999,"latitude":48.1242981},"fuelLevel":0.9199999999999999,"lastAddress":"Hochstraße 47, 81541 München, Germany"}
{"timestamp":"2016-09-30T01:20:00+0200","id":124035,"name":"Leonie","coordinate":{"longitude":11.58580017,"latitude":48.12919998},"fuelLevel":0.7899999999999999,"lastAddress":"Schwarzstraße 1, 81669 München, Germany"}
{"timestamp":"2016-09-30T01:20:00+0200","id":124006,"name":"Gustl","coordinate":{"longitude":11.57750034,"latitude":48.12099838},"fuelLevel":0.93,"lastAddress":"Falkenstraße 44, 81541 München, Germany"}
{"timestamp":"2016-09-30T01:20:00+0200","id":124020,"name":"Vinzenz","coordinate":{"longitude":11.5788002,"latitude":48.12360001},"fuelLevel":0.9099999999999999,"lastAddress":"Entenbachstraße 15, 81541 München, Germany"}
{"timestamp":"2016-09-30T01:20:00+0200","id":124049,"name":"Marei","coordinate":{"longitude":11.57400036,"latitude":48.12009811},"fuelLevel":0.7200000000000001,"lastAddress":"Humboldtstraße 22, 81543 München, Germany"}
{"timestamp":"2016-09-30T01:20:00+0200","id":124045,"name":"Vroni","coordinate":{"longitude":11.56760025,"latitude":48.12739944},"fuelLevel":0.9199999999999999,"lastAddress":"Holzstraße 45, 80469 München, Germany"}
{"timestamp":"2016-09-30T01:20:00+0200","id":124018,"name":"Toni","coordinate":{"longitude":11.57279968,"latitude":48.12950134},"fuelLevel":0.9299999999999999,"lastAddress":"Klenzestraße 57, 80469 München, Germany"}
{"timestamp":"2016-09-30T01:20:00+0200","id":124012,"name":"Peter","coordinate":{"longitude":11.57250023,"latitude":48.14979935},"fuelLevel":1,"lastAddress":"Barer Str. 48-50, 80799 München, Germany"}
{"timestamp":"2016-09-30T01:20:00+0200","id":124004,"name":"Fridl","coordinate":{"longitude":11.56659985,"latitude":48.15629959},"fuelLevel":0.55,"lastAddress":"Josephspl. 8, 80798 München, Germany"}
{"timestamp":"2016-09-30T01:20:00+0200","id":124031,"name":"Heidi","coordinate":{"longitude":11.56649971,"latitude":48.15039825},"fuelLevel":0.8,"lastAddress":"Theresienstraße 43, 80333 München, Germany"}
{"timestamp":"2016-09-30T01:20:00+0200","id":124002,"name":"Ferdl","coordinate":{"longitude":11.5642004,"latitude":48.15100098},"fuelLevel":0.9500000000000001,"lastAddress":"Augustenstraße 84, 80333 München, Germany"}
{"timestamp":"2016-09-30T01:20:00+0200","id":124048,"name":"Wiggerl","coordinate":{"longitude":11.57719994,"latitude":48.15930176},"fuelLevel":0.7200000000000001,"lastAddress":"Römerstraße 9, 80801 München, Germany"}
{"timestamp":"2016-09-30T01:20:00+0200","id":124028,"name":"Gitte","coordinate":{"longitude":11.57999992,"latitude":48.15969849},"fuelLevel":0.77,"lastAddress":"Friedrichstraße 25, 80801 München, Germany"}
{"timestamp":"2016-09-30T01:20:00+0200","id":124027,"name":"Fanni","coordinate":{"longitude":11.57719994,"latitude":48.15969849},"fuelLevel":0.8099999999999999,"lastAddress":"Römerstraße 15, 80801 München, Germany"}
{"timestamp":"2016-09-30T01:20:00+0200","id":124005,"name":"Georg","coordinate":{"longitude":11.58119965,"latitude":48.15879822},"fuelLevel":0.69,"lastAddress":"Ainmillerstraße 20, 80801 München, Germany"}
{"timestamp":"2016-09-30T01:20:00+0200","id":124001,"name":"Edmund","coordinate":{"longitude":11.57789993,"latitude":48.15779877},"fuelLevel":0.62,"lastAddress":"Franz-Joseph-Straße 35, 80801 München, Germany"}
{"timestamp":"2016-09-30T01:20:00+0200","id":124032,"name":"Irmi","coordinate":{"longitude":11.57310009,"latitude":48.16059875},"fuelLevel":0.64,"lastAddress":"Hohenzollernstraße 102, 80796 München, Germany"}
{"timestamp":"2016-09-30T01:20:00+0200","id":124037,"name":"Luise","coordinate":{"longitude":11.56669998,"latitude":48.15810013},"fuelLevel":0.9027777777777778,"lastAddress":"Agnesstraße 38, 80798 München, Germany"}
{"timestamp":"2016-09-30T01:20:00+0200","id":124017,"name":"Siggi","coordinate":{"longitude":11.5710001,"latitude":48.16049957},"fuelLevel":0.56,"lastAddress":"Jakob-Klar-Straße 11, 80796 München, Germany"}
{"timestamp":"2016-09-30T01:20:00+0200","id":124029,"name":"Hannah","coordinate":{"longitude":11.51000023,"latitude":48.04539871},"fuelLevel":0.7,"lastAddress":"Gistlstraße 159, 82049 Pullach im Isartal, Germany"}
{"timestamp":"2016-09-30T01:20:00+0200","id":124042,"name":"Tilli","coordinate":{"longitude":11.50979996,"latitude":48.04539871},"fuelLevel":0.77,"lastAddress":"Seitnerstraße 70, 82049 Pullach im Isartal, Germany"}
{"timestamp":"2016-09-30T01:20:00+0200","id":124009,"name":"Ludwig","coordinate":{"longitude":11.5848999,"latitude":48.16210175},"fuelLevel":0.89,"lastAddress":"Herzogstraße 4, 80803 München, Germany"}
{"timestamp":"2016-09-30T01:20:00+0200","id":124007,"name":"Jakob","coordinate":{"longitude":11.58619976,"latitude":48.16379929},"fuelLevel":0.9500000000000001,"lastAddress":"Leopoldstraße 85, 80802 München, Germany"}