{"timestamp":"2016-09-27T14:05:00+0200","id":124041,"name":"Sophie","coordinate":{"longitude":11.57769966,"latitude":48.15010071},"fuelLevel":0.93,"lastAddress":"Schellingstraße 18, 80799 München, Germany"}
{"timestamp":"2016-09-27T14:05:00+0200","id":124026,"name":"Eva","coordinate":{"longitude":11.57830048,"latitude":48.15359879},"fuelLevel":0.61,"lastAddress":"Türkenstraße 95, 80799 München, Germany"}
{"timestamp":"2016-09-27T14:05:00+0200","id":124025,"name":"Elli","coordinate":{"longitude":11.5781002,"latitude":48.15309906},"fuelLevel":0.85,"lastAddress":"Akademiestraße 4-25, 80799 München, Germany"}
{"timestamp":"2016-09-27T14:05:00+0200","id":124033,"name":"Johanna","coordinate":{"longitude":11.5795002,"latitude":48.15639877},"fuelLevel":0.89,"lastAddress":"Friedrichstraße 11, 80801 München, Germany"}
{"timestamp":"2016-09-27T14:05:00+0200","id":124036,"name":"Liesel","coordinate":{"longitude":11.57509995,"latitude":48.15629959},"fuelLevel":0.6699999999999999,"lastAddress":"Nordendstraße 29, 80801 München, Germany"}
{"timestamp":"2016-09-27T14:05:00+0200","id":124044,"name":"Uschi","coordinate":{"longitude":11.57579994,"latitude":48.13010025},"fuelLevel":0.51,"lastAddress":"Reichenbachstraße 24, 80469 München, Germany"}
{"timestamp":"2016-09-27T14:05:00+0200","id":124024,"name":"Christl","coordinate":{"longitude":11.58080006,"latitude":48.13230133},"fuelLevel":0.83,"lastAddress":"Baaderstraße 9B, 80469 München, Germany"}
{"timestamp":"2016-09-27T14:05:00+0200","id":124021,"name":"Xaver","coordinate":{"longitude":11.58049965,"latitude":48.13190079},"fuelLevel":0.52,"lastAddress":"Kohlstraße 4, 80469 München, Germany"}
{"timestamp":"2016-09-27T14:05:00+0200","id":124014,"name":"Quirin","coordinate":{"longitude":11.60919952,"latitude":48.12620163},"fuelLevel":0.62,"lastAddress":"Haager Str. 12-14, 81671 München, Germany"}
{"timestamp":"2016-09-27T14:05:00+0200","id":124034,"name":"Kathi","coordinate":{"longitude":11.60499954,"latitude":48.13230133},"fuelLevel":0.67,"lastAddress":"Elsässer Str. 6, 81667 München, Germany"}
{"timestamp":"2016-09-27T14:05:00+0200","id":124030,"name":"Hedwig","coordinate":{"longitude":11.5625,"latitude":48.1269989},"fuelLevel":0.9099999999999999,"lastAddress":"Thalkirchner Str. 64, 80337 München, Germany"}
{"timestamp":"2016-09-27T14:05:00+0200","id":124000,"name":"Bertl","coordinate":{"longitude":11.59500027,"latitude":48.12939835},"fuelLevel":0.8500000000000001,"lastAddress":"Steinstraße 79, 81667 München, Germany"}
{"timestamp":"2016-09-27T14:05:00+0200","id":124013,"name":"Poldi","coordinate":{"longitude":11.59560013,"latitude":48.12730026},"fuelLevel":0.83,"lastAddress":"Rosenheimer Str. 74, 81669 München, Germany"}
{"timestamp":"2016-09-27T14:05:00+0200","id":124011,"name":"Maxl","coordinate":{"longitude":11.59189987,"latitude":48.12639999},"fuelLevel":0.8099999999999999,"lastAddress":"Franziskanerstraße 14, 81669 München, Germany"}
{"timestamp":"2016-09-27T14:05:00+0200","id":124003,"name":"Franzl","coordinate":{"longitude":11.58940029,"latitude":48.125},"fuelLevel":0.88,"lastAddress":"Franziskanerstraße 49, 81669 München, Germany"}
{"timestamp":"2016-09-27T14:05:00+0200","id":124010,"name":"Luitpold","coordinate":{"longitude":11.58600044,"latitude":48.12590027},"fuelLevel":0.88,"lastAddress":"Gebsattelstraße 2, 81541 München, Germany"}
{"timestamp":"2016-09-27T14:05:00+0200","id":124019,"name":"Valentin","coordinate":{"longitude":11.58500004,"latitude":48.12350082},"fuelLevel":0.9199999999999999,"lastAddress":"Hochstraße 49C, 81541 München, Germany"}
{"timestamp":"2016-09-27T14:05:00+0200","id":124035,"name":"Leonie","coordinate":{"longitude":11.58570004,"latitude":48.12919998},"fuelLevel":0.7899999999999999,"lastAddress":"Schwarzstraße 2, 81669 München, Germany"}
{"timestamp":"2016-09-27T14:05:00+0200","id":124006,"name":"Gustl","coordinate":{"longitude":11.5777998,"latitude":48.12120056},"fuelLevel":0.93,"lastAddress":"Falkenstraße 42A, 81541 München, Germany"}
{"timestamp":"2016-09-27T14:05:00+0200","id":124049,"name":"Marei","coordinate":{"longitude":11.57429981,"latitude":48.12009811},"fuelLevel":0.7200000000000001,"lastAddress":"Oefelestraße 5, 81543 München, Germany"}
{"timestamp":"2016-09-27T14:05:00+0200","id":124045,"name":"Vroni","coordinate":{"longitude":11.56709957,"latitude":48.12799835},"fuelLevel":0.9199999999999999,"lastAddress":"Pestalozzistraße 52, 80469 München, Germany"}
{"timestamp":"2016-09-27T14:05:00+0200","id":124018,"name":"Toni","coordinate":{"longitude":11.56910038,"latitude":48.12659836},"fuelLevel":0.9500000000000001,"lastAddress":"Jahnstraße 45, 80469 München, Germany"}
{"timestamp":"2016-09-27T14:05:00+0200","id":124012,"name":"Peter","coordinate":{"longitude":11.57269955,"latitude":48.15000153},"fuelLevel":1,"lastAddress":"Barer Str. 52, 80799 München, Germany"}
{"timestamp":"2016-09-27T14:05:00+0200","id":124031,"name":"Heidi","coordinate":{"longitude":11.56649971,"latitude":48.14799881},"fuelLevel":0.8500000000000001,"lastAddress":"Gabelsbergerstraße 49, 80333 München, Germany"}
{"timestamp":"2016-09-27T14:05:00+0200","id":124048,"name":"Wiggerl","coordinate":{"longitude":11.57699966,"latitude":48.15909958},"fuelLevel":0.7200000000000001,"lastAddress":"Ainmillerstraße 44, 80801 München, Germany"}
{"timestamp":"2016-09-27T14:05:00+0200","id":124028,"name":"Gitte","coordinate":{"longitude":11.58100033,"latitude":48.15750122},"fuelLevel":0.81,"lastAddress":"Franz-Joseph-Straße 17, 80801 München, Germany"}
{"timestamp":"2016-09-27T14:05:00+0200","id":124027,"name":"Fanni","coordinate":{"longitude":11.57789993,"latitude":48.15909958},"fuelLevel":0.85,"lastAddress":"Ainmillerstraße 40, 80801 München, Germany"}
{"timestamp":"2016-09-27T14:05:00+0200","id":124005,"name":"Georg","coordinate":{"longitude":11.58110046,"latitude":48.15879822},"fuelLevel":0.69,"lastAddress":"Ainmillerstraße 22, 80801 München, Germany"}
{"timestamp":"2016-09-27T14:05:00+0200","id":124032,"name":"Irmi","coordinate":{"longitude":11.57269955,"latitude":48.16019821},"fuelLevel":0.64,"lastAddress":"Isabellastraße 47, 80796 München, Germany"}
{"timestamp":"2016-09-27T14:05:00+0200","id":124017,"name":"Siggi","coordinate":{"longitude":11.57120037,"latitude":48.16109848},"fuelLevel":0.56,"lastAddress":"Hohenzollernstraße 112, 80796 München, Germany"}
{"timestamp":"2016-09-27T14:05:00+0200","id":124029,"name":"Hannah","coordinate":{"longitude":11.51010036,"latitude":48.04539871},"fuelLevel":0.7,"lastAddress":"Gistlstraße 159, 82049 Pullach im Isartal, Germany"}
{"timestamp":"2016-09-27T14:05:00+0200","id":124042,"name":"Tilli","coordinate":{"longitude":11.50949955,"latitude":48.04539871},"fuelLevel":0.84,"lastAddress":"Seitnerstraße 70, 82049 Pullach im Isartal, Germany"}
{"timestamp":"2016-09-27T14:05:00+0200","id":124039,"name":"Marie","coordinate":{"longitude":11.50959969,"latitude":48.04570007},"fuelLevel":0.89,"lastAddress":"Seitnerstraße 70, 82049 Pullach im Isartal, Germany"}
{"timestamp":"2016-09-27T14:05:00+0200","id":124009,"name":"Ludwig","coordinate":{"longitude":11.57820034,"latitude":48.16400146},"fuelLevel":0.9400000000000001,"lastAddress":"Cherubinistraße 2, 80803 München, Germany"}
{"timestamp":"2016-09-27T14:05:00+0200","id":124007,"name":"Jakob","coordinate":{"longitude":11.5862999,"latitude":48.16379929},"fuelLevel":0.9500000000000001,"lastAddress":"Leopoldstraße 85, 80802 München, Germany"}