{"timestamp":"2016-09-28T20:15:00+0200","id":124041,"name":"Sophie","coordinate":{"longitude":11.57759953,"latitude":48.14970016},"fuelLevel":0.93,"lastAddress":"Schellingstraße 11, 80799 München, Germany"}
{"timestamp":"2016-09-28T20:15:00+0200","id":124026,"name":"Eva","coordinate":{"longitude":11.57800007,"latitude":48.15359879},"fuelLevel":0.61,"lastAddress":"Türkenstraße 95, 80799 München, Germany"}
{"timestamp":"2016-09-28T20:15:00+0200","id":124025,"name":"Elli","coordinate":{"longitude":11.5781002,"latitude":48.15309906},"fuelLevel":0.85,"lastAddress":"Akademiestraße 4-25, 80799 München, Germany"}
{"timestamp":"2016-09-28T20:15:00+0200","id":124033,"name":"Johanna","coordinate":{"longitude":11.57960033,"latitude":48.15650177},"fuelLevel":0.89,"lastAddress":"Friedrichstraße 13, 80801 München, Germany"}
{"timestamp":"2016-09-28T20:15:00+0200","id":124036,"name":"Liesel","coordinate":{"longitude":11.57530022,"latitude":48.15629959},"fuelLevel":0.6699999999999999,"lastAddress":"Nordendstraße 36, 80801 München, Germany"}
{"timestamp":"2016-09-28T20:15:00+0200","id":124044,"name":"Uschi","coordinate":{"longitude":11.57600021,"latitude":48.12990189},"fuelLevel":0.51,"lastAddress":"Reichenbachstraße 37, 80469 München, Germany"}
{"timestamp":"2016-09-28T20:15:00+0200","id":124024,"name":"Christl","coordinate":{"longitude":11.57940006,"latitude":48.13370132},"fuelLevel":0.8,"lastAddress":"Klenzestraße 1A, 80469 München, Germany"}
{"timestamp":"2016-09-28T20:15:00+0200","id":124040,"name":"Reserl","coordinate":{"longitude":11.58250046,"latitude":48.13209915},"fuelLevel":0.9099999999999999,"lastAddress":"Morassistraße 14, 80469 München, Germany"}
{"timestamp":"2016-09-28T20:15:00+0200","id":124021,"name":"Xaver","coordinate":{"longitude":11.58080006,"latitude":48.13209915},"fuelLevel":0.52,"lastAddress":"Kohlstraße 3, 80469 München, Germany"}
{"timestamp":"2016-09-28T20:15:00+0200","id":124014,"name":"Quirin","coordinate":{"longitude":11.6093998,"latitude":48.12559891},"fuelLevel":0.62,"lastAddress":"Haager Str. 11, 81671 München, Germany"}
{"timestamp":"2016-09-28T20:15:00+0200","id":124034,"name":"Kathi","coordinate":{"longitude":11.60499954,"latitude":48.13180161},"fuelLevel":0.67,"lastAddress":"Elsässer Str. 9, 81667 München, Germany"}
{"timestamp":"2016-09-28T20:15:00+0200","id":124030,"name":"Hedwig","coordinate":{"longitude":11.56739998,"latitude":48.1310997},"fuelLevel":0.89,"lastAddress":"Pestalozzistraße 9-11, 80469 München, Germany"}
{"timestamp":"2016-09-28T20:15:00+0200","id":124023,"name":"Babsi","coordinate":{"longitude":11.5635004,"latitude":48.1271019},"fuelLevel":0.93,"lastAddress":"Thalkirchner Str. 54, 80337 München, Germany"}
{"timestamp":"2016-09-28T20:15:00+0200","id":124038,"name":"Magda","coordinate":{"longitude":11.60009956,"latitude":48.12820053},"fuelLevel":0.76,"lastAddress":"Pariser Pl., 81667 München, Germany"}
{"timestamp":"2016-09-28T20:15:00+0200","id":124022,"name":"Anne","coordinate":{"longitude":11.59669971,"latitude":48.12670135},"fuelLevel":0.8900000000000001,"lastAddress":"Rosenheimer Str. 88, 81669 München, Germany"}
{"timestamp":"2016-09-28T20:15:00+0200","id":124000,"name":"Bertl","coordinate":{"longitude":11.5948,"latitude":48.12969971},"fuelLevel":0.8500000000000001,"lastAddress":"Steinstraße 62, 81667 München, Germany"}
{"timestamp":"2016-09-28T20:15:00+0200","id":124013,"name":"Poldi","coordinate":{"longitude":11.59529972,"latitude":48.1271019},"fuelLevel":0.83,"lastAddress":"Balanstraße 15, 81669 München, Germany"}
{"timestamp":"2016-09-28T20:15:00+0200","id":124011,"name":"Maxl","coordinate":{"longitude":11.5927,"latitude":48.12620163},"fuelLevel":0.8099999999999999,"lastAddress":"Simon-Knoll-Platz 3, 81669 München, Germany"}
{"timestamp":"2016-09-28T20:15:00+0200","id":124010,"name":"Luitpold","coordinate":{"longitude":11.5855999,"latitude":48.12599945},"fuelLevel":0.88,"lastAddress":"Gebsattelstraße 2, 81541 München, Germany"}
{"timestamp":"2016-09-28T20:15:00+0200","id":124019,"name":"Valentin","coordinate":{"longitude":11.58520031,"latitude":48.12350082},"fuelLevel":0.9199999999999999,"lastAddress":"Hochstraße 49C, 81541 München, Germany"}
{"timestamp":"2016-09-28T20:15:00+0200","id":124035,"name":"Leonie","coordinate":{"longitude":11.58580017,"latitude":48.12919998},"fuelLevel":0.7899999999999999,"lastAddress":"Schwarzstraße 1, 81669 München, Germany"}
{"timestamp":"2016-09-28T20:15:00+0200","id":124006,"name":"Gustl","coordinate":{"longitude":11.5770998,"latitude":48.12239838},"fuelLevel":0.93,"lastAddress":"Entenbachstraße 34C, 81541 München, Germany"}
{"timestamp":"2016-09-28T20:15:00+0200","id":124020,"name":"Vinzenz","coordinate":{"longitude":11.57970047,"latitude":48.1230011},"fuelLevel":0.9299999999999999,"lastAddress":"Falkenstraße 18, 81541 München, Germany"}
{"timestamp":"2016-09-28T20:15:00+0200","id":124049,"name":"Marei","coordinate":{"longitude":11.57409954,"latitude":48.11999893},"fuelLevel":0.7200000000000001,"lastAddress":"Humboldtstraße 23, 81543 München, Germany"}
{"timestamp":"2016-09-28T20:15:00+0200","id":124045,"name":"Vroni","coordinate":{"longitude":11.56750011,"latitude":48.12770081},"fuelLevel":0.9199999999999999,"lastAddress":"Holzstraße 43, 80469 München, Germany"}
{"timestamp":"2016-09-28T20:15:00+0200","id":124018,"name":"Toni","coordinate":{"longitude":11.56910038,"latitude":48.12659836},"fuelLevel":0.9500000000000001,"lastAddress":"Jahnstraße 45, 80469 München, Germany"}
{"timestamp":"2016-09-28T20:15:00+0200","id":124004,"name":"Fridl","coordinate":{"longitude":11.56630039,"latitude":48.1568985},"fuelLevel":0.9500000000000001,"lastAddress":"Georgenstraße 116, 80798 München, Germany"}
{"timestamp":"2016-09-28T20:15:00+0200","id":124031,"name":"Heidi","coordinate":{"longitude":11.56659985,"latitude":48.14989853},"fuelLevel":0.8,"lastAddress":"Luisenstraße 53, 80333 München, Germany"}
{"timestamp":"2016-09-28T20:15:00+0200","id":124047,"name":"Walli","coordinate":{"longitude":11.5710001,"latitude":48.15589905},"fuelLevel":0.8999999999999999,"lastAddress":"Isabellastraße 8, 80798 München, Germany"}
{"timestamp":"2016-09-28T20:15:00+0200","id":124002,"name":"Ferdl","coordinate":{"longitude":11.56480026,"latitude":48.15110016},"fuelLevel":0.9500000000000001,"lastAddress":"Theresienstraße 122A, 80333 München, Germany"}
{"timestamp":"2016-09-28T20:15:00+0200","id":124048,"name":"Wiggerl","coordinate":{"longitude":11.57689953,"latitude":48.15930176},"fuelLevel":0.7200000000000001,"lastAddress":"Römerstraße 9, 80801 München, Germany"}
{"timestamp":"2016-09-28T20:15:00+0200","id":124028,"name":"Gitte","coordinate":{"longitude":11.57979965,"latitude":48.16009903},"fuelLevel":0.77,"lastAddress":"Hohenzollernstraße 44, 80801 München, Germany"}
{"timestamp":"2016-09-28T20:15:00+0200","id":124027,"name":"Fanni","coordinate":{"longitude":11.57719994,"latitude":48.15969849},"fuelLevel":0.8099999999999999,"lastAddress":"Römerstraße 15, 80801 München, Germany"}
{"timestamp":"2016-09-28T20:15:00+0200","id":124005,"name":"Georg","coordinate":{"longitude":11.58119965,"latitude":48.15890121},"fuelLevel":0.69,"lastAddress":"Ainmillerstraße 20, 80801 München, Germany"}
{"timestamp":"2016-09-28T20:15:00+0200","id":124032,"name":"Irmi","coordinate":{"longitude":11.57320023,"latitude":48.15999985},"fuelLevel":0.64,"lastAddress":"Isabellastraße 42, 80796 München, Germany"}
{"timestamp":"2016-09-28T20:15:00+0200","id":124037,"name":"Luise","coordinate":{"longitude":11.56550026,"latitude":48.15969849},"fuelLevel":0.9400000000000001,"lastAddress":"Elisabethstraße 52, 80796 München, Germany"}
{"timestamp":"2016-09-28T20:15:00+0200","id":124017,"name":"Siggi","coordinate":{"longitude":11.5710001,"latitude":48.16080093},"fuelLevel":0.56,"lastAddress":"Hohenzollernstraße 112, 80796 München, Germany"}
{"timestamp":"2016-09-28T20:15:00+0200","id":124029,"name":"Hannah","coordinate":{"longitude":11.51039982,"latitude":48.04539871},"fuelLevel":0.7,"lastAddress":"Gistlstraße 159, 82049 Pullach im Isartal, Germany"}
{"timestamp":"2016-09-28T20:15:00+0200","id":124042,"name":"Tilli","coordinate":{"longitude":11.50959969,"latitude":48.04539871},"fuelLevel":0.77,"lastAddress":"Seitnerstraße 70, 82049 Pullach im Isartal, Germany"}
{"timestamp":"2016-09-28T20:15:00+0200","id":124009,"name":"Ludwig","coordinate":{"longitude":11.57769966,"latitude":48.16439819},"fuelLevel":0.9400000000000001,"lastAddress":"Cherubinistraße 5, 80803 München, Germany"}
{"timestamp":"2016-09-28T20:15:00+0200","id":124007,"name":"Jakob","coordinate":{"longitude":11.58609962,"latitude":48.16389847},"fuelLevel":0.9500000000000001,"lastAddress":"Leopoldstraße 87, 80802 München, Germany"}