{"timestamp":"2016-11-21T16:35:00+0100","id":124041,"name":"Sophie","coordinate":{"longitude":11.57891846,"latitude":48.15301514},"fuelLevel":0.5599999999999999,"lastAddress":"Akademiestraße 2, 80799 München, Germany"}
{"timestamp":"2016-11-21T16:35:00+0100","id":124026,"name":"Eva","coordinate":{"longitude":11.58128357,"latitude":48.15238953},"fuelLevel":0.75,"lastAddress":"Akademiestraße 3, 80799 München, Germany"}
{"timestamp":"2016-11-21T16:35:00+0100","id":124025,"name":"Elli","coordinate":{"longitude":11.58131409,"latitude":48.15249634},"fuelLevel":0.8400000000000001,"lastAddress":"Akademiestraße 3, 80799 München, Germany"}
{"timestamp":"2016-11-21T16:35:00+0100","id":124024,"name":"Christl","coordinate":{"longitude":11.57698059,"latitude":48.13276672},"fuelLevel":0.6499999999999999,"lastAddress":"Buttermelcherstraße 4, 80469 München, Germany"}
{"timestamp":"2016-11-21T16:35:00+0100","id":124040,"name":"Reserl","coordinate":{"longitude":11.57470036,"latitude":48.1291008},"fuelLevel":0.83,"lastAddress":"Fraunhoferstraße 31, 80469 München, Germany"}
{"timestamp":"2016-11-21T16:35:00+0100","id":124014,"name":"Quirin","coordinate":{"longitude":11.59921265,"latitude":48.13597107},"fuelLevel":0.6527777777777778,"lastAddress":"Einsteinstraße 3, 81675 München, Germany"}
{"timestamp":"2016-11-21T16:35:00+0100","id":124034,"name":"Kathi","coordinate":{"longitude":11.60380554,"latitude":48.13041687},"fuelLevel":0.83,"lastAddress":"Breisacher Str. 12, 81667 München, Germany"}
{"timestamp":"2016-11-21T16:35:00+0100","id":124030,"name":"Hedwig","coordinate":{"longitude":11.56130028,"latitude":48.12670135},"fuelLevel":0.86,"lastAddress":"Maistraße 44, 80337 München, Germany"}
{"timestamp":"2016-11-21T16:35:00+0100","id":124023,"name":"Babsi","coordinate":{"longitude":11.56478882,"latitude":48.1295929},"fuelLevel":0.5700000000000001,"lastAddress":"Winckelstraße, 80337 München, Germany"}
{"timestamp":"2016-11-21T16:35:00+0100","id":124000,"name":"Bertl","coordinate":{"longitude":11.59481812,"latitude":48.13110352},"fuelLevel":0.8999999999999999,"lastAddress":"Milchstraße 1, 81667 München, Germany"}
{"timestamp":"2016-11-21T16:35:00+0100","id":124013,"name":"Poldi","coordinate":{"longitude":11.58961487,"latitude":48.12498474},"fuelLevel":0.79,"lastAddress":"Franziskanerstraße 47, 81669 München, Germany"}
{"timestamp":"2016-11-21T16:35:00+0100","id":124003,"name":"Franzl","coordinate":{"longitude":11.58810425,"latitude":48.12539673},"fuelLevel":0.7200000000000001,"lastAddress":"Gebsattelstraße 16, 81541 München, Germany"}
{"timestamp":"2016-11-21T16:35:00+0100","id":124019,"name":"Valentin","coordinate":{"longitude":11.58200073,"latitude":48.12101746},"fuelLevel":0.64,"lastAddress":"Hochstraße 81, 81541 München, Germany"}
{"timestamp":"2016-11-21T16:35:00+0100","id":124035,"name":"Leonie","coordinate":{"longitude":11.58349609,"latitude":48.12770081},"fuelLevel":0.87,"lastAddress":"Zeppelinstraße 39, 81669 München, Germany"}
{"timestamp":"2016-11-21T16:35:00+0100","id":124006,"name":"Gustl","coordinate":{"longitude":11.57600403,"latitude":48.12098694},"fuelLevel":0.86,"lastAddress":"Kolumbusstraße 22, 81543 München, Germany"}
{"timestamp":"2016-11-21T16:35:00+0100","id":124020,"name":"Vinzenz","coordinate":{"longitude":11.57711792,"latitude":48.12322998},"fuelLevel":0.86,"lastAddress":"Schlotthauerstraße 13, 81541 München, Germany"}
{"timestamp":"2016-11-21T16:35:00+0100","id":124049,"name":"Marei","coordinate":{"longitude":11.57769775,"latitude":48.12039185},"fuelLevel":0.8999999999999999,"lastAddress":"Dollmannstraße 4, 81541 München, Germany"}
{"timestamp":"2016-11-21T16:35:00+0100","id":124018,"name":"Toni","coordinate":{"longitude":11.56921387,"latitude":48.12399292},"fuelLevel":0.56,"lastAddress":"Wittelsbacherstraße 10-11, 80469 München, Germany"}
{"timestamp":"2016-11-21T16:35:00+0100","id":124012,"name":"Peter","coordinate":{"longitude":11.5599823,"latitude":48.15499878},"fuelLevel":0.6,"lastAddress":"Schellingstraße 138, 80797 München, Germany"}
{"timestamp":"2016-11-21T16:35:00+0100","id":124004,"name":"Fridl","coordinate":{"longitude":11.55908203,"latitude":48.15390015},"fuelLevel":0.86,"lastAddress":"Heßstraße 79, 80797 München, Germany"}
{"timestamp":"2016-11-21T16:35:00+0100","id":124031,"name":"Heidi","coordinate":{"longitude":11.57020569,"latitude":48.14950562},"fuelLevel":0.51,"lastAddress":"Theresienstraße, 80333 München, Germany"}
{"timestamp":"2016-11-21T16:35:00+0100","id":124047,"name":"Walli","coordinate":{"longitude":11.56719971,"latitude":48.15078735},"fuelLevel":0.75,"lastAddress":"Luisenstraße 63, 80798 München, Germany"}
{"timestamp":"2016-11-21T16:35:00+0100","id":124002,"name":"Ferdl","coordinate":{"longitude":11.5639801,"latitude":48.15029907},"fuelLevel":0.8999999999999999,"lastAddress":"Augustenstraße 76, 80333 München, Germany"}
{"timestamp":"2016-11-21T16:35:00+0100","id":124048,"name":"Wiggerl","coordinate":{"longitude":11.57739258,"latitude":48.15898132},"fuelLevel":0.8,"lastAddress":"Ainmillerstraße 33, 80801 München, Germany"}
{"timestamp":"2016-11-21T16:35:00+0100","id":124028,"name":"Gitte","coordinate":{"longitude":11.57911682,"latitude":48.15802002},"fuelLevel":0.9099999999999999,"lastAddress":"Franz-Joseph-Straße 28, 80801 München, Germany"}
{"timestamp":"2016-11-21T16:35:00+0100","id":124027,"name":"Fanni","coordinate":{"longitude":11.58340454,"latitude":48.16088867},"fuelLevel":0.8800000000000001,"lastAddress":"Kaiserstraße 19, 80801 München, Germany"}
{"timestamp":"2016-11-21T16:35:00+0100","id":124001,"name":"Edmund","coordinate":{"longitude":11.58059692,"latitude":48.16088867},"fuelLevel":0.5599999999999999,"lastAddress":"Friedrichstraße 36, 80801 München, Germany"}
{"timestamp":"2016-11-21T16:35:00+0100","id":124032,"name":"Irmi","coordinate":{"longitude":11.5736084,"latitude":48.15670776},"fuelLevel":0.63,"lastAddress":"Arcisstraße 65, 80801 München, Germany"}
{"timestamp":"2016-11-21T16:35:00+0100","id":124037,"name":"Luise","coordinate":{"longitude":11.56230164,"latitude":48.1572876},"fuelLevel":0.55,"lastAddress":"Schleißheimer Str. 79, 80797 München, Germany"}
{"timestamp":"2016-11-21T16:35:00+0100","id":124017,"name":"Siggi","coordinate":{"longitude":11.5690918,"latitude":48.15939331},"fuelLevel":0.64,"lastAddress":"Tengstraße 31, 80796 München, Germany"}
{"timestamp":"2016-11-21T16:35:00+0100","id":124029,"name":"Hannah","coordinate":{"longitude":11.50961304,"latitude":48.04550171},"fuelLevel":0.89,"lastAddress":"Seitnerstraße 70, 82049 Pullach im Isartal, Germany"}
{"timestamp":"2016-11-21T16:35:00+0100","id":124039,"name":"Marie","coordinate":{"longitude":11.50570011,"latitude":48.04430008},"fuelLevel":0.76,"lastAddress":"Wolfratshauser Str. 138, 82049 Pullach im Isartal, Germany"}
{"timestamp":"2016-11-21T16:35:00+0100","id":124009,"name":"Ludwig","coordinate":{"longitude":11.58239746,"latitude":48.16560364},"fuelLevel":0.7200000000000001,"lastAddress":"Muffatstraße 8, 80803 München, Germany"}
{"timestamp":"2016-11-21T16:35:00+0100","id":124007,"name":"Jakob","coordinate":{"longitude":11.57652283,"latitude":48.16670227},"fuelLevel":0.6499999999999999,"lastAddress":"Karl-Theodor-Straße 63, 80803 München, Germany"}