{"timestamp":"2016-12-04T18:25:00+0100","id":124026,"name":"Eva","coordinate":{"longitude":11.58129883,"latitude":48.15231323},"fuelLevel":0.7200000000000001,"lastAddress":"Akademiestraße 3, 80799 München, Germany"}
{"timestamp":"2016-12-04T18:25:00+0100","id":124025,"name":"Elli","coordinate":{"longitude":11.57647705,"latitude":48.15290833},"fuelLevel":0.76,"lastAddress":"Kurfürstenstraße 1, 80799 München, Germany"}
{"timestamp":"2016-12-04T18:25:00+0100","id":124033,"name":"Johanna","coordinate":{"longitude":11.57940674,"latitude":48.15171814},"fuelLevel":0.67,"lastAddress":"Amalienstraße 56, 80799 München, Germany"}
{"timestamp":"2016-12-04T18:25:00+0100","id":124014,"name":"Quirin","coordinate":{"longitude":11.59759521,"latitude":48.13330078},"fuelLevel":0.89,"lastAddress":"Johannispl. 13, 81667 München, Germany"}
{"timestamp":"2016-12-04T18:25:00+0100","id":124038,"name":"Magda","coordinate":{"longitude":11.59939575,"latitude":48.12840271},"fuelLevel":0.67,"lastAddress":"Weißenburger Str. 31, 81667 München, Germany"}
{"timestamp":"2016-12-04T18:25:00+0100","id":124013,"name":"Poldi","coordinate":{"longitude":11.59170532,"latitude":48.12602234},"fuelLevel":0.75,"lastAddress":"Franziskanerstraße 16, 81669 München, Germany"}
{"timestamp":"2016-12-04T18:25:00+0100","id":124011,"name":"Maxl","coordinate":{"longitude":11.59230042,"latitude":48.126297},"fuelLevel":0.9400000000000001,"lastAddress":"Franziskanerstraße 14, 81669 München, Germany"}
{"timestamp":"2016-12-04T18:25:00+0100","id":124003,"name":"Franzl","coordinate":{"longitude":11.59280014,"latitude":48.12609863},"fuelLevel":0.89,"lastAddress":"Sieboldstraße 2, 81669 München, Germany"}
{"timestamp":"2016-12-04T18:25:00+0100","id":124035,"name":"Leonie","coordinate":{"longitude":11.58410645,"latitude":48.12710571},"fuelLevel":0.5399999999999999,"lastAddress":"Lilienstraße 81, 81669 München, Germany"}
{"timestamp":"2016-12-04T18:25:00+0100","id":124006,"name":"Gustl","coordinate":{"longitude":11.58030033,"latitude":48.1208992},"fuelLevel":0.8099999999999999,"lastAddress":"Nockherstraße 11-25, 81541 München, Germany"}
{"timestamp":"2016-12-04T18:25:00+0100","id":124049,"name":"Marei","coordinate":{"longitude":11.57609558,"latitude":48.12283325},"fuelLevel":0.8,"lastAddress":"Kolumbusstraße 1, 81543 München, Germany"}
{"timestamp":"2016-12-04T18:25:00+0100","id":124012,"name":"Peter","coordinate":{"longitude":11.561203,"latitude":48.15730286},"fuelLevel":0.5399999999999999,"lastAddress":"Georgenstraße 121-123, 80797 München, Germany"}
{"timestamp":"2016-12-04T18:25:00+0100","id":124031,"name":"Heidi","coordinate":{"longitude":11.57180786,"latitude":48.14810181},"fuelLevel":0.81,"lastAddress":"Theresienstraße 41, 80333 München, Germany"}
{"timestamp":"2016-12-04T18:25:00+0100","id":124002,"name":"Ferdl","coordinate":{"longitude":11.56990051,"latitude":48.15049744},"fuelLevel":0.8999999999999999,"lastAddress":"Arcisstraße 32, 80799 München, Germany"}
{"timestamp":"2016-12-04T18:25:00+0100","id":124048,"name":"Wiggerl","coordinate":{"longitude":11.57510376,"latitude":48.16009521},"fuelLevel":0.75,"lastAddress":"Kurfürstenpl. 6A, 80796 München, Germany"}
{"timestamp":"2016-12-04T18:25:00+0100","id":124028,"name":"Gitte","coordinate":{"longitude":11.57960033,"latitude":48.15779877},"fuelLevel":0.9099999999999999,"lastAddress":"Franz-Joseph-Straße 25, 80801 München, Germany"}
{"timestamp":"2016-12-04T18:25:00+0100","id":124027,"name":"Fanni","coordinate":{"longitude":11.58090019,"latitude":48.16149902},"fuelLevel":0.8300000000000001,"lastAddress":"Kaiserpl. 1, 80803 München, Germany"}
{"timestamp":"2016-12-04T18:25:00+0100","id":124005,"name":"Georg","coordinate":{"longitude":11.5788002,"latitude":48.16180038},"fuelLevel":0.75,"lastAddress":"Viktor-Scheffel-Straße 3, 80803 München, Germany"}
{"timestamp":"2016-12-04T18:25:00+0100","id":124001,"name":"Edmund","coordinate":{"longitude":11.57569885,"latitude":48.15829468},"fuelLevel":0.7000000000000001,"lastAddress":"Kurfürstenstraße 24, 80801 München, Germany"}
{"timestamp":"2016-12-04T18:25:00+0100","id":124032,"name":"Irmi","coordinate":{"longitude":11.57511902,"latitude":48.15982056},"fuelLevel":0.61,"lastAddress":"Kurfürstenpl. 4, 80796 München, Germany"}
{"timestamp":"2016-12-04T18:25:00+0100","id":124037,"name":"Luise","coordinate":{"longitude":11.5710001,"latitude":48.15869904},"fuelLevel":0.9099999999999999,"lastAddress":"Elisabethstraße 22, 80796 München, Germany"}
{"timestamp":"2016-12-04T18:25:00+0100","id":124017,"name":"Siggi","coordinate":{"longitude":11.57342529,"latitude":48.1566925},"fuelLevel":0.8,"lastAddress":"Arcisstraße 65, 80801 München, Germany"}
{"timestamp":"2016-12-04T18:25:00+0100","id":124007,"name":"Jakob","coordinate":{"longitude":11.57888794,"latitude":48.16661072},"fuelLevel":0.75,"lastAddress":"Karl-Theodor-Straße 47, 80803 München, Germany"}