{"timestamp":"2016-10-04T00:40:00+0200","id":124041,"name":"Sophie","coordinate":{"longitude":11.5781002,"latitude":48.14970016},"fuelLevel":0.93,"lastAddress":"Amalienstraße 50, 80799 München, Germany"}
{"timestamp":"2016-10-04T00:40:00+0200","id":124026,"name":"Eva","coordinate":{"longitude":11.57859993,"latitude":48.15299988},"fuelLevel":0.61,"lastAddress":"Akademiestraße 4, 80799 München, Germany"}
{"timestamp":"2016-10-04T00:40:00+0200","id":124025,"name":"Elli","coordinate":{"longitude":11.57590008,"latitude":48.15179825},"fuelLevel":0.9500000000000001,"lastAddress":"Blütenstraße 5, 80799 München, Germany"}
{"timestamp":"2016-10-04T00:40:00+0200","id":124033,"name":"Johanna","coordinate":{"longitude":11.58180046,"latitude":48.15200043},"fuelLevel":0.84,"lastAddress":"Leopoldstraße 4, 80802 München, Germany"}
{"timestamp":"2016-10-04T00:40:00+0200","id":124036,"name":"Liesel","coordinate":{"longitude":11.57499981,"latitude":48.15620041},"fuelLevel":0.6699999999999999,"lastAddress":"Nordendstraße 29, 80801 München, Germany"}
{"timestamp":"2016-10-04T00:40:00+0200","id":124024,"name":"Christl","coordinate":{"longitude":11.57970047,"latitude":48.13349915},"fuelLevel":0.8,"lastAddress":"Klenzestraße 1A, 80469 München, Germany"}
{"timestamp":"2016-10-04T00:40:00+0200","id":124040,"name":"Reserl","coordinate":{"longitude":11.57110023,"latitude":48.13059998},"fuelLevel":0.89,"lastAddress":"Kolosseumstraße 6, 80469 München, Germany"}
{"timestamp":"2016-10-04T00:40:00+0200","id":124021,"name":"Xaver","coordinate":{"longitude":11.57929993,"latitude":48.13230133},"fuelLevel":0.5,"lastAddress":"Buttermelcherstraße 17, 80469 München, Germany"}
{"timestamp":"2016-10-04T00:40:00+0200","id":124014,"name":"Quirin","coordinate":{"longitude":11.60840034,"latitude":48.13299942},"fuelLevel":0.63,"lastAddress":"Kirchenstraße 87, 81675 München, Germany"}
{"timestamp":"2016-10-04T00:40:00+0200","id":124034,"name":"Kathi","coordinate":{"longitude":11.60499954,"latitude":48.13230133},"fuelLevel":0.67,"lastAddress":"Elsässer Str. 6, 81667 München, Germany"}
{"timestamp":"2016-10-04T00:40:00+0200","id":124030,"name":"Hedwig","coordinate":{"longitude":11.56340027,"latitude":48.12779999},"fuelLevel":0.9199999999999999,"lastAddress":"Waltherstraße 3, 80337 München, Germany"}
{"timestamp":"2016-10-04T00:40:00+0200","id":124023,"name":"Babsi","coordinate":{"longitude":11.56359959,"latitude":48.12720108},"fuelLevel":0.93,"lastAddress":"Thalkirchner Str. 54, 80337 München, Germany"}
{"timestamp":"2016-10-04T00:40:00+0200","id":124016,"name":"Sepp","coordinate":{"longitude":11.59840012,"latitude":48.12559891},"fuelLevel":0.9199999999999999,"lastAddress":"Rosenheimer Str. 102, 81669 München, Germany"}
{"timestamp":"2016-10-04T00:40:00+0200","id":124022,"name":"Anne","coordinate":{"longitude":11.59679985,"latitude":48.12749863},"fuelLevel":0.87,"lastAddress":"Rosenheimer Str. 101, 81667 München, Germany"}
{"timestamp":"2016-10-04T00:40:00+0200","id":124000,"name":"Bertl","coordinate":{"longitude":11.59669971,"latitude":48.12950134},"fuelLevel":0.82,"lastAddress":"Kellerstraße 34, 81667 München, Germany"}
{"timestamp":"2016-10-04T00:40:00+0200","id":124013,"name":"Poldi","coordinate":{"longitude":11.59440041,"latitude":48.12770081},"fuelLevel":0.79,"lastAddress":"Balanstraße 6A, 81669 München, Germany"}
{"timestamp":"2016-10-04T00:40:00+0200","id":124011,"name":"Maxl","coordinate":{"longitude":11.59249973,"latitude":48.12580109},"fuelLevel":0.78,"lastAddress":"Sieboldstraße 2, 81669 München, Germany"}
{"timestamp":"2016-10-04T00:40:00+0200","id":124003,"name":"Franzl","coordinate":{"longitude":11.59290028,"latitude":48.12739944},"fuelLevel":0.79,"lastAddress":"Franziskanerstraße 8, 81669 München, Germany"}
{"timestamp":"2016-10-04T00:40:00+0200","id":124010,"name":"Luitpold","coordinate":{"longitude":11.58590031,"latitude":48.12590027},"fuelLevel":0.88,"lastAddress":"Gebsattelstraße 2, 81541 München, Germany"}
{"timestamp":"2016-10-04T00:40:00+0200","id":124019,"name":"Valentin","coordinate":{"longitude":11.5848999,"latitude":48.12350082},"fuelLevel":0.9199999999999999,"lastAddress":"Hochstraße 49C, 81541 München, Germany"}
{"timestamp":"2016-10-04T00:40:00+0200","id":124035,"name":"Leonie","coordinate":{"longitude":11.58590031,"latitude":48.12919998},"fuelLevel":0.7899999999999999,"lastAddress":"Schwarzstraße 1, 81669 München, Germany"}
{"timestamp":"2016-10-04T00:40:00+0200","id":124006,"name":"Gustl","coordinate":{"longitude":11.57800007,"latitude":48.12099838},"fuelLevel":0.9400000000000001,"lastAddress":"Dollmannstraße 2, 81541 München, Germany"}
{"timestamp":"2016-10-04T00:40:00+0200","id":124020,"name":"Vinzenz","coordinate":{"longitude":11.57890034,"latitude":48.12360001},"fuelLevel":0.9099999999999999,"lastAddress":"Entenbachstrasse 15, Entenbachstraße, 81541 München, Germany"}
{"timestamp":"2016-10-04T00:40:00+0200","id":124049,"name":"Marei","coordinate":{"longitude":11.57439995,"latitude":48.11970139},"fuelLevel":0.69,"lastAddress":"Humboldtstraße 28, 81543 München, Germany"}
{"timestamp":"2016-10-04T00:40:00+0200","id":124045,"name":"Vroni","coordinate":{"longitude":11.56729984,"latitude":48.12870026},"fuelLevel":0.9199999999999999,"lastAddress":"Pestalozzistraße 31-33, 80469 München, Germany"}
{"timestamp":"2016-10-04T00:40:00+0200","id":124043,"name":"Traudl","coordinate":{"longitude":11.50269985,"latitude":48.10129929},"fuelLevel":0.71,"lastAddress":"Boschetsrieder Str., 81475 München, Germany"}
{"timestamp":"2016-10-04T00:40:00+0200","id":124018,"name":"Toni","coordinate":{"longitude":11.56999969,"latitude":48.13100052},"fuelLevel":0.9099999999999999,"lastAddress":"Angertorstraße 7, 80469 München, Germany"}
{"timestamp":"2016-10-04T00:40:00+0200","id":124012,"name":"Peter","coordinate":{"longitude":11.57240009,"latitude":48.15000153},"fuelLevel":1,"lastAddress":"Barer Str. 29, 80799 München, Germany"}
{"timestamp":"2016-10-04T00:40:00+0200","id":124004,"name":"Fridl","coordinate":{"longitude":11.56620026,"latitude":48.15660095},"fuelLevel":0.55,"lastAddress":"Hiltenspergerstraße 8, 80798 München, Germany"}
{"timestamp":"2016-10-04T00:40:00+0200","id":124031,"name":"Heidi","coordinate":{"longitude":11.56630039,"latitude":48.14970016},"fuelLevel":0.8,"lastAddress":"Luisenstraße 49, 80333 München, Germany"}
{"timestamp":"2016-10-04T00:40:00+0200","id":124047,"name":"Walli","coordinate":{"longitude":11.6086998,"latitude":48.12630081},"fuelLevel":0.8999999999999999,"lastAddress":"Haager Str. 12, 81671 München, Germany"}
{"timestamp":"2016-10-04T00:40:00+0200","id":124002,"name":"Ferdl","coordinate":{"longitude":11.5649004,"latitude":48.15190125},"fuelLevel":0.9500000000000001,"lastAddress":"Augustenstraße 92, 80798 München, Germany"}
{"timestamp":"2016-10-04T00:40:00+0200","id":124048,"name":"Wiggerl","coordinate":{"longitude":11.5788002,"latitude":48.16149902},"fuelLevel":0.68,"lastAddress":"Kaiserstraße 38, 80801 München, Germany"}
{"timestamp":"2016-10-04T00:40:00+0200","id":124028,"name":"Gitte","coordinate":{"longitude":11.57719994,"latitude":48.16009903},"fuelLevel":0.75,"lastAddress":"Hohenzollernstraße 41, 80801 München, Germany"}
{"timestamp":"2016-10-04T00:40:00+0200","id":124027,"name":"Fanni","coordinate":{"longitude":11.57789993,"latitude":48.15909958},"fuelLevel":0.7899999999999999,"lastAddress":"Ainmillerstraße 40, 80801 München, Germany"}
{"timestamp":"2016-10-04T00:40:00+0200","id":124005,"name":"Georg","coordinate":{"longitude":11.58129978,"latitude":48.15909958},"fuelLevel":0.66,"lastAddress":"Ainmillerstraße 20, 80801 München, Germany"}
{"timestamp":"2016-10-04T00:40:00+0200","id":124032,"name":"Irmi","coordinate":{"longitude":11.57330036,"latitude":48.16030121},"fuelLevel":0.64,"lastAddress":"Isabellastraße 48, 80796 München, Germany"}
{"timestamp":"2016-10-04T00:40:00+0200","id":124037,"name":"Luise","coordinate":{"longitude":11.56630039,"latitude":48.15790176},"fuelLevel":0.58,"lastAddress":"Agnesstraße 38, 80798 München, Germany"}
{"timestamp":"2016-10-04T00:40:00+0200","id":124017,"name":"Siggi","coordinate":{"longitude":11.5710001,"latitude":48.16070175},"fuelLevel":0.56,"lastAddress":"Hohenzollernstraße 79, 80796 München, Germany"}
{"timestamp":"2016-10-04T00:40:00+0200","id":124029,"name":"Hannah","coordinate":{"longitude":11.51019955,"latitude":48.04529953},"fuelLevel":0.71,"lastAddress":"Gistlstraße 159, 82049 Pullach im Isartal, Germany"}
{"timestamp":"2016-10-04T00:40:00+0200","id":124042,"name":"Tilli","coordinate":{"longitude":11.50949955,"latitude":48.04529953},"fuelLevel":0.77,"lastAddress":"Seitnerstraße 70, 82049 Pullach im Isartal, Germany"}
{"timestamp":"2016-10-04T00:40:00+0200","id":124008,"name":"Johann","coordinate":{"longitude":11.51000023,"latitude":48.04539871},"fuelLevel":0.87,"lastAddress":"Gistlstraße 159, 82049 Pullach im Isartal, Germany"}
{"timestamp":"2016-10-04T00:40:00+0200","id":124039,"name":"Marie","coordinate":{"longitude":11.75329971,"latitude":46.55680084},"fuelLevel":0.5555555555555556,"lastAddress":"Str. Rainell, 65, 39048 Selva di Val Gardena BZ, Italy"}
{"timestamp":"2016-10-04T00:40:00+0200","id":124009,"name":"Ludwig","coordinate":{"longitude":11.58510017,"latitude":48.16249847},"fuelLevel":0.8999999999999999,"lastAddress":"Siegfriedstraße 6-8, 80803 München, Germany"}
{"timestamp":"2016-10-04T00:40:00+0200","id":124007,"name":"Jakob","coordinate":{"longitude":11.57870007,"latitude":48.16719818},"fuelLevel":0.47000000000000003,"lastAddress":"Bonner Pl. 4, 80803 München, Germany"}