{"timestamp":"2016-10-06T07:45:00+0200","id":124041,"name":"Sophie","coordinate":{"longitude":11.57789993,"latitude":48.15000153},"fuelLevel":0.93,"lastAddress":"Amalienstraße 59, 80799 München, Germany"}
{"timestamp":"2016-10-06T07:45:00+0200","id":124026,"name":"Eva","coordinate":{"longitude":11.57970047,"latitude":48.15359879},"fuelLevel":0.61,"lastAddress":"Akademiestraße 2, 80799 München, Germany"}
{"timestamp":"2016-10-06T07:45:00+0200","id":124033,"name":"Johanna","coordinate":{"longitude":11.58189964,"latitude":48.15169907},"fuelLevel":0.84,"lastAddress":"Leopoldstraße 4, 80802 München, Germany"}
{"timestamp":"2016-10-06T07:45:00+0200","id":124036,"name":"Liesel","coordinate":{"longitude":11.57509995,"latitude":48.15629959},"fuelLevel":0.6699999999999999,"lastAddress":"Nordendstraße 29, 80801 München, Germany"}
{"timestamp":"2016-10-06T07:45:00+0200","id":124044,"name":"Uschi","coordinate":{"longitude":11.57260036,"latitude":48.13190079},"fuelLevel":0.9199999999999999,"lastAddress":"Müllerstraße 9, 80469 München, Germany"}
{"timestamp":"2016-10-06T07:45:00+0200","id":124024,"name":"Christl","coordinate":{"longitude":11.57900047,"latitude":48.13420105},"fuelLevel":0.8,"lastAddress":"Frauenstraße 26, 80469 München, Germany"}
{"timestamp":"2016-10-06T07:45:00+0200","id":124040,"name":"Reserl","coordinate":{"longitude":11.57289982,"latitude":48.13209915},"fuelLevel":0.8999999999999999,"lastAddress":"Müllerstraße 18, 80469 München, Germany"}
{"timestamp":"2016-10-06T07:45:00+0200","id":124021,"name":"Xaver","coordinate":{"longitude":11.58160019,"latitude":48.13069916},"fuelLevel":0.9500000000000001,"lastAddress":"Erhardtstraße 27, 80469 München, Germany"}
{"timestamp":"2016-10-06T07:45:00+0200","id":124014,"name":"Quirin","coordinate":{"longitude":11.60809994,"latitude":48.13249969},"fuelLevel":0.63,"lastAddress":"Michael-Huber-Weg 30, 81667 München, Germany"}
{"timestamp":"2016-10-06T07:45:00+0200","id":124030,"name":"Hedwig","coordinate":{"longitude":11.56369972,"latitude":48.12739944},"fuelLevel":0.9199999999999999,"lastAddress":"Thalkirchner Str. 52, 80337 München, Germany"}
{"timestamp":"2016-10-06T07:45:00+0200","id":124038,"name":"Magda","coordinate":{"longitude":11.60079956,"latitude":48.12939835},"fuelLevel":0.67,"lastAddress":"Wörthstraße 32, 81667 München, Germany"}
{"timestamp":"2016-10-06T07:45:00+0200","id":124022,"name":"Anne","coordinate":{"longitude":11.59640026,"latitude":48.1271019},"fuelLevel":0.8800000000000001,"lastAddress":"Rosenheimer Str. 82, 81669 München, Germany"}
{"timestamp":"2016-10-06T07:45:00+0200","id":124000,"name":"Bertl","coordinate":{"longitude":11.59689999,"latitude":48.12950134},"fuelLevel":0.82,"lastAddress":"Kellerstraße 34, 81667 München, Germany"}
{"timestamp":"2016-10-06T07:45:00+0200","id":124013,"name":"Poldi","coordinate":{"longitude":11.59430027,"latitude":48.12799835},"fuelLevel":0.79,"lastAddress":"Rosenheimer Pl. 2, 81669 München, Germany"}
{"timestamp":"2016-10-06T07:45:00+0200","id":124011,"name":"Maxl","coordinate":{"longitude":11.59309959,"latitude":48.12530136},"fuelLevel":0.7899999999999999,"lastAddress":"Barnabasstraße 1, 81669 München, Germany"}
{"timestamp":"2016-10-06T07:45:00+0200","id":124003,"name":"Franzl","coordinate":{"longitude":11.59300041,"latitude":48.12730026},"fuelLevel":0.8,"lastAddress":"Franziskanerstraße 8, 81669 München, Germany"}
{"timestamp":"2016-10-06T07:45:00+0200","id":124010,"name":"Luitpold","coordinate":{"longitude":11.58469963,"latitude":48.12739944},"fuelLevel":0.9500000000000001,"lastAddress":"Lilienstraße 75, 81669 München, Germany"}
{"timestamp":"2016-10-06T07:45:00+0200","id":124006,"name":"Gustl","coordinate":{"longitude":11.5777998,"latitude":48.12099838},"fuelLevel":0.9400000000000001,"lastAddress":"Falkenstraße 43, 81541 München, Germany"}
{"timestamp":"2016-10-06T07:45:00+0200","id":124020,"name":"Vinzenz","coordinate":{"longitude":11.57660007,"latitude":48.12459946},"fuelLevel":0.8999999999999999,"lastAddress":"Albanistraße 1, 81541 München, Germany"}
{"timestamp":"2016-10-06T07:45:00+0200","id":124049,"name":"Marei","coordinate":{"longitude":11.57439995,"latitude":48.11989975},"fuelLevel":0.69,"lastAddress":"Humboldtstraße 23, 81543 München, Germany"}
{"timestamp":"2016-10-06T07:45:00+0200","id":124045,"name":"Vroni","coordinate":{"longitude":11.56760025,"latitude":48.12749863},"fuelLevel":0.9199999999999999,"lastAddress":"Holzstraße 45, 80469 München, Germany"}
{"timestamp":"2016-10-06T07:45:00+0200","id":124018,"name":"Toni","coordinate":{"longitude":11.56989956,"latitude":48.1310997},"fuelLevel":0.9199999999999999,"lastAddress":"Angertorstraße 4, 80469 München, Germany"}
{"timestamp":"2016-10-06T07:45:00+0200","id":124012,"name":"Peter","coordinate":{"longitude":11.57250023,"latitude":48.14979935},"fuelLevel":1,"lastAddress":"Barer Str. 48-50, 80799 München, Germany"}
{"timestamp":"2016-10-06T07:45:00+0200","id":124004,"name":"Fridl","coordinate":{"longitude":11.56589985,"latitude":48.15670013},"fuelLevel":0.55,"lastAddress":"Hiltenspergerstraße 8/I, 80798 München, Germany"}
{"timestamp":"2016-10-06T07:45:00+0200","id":124031,"name":"Heidi","coordinate":{"longitude":11.56639957,"latitude":48.14970016},"fuelLevel":0.8,"lastAddress":"Luisenstraße 51-53, 80333 München, Germany"}
{"timestamp":"2016-10-06T07:45:00+0200","id":124002,"name":"Ferdl","coordinate":{"longitude":11.56480026,"latitude":48.15169907},"fuelLevel":0.9500000000000001,"lastAddress":"Augustenstraße 90, 80798 München, Germany"}
{"timestamp":"2016-10-06T07:45:00+0200","id":124048,"name":"Wiggerl","coordinate":{"longitude":11.57870007,"latitude":48.16080093},"fuelLevel":0.68,"lastAddress":"Kaiserstraße 47, 80801 München, Germany"}
{"timestamp":"2016-10-06T07:45:00+0200","id":124028,"name":"Gitte","coordinate":{"longitude":11.5770998,"latitude":48.16009903},"fuelLevel":0.75,"lastAddress":"Hohenzollernstraße 41, 80801 München, Germany"}
{"timestamp":"2016-10-06T07:45:00+0200","id":124027,"name":"Fanni","coordinate":{"longitude":11.57800007,"latitude":48.1590004},"fuelLevel":0.7899999999999999,"lastAddress":"Ainmillerstraße 40, 80801 München, Germany"}
{"timestamp":"2016-10-06T07:45:00+0200","id":124005,"name":"Georg","coordinate":{"longitude":11.58150005,"latitude":48.15879822},"fuelLevel":0.66,"lastAddress":"Ainmillerstraße 20, 80801 München, Germany"}
{"timestamp":"2016-10-06T07:45:00+0200","id":124032,"name":"Irmi","coordinate":{"longitude":11.57299995,"latitude":48.16040039},"fuelLevel":0.64,"lastAddress":"Hohenzollernstraße 65, 80796 München, Germany"}
{"timestamp":"2016-10-06T07:45:00+0200","id":124037,"name":"Luise","coordinate":{"longitude":11.56610012,"latitude":48.15750122},"fuelLevel":0.58,"lastAddress":"Hiltenspergerstraße 21, 80798 München, Germany"}
{"timestamp":"2016-10-06T07:45:00+0200","id":124017,"name":"Siggi","coordinate":{"longitude":11.5710001,"latitude":48.16080093},"fuelLevel":0.56,"lastAddress":"Hohenzollernstraße 112, 80796 München, Germany"}
{"timestamp":"2016-10-06T07:45:00+0200","id":124029,"name":"Hannah","coordinate":{"longitude":11.51019955,"latitude":48.04539871},"fuelLevel":0.7,"lastAddress":"Gistlstraße 159, 82049 Pullach im Isartal, Germany"}
{"timestamp":"2016-10-06T07:45:00+0200","id":124008,"name":"Johann","coordinate":{"longitude":11.51000023,"latitude":48.04550171},"fuelLevel":0.87,"lastAddress":"Gistlstraße 159, 82049 Pullach im Isartal, Germany"}
{"timestamp":"2016-10-06T07:45:00+0200","id":124039,"name":"Marie","coordinate":{"longitude":11.50949955,"latitude":48.04560089},"fuelLevel":0.58,"lastAddress":"Seitnerstraße 70, 82049 Pullach im Isartal, Germany"}
{"timestamp":"2016-10-06T07:45:00+0200","id":124009,"name":"Ludwig","coordinate":{"longitude":11.58530045,"latitude":48.16210175},"fuelLevel":0.8999999999999999,"lastAddress":"Herzogstraße 2, 80803 München, Germany"}
{"timestamp":"2016-10-06T07:45:00+0200","id":124007,"name":"Jakob","coordinate":{"longitude":11.57479954,"latitude":48.16740036},"fuelLevel":0.9400000000000001,"lastAddress":"Karl-Theodor-Straße 80, 80803 München, Germany"}