{"timestamp":"2016-11-20T12:50:00+0100","id":124041,"name":"Sophie","coordinate":{"longitude":11.5789032,"latitude":48.15299988},"fuelLevel":0.5599999999999999,"lastAddress":"Akademiestraße 2, 80799 München, Germany"}
{"timestamp":"2016-11-20T12:50:00+0100","id":124026,"name":"Eva","coordinate":{"longitude":11.58129883,"latitude":48.15240479},"fuelLevel":0.75,"lastAddress":"Akademiestraße 3, 80799 München, Germany"}
{"timestamp":"2016-11-20T12:50:00+0100","id":124025,"name":"Elli","coordinate":{"longitude":11.58129883,"latitude":48.15238953},"fuelLevel":0.8400000000000001,"lastAddress":"Akademiestraße 3, 80799 München, Germany"}
{"timestamp":"2016-11-20T12:50:00+0100","id":124024,"name":"Christl","coordinate":{"longitude":11.57699585,"latitude":48.1328125},"fuelLevel":0.6499999999999999,"lastAddress":"Buttermelcherstraße 4, 80469 München, Germany"}
{"timestamp":"2016-11-20T12:50:00+0100","id":124040,"name":"Reserl","coordinate":{"longitude":11.58171082,"latitude":48.1308136},"fuelLevel":0.86,"lastAddress":"Erhardtstraße 27, 80469 München, Germany"}
{"timestamp":"2016-11-20T12:50:00+0100","id":124021,"name":"Xaver","coordinate":{"longitude":11.58189392,"latitude":48.13111877},"fuelLevel":0.8,"lastAddress":"Kohlstraße 11, 80469 München, Germany"}
{"timestamp":"2016-11-20T12:50:00+0100","id":124014,"name":"Quirin","coordinate":{"longitude":11.59919739,"latitude":48.13600159},"fuelLevel":0.6527777777777778,"lastAddress":"Einsteinstraße 3, 81675 München, Germany"}
{"timestamp":"2016-11-20T12:50:00+0100","id":124034,"name":"Kathi","coordinate":{"longitude":11.60379028,"latitude":48.13038635},"fuelLevel":0.84,"lastAddress":"Breisacher Str. 12, 81667 München, Germany"}
{"timestamp":"2016-11-20T12:50:00+0100","id":124023,"name":"Babsi","coordinate":{"longitude":11.56480408,"latitude":48.12960815},"fuelLevel":0.5700000000000001,"lastAddress":"Winckelstraße, 80337 München, Germany"}
{"timestamp":"2016-11-20T12:50:00+0100","id":124022,"name":"Anne","coordinate":{"longitude":11.60140991,"latitude":48.1268158},"fuelLevel":0.44000000000000006,"lastAddress":"Orleansstraße 35, 81667 München, Germany"}
{"timestamp":"2016-11-20T12:50:00+0100","id":124013,"name":"Poldi","coordinate":{"longitude":11.58959961,"latitude":48.125},"fuelLevel":0.79,"lastAddress":"Franziskanerstraße 47, 81669 München, Germany"}
{"timestamp":"2016-11-20T12:50:00+0100","id":124003,"name":"Franzl","coordinate":{"longitude":11.58811951,"latitude":48.12539673},"fuelLevel":0.7200000000000001,"lastAddress":"Gebsattelstraße 16, 81541 München, Germany"}
{"timestamp":"2016-11-20T12:50:00+0100","id":124010,"name":"Luitpold","coordinate":{"longitude":11.5881958,"latitude":48.12860107},"fuelLevel":0.58,"lastAddress":"Hochstraße 15, 81669 München, Germany"}
{"timestamp":"2016-11-20T12:50:00+0100","id":124019,"name":"Valentin","coordinate":{"longitude":11.58201599,"latitude":48.12101746},"fuelLevel":0.64,"lastAddress":"Hochstraße 81, 81541 München, Germany"}
{"timestamp":"2016-11-20T12:50:00+0100","id":124035,"name":"Leonie","coordinate":{"longitude":11.58349609,"latitude":48.12771606},"fuelLevel":0.87,"lastAddress":"Zeppelinstraße 39, 81669 München, Germany"}
{"timestamp":"2016-11-20T12:50:00+0100","id":124006,"name":"Gustl","coordinate":{"longitude":11.57603455,"latitude":48.1210022},"fuelLevel":0.86,"lastAddress":"Kolumbusstraße 22, 81543 München, Germany"}
{"timestamp":"2016-11-20T12:50:00+0100","id":124020,"name":"Vinzenz","coordinate":{"longitude":11.57719421,"latitude":48.12310791},"fuelLevel":0.86,"lastAddress":"Schlotthauerstraße 12, 81541 München, Germany"}
{"timestamp":"2016-11-20T12:50:00+0100","id":124049,"name":"Marei","coordinate":{"longitude":11.57780457,"latitude":48.12031555},"fuelLevel":0.8999999999999999,"lastAddress":"Dollmannstraße 9, 81541 München, Germany"}
{"timestamp":"2016-11-20T12:50:00+0100","id":124018,"name":"Toni","coordinate":{"longitude":11.56918335,"latitude":48.12399292},"fuelLevel":0.56,"lastAddress":"Wittelsbacherstraße 10-11, 80469 München, Germany"}
{"timestamp":"2016-11-20T12:50:00+0100","id":124012,"name":"Peter","coordinate":{"longitude":11.55999756,"latitude":48.15510559},"fuelLevel":0.6,"lastAddress":"Winzererstraße 30, 80797 München, Germany"}
{"timestamp":"2016-11-20T12:50:00+0100","id":124004,"name":"Fridl","coordinate":{"longitude":11.55909729,"latitude":48.15393066},"fuelLevel":0.88,"lastAddress":"Heßstraße 102, 80797 München, Germany"}
{"timestamp":"2016-11-20T12:50:00+0100","id":124031,"name":"Heidi","coordinate":{"longitude":11.57019043,"latitude":48.14952087},"fuelLevel":0.51,"lastAddress":"Theresienstraße, 80333 München, Germany"}
{"timestamp":"2016-11-20T12:50:00+0100","id":124047,"name":"Walli","coordinate":{"longitude":11.56719971,"latitude":48.15080261},"fuelLevel":0.75,"lastAddress":"Luisenstraße 63, 80798 München, Germany"}
{"timestamp":"2016-11-20T12:50:00+0100","id":124002,"name":"Ferdl","coordinate":{"longitude":11.56401062,"latitude":48.15031433},"fuelLevel":0.8999999999999999,"lastAddress":"Augustenstraße 76, 80333 München, Germany"}
{"timestamp":"2016-11-20T12:50:00+0100","id":124048,"name":"Wiggerl","coordinate":{"longitude":11.57739258,"latitude":48.15901184},"fuelLevel":0.8,"lastAddress":"Ainmillerstraße 33, 80801 München, Germany"}
{"timestamp":"2016-11-20T12:50:00+0100","id":124028,"name":"Gitte","coordinate":{"longitude":11.57910156,"latitude":48.15800476},"fuelLevel":0.9099999999999999,"lastAddress":"Franz-Joseph-Straße 28, 80801 München, Germany"}
{"timestamp":"2016-11-20T12:50:00+0100","id":124027,"name":"Fanni","coordinate":{"longitude":11.58340454,"latitude":48.16090393},"fuelLevel":0.8800000000000001,"lastAddress":"Kaiserstraße 22, 80801 München, Germany"}
{"timestamp":"2016-11-20T12:50:00+0100","id":124001,"name":"Edmund","coordinate":{"longitude":11.57980347,"latitude":48.16117859},"fuelLevel":0.5599999999999999,"lastAddress":"Kaiserstraße 39, 80801 München, Germany"}
{"timestamp":"2016-11-20T12:50:00+0100","id":124037,"name":"Luise","coordinate":{"longitude":11.56231689,"latitude":48.1574707},"fuelLevel":0.57,"lastAddress":"Schleißheimer Str. 81, 80797 München, Germany"}
{"timestamp":"2016-11-20T12:50:00+0100","id":124017,"name":"Siggi","coordinate":{"longitude":11.56910706,"latitude":48.15940857},"fuelLevel":0.64,"lastAddress":"Tengstraße 30-32, 80796 München, Germany"}
{"timestamp":"2016-11-20T12:50:00+0100","id":124029,"name":"Hannah","coordinate":{"longitude":11.50959778,"latitude":48.04551697},"fuelLevel":0.89,"lastAddress":"Seitnerstraße 70, 82049 Pullach im Isartal, Germany"}
{"timestamp":"2016-11-20T12:50:00+0100","id":124008,"name":"Johann","coordinate":{"longitude":11.50950623,"latitude":48.04550171},"fuelLevel":0.81,"lastAddress":"Seitnerstraße 70, 82049 Pullach im Isartal, Germany"}
{"timestamp":"2016-11-20T12:50:00+0100","id":124039,"name":"Marie","coordinate":{"longitude":11.50570011,"latitude":48.04430008},"fuelLevel":0.7569444444444444,"lastAddress":"Wolfratshauser Str. 138, 82049 Pullach im Isartal, Germany"}
{"timestamp":"2016-11-20T12:50:00+0100","id":124009,"name":"Ludwig","coordinate":{"longitude":11.58230591,"latitude":48.16560364},"fuelLevel":0.8,"lastAddress":"Muffatstraße 5-7, 80803 München, Germany"}
{"timestamp":"2016-11-20T12:50:00+0100","id":124007,"name":"Jakob","coordinate":{"longitude":11.57411194,"latitude":48.16429138},"fuelLevel":0.84,"lastAddress":"Belgradstraße 37, 80796 München, Germany"}