{"timestamp":"2016-11-28T15:40:00+0100","id":124026,"name":"Eva","coordinate":{"longitude":11.58131409,"latitude":48.15231323},"fuelLevel":0.7200000000000001,"lastAddress":"Akademiestraße 3, 80799 München, Germany"}
{"timestamp":"2016-11-28T15:40:00+0100","id":124025,"name":"Elli","coordinate":{"longitude":11.58120728,"latitude":48.15249634},"fuelLevel":0.8200000000000001,"lastAddress":"Akademiestraße 5, 80799 München, Germany"}
{"timestamp":"2016-11-28T15:40:00+0100","id":124033,"name":"Johanna","coordinate":{"longitude":11.57979965,"latitude":48.15269852},"fuelLevel":0.7799999999999999,"lastAddress":"Akademiestraße 11, 80799 München, Germany"}
{"timestamp":"2016-11-28T15:40:00+0100","id":124036,"name":"Liesel","coordinate":{"longitude":11.57861328,"latitude":48.15310669},"fuelLevel":0.5499999999999999,"lastAddress":"Akademiestraße 4, 80799 München, Germany"}
{"timestamp":"2016-11-28T15:40:00+0100","id":124040,"name":"Reserl","coordinate":{"longitude":11.57243347,"latitude":48.13070679},"fuelLevel":0.61,"lastAddress":"Fraunhoferstraße 9A, 80469 München, Germany"}
{"timestamp":"2016-11-28T15:40:00+0100","id":124021,"name":"Xaver","coordinate":{"longitude":11.58207703,"latitude":48.13114929},"fuelLevel":0.79,"lastAddress":"Kohlstraße 11, 80469 München, Germany"}
{"timestamp":"2016-11-28T15:40:00+0100","id":124034,"name":"Kathi","coordinate":{"longitude":11.60549927,"latitude":48.13218689},"fuelLevel":0.62,"lastAddress":"Spicherenstraße 3, 81667 München, Germany"}
{"timestamp":"2016-11-28T15:40:00+0100","id":124023,"name":"Babsi","coordinate":{"longitude":11.56739807,"latitude":48.13092041},"fuelLevel":0.8800000000000001,"lastAddress":"Pestalozzistraße 13, 80469 München, Germany"}
{"timestamp":"2016-11-28T15:40:00+0100","id":124000,"name":"Bertl","coordinate":{"longitude":11.60302734,"latitude":48.12837219},"fuelLevel":0.7799999999999999,"lastAddress":"Orleanspl. 3, 81667 München, Germany"}
{"timestamp":"2016-11-28T15:40:00+0100","id":124013,"name":"Poldi","coordinate":{"longitude":11.58959961,"latitude":48.125},"fuelLevel":0.79,"lastAddress":"Franziskanerstraße 47, 81669 München, Germany"}
{"timestamp":"2016-11-28T15:40:00+0100","id":124011,"name":"Maxl","coordinate":{"longitude":11.59260559,"latitude":48.12670898},"fuelLevel":0.5599999999999999,"lastAddress":"Franziskanerstraße 14, 81669 München, Germany"}
{"timestamp":"2016-11-28T15:40:00+0100","id":124003,"name":"Franzl","coordinate":{"longitude":11.58366394,"latitude":48.13334656},"fuelLevel":0.5555555555555556,"lastAddress":"Zweibrückenstraße 9, 80331 München, Germany"}
{"timestamp":"2016-11-28T15:40:00+0100","id":124010,"name":"Luitpold","coordinate":{"longitude":11.58459473,"latitude":48.12867737},"fuelLevel":0.59,"lastAddress":"Zeppelinstraße 53, 81669 München, Germany"}
{"timestamp":"2016-11-28T15:40:00+0100","id":124019,"name":"Valentin","coordinate":{"longitude":11.58328247,"latitude":48.12242126},"fuelLevel":0.64,"lastAddress":"Hochstraße 75, 81541 München, Germany"}
{"timestamp":"2016-11-28T15:40:00+0100","id":124035,"name":"Leonie","coordinate":{"longitude":11.58456421,"latitude":48.12763977},"fuelLevel":0.7899999999999999,"lastAddress":"Lilienstraße 71-73, 81669 München, Germany"}
{"timestamp":"2016-11-28T15:40:00+0100","id":124006,"name":"Gustl","coordinate":{"longitude":11.57600021,"latitude":48.1208992},"fuelLevel":0.86,"lastAddress":"Kolumbusstraße 22, 81543 München, Germany"}
{"timestamp":"2016-11-28T15:40:00+0100","id":124049,"name":"Marei","coordinate":{"longitude":11.5776062,"latitude":48.1204071},"fuelLevel":0.8999999999999999,"lastAddress":"Dollmannstraße 4, 81541 München, Germany"}
{"timestamp":"2016-11-28T15:40:00+0100","id":124018,"name":"Toni","coordinate":{"longitude":11.56559753,"latitude":48.12640381},"fuelLevel":0.81,"lastAddress":"Pestalozzistraße 60, 80469 München, Germany"}
{"timestamp":"2016-11-28T15:40:00+0100","id":124012,"name":"Peter","coordinate":{"longitude":11.56109619,"latitude":48.15739441},"fuelLevel":0.5599999999999999,"lastAddress":"Georgenstraße 121-123, 80797 München, Germany"}
{"timestamp":"2016-11-28T15:40:00+0100","id":124004,"name":"Fridl","coordinate":{"longitude":11.55639648,"latitude":48.15498352},"fuelLevel":0.7799999999999999,"lastAddress":"Heßstraße 110, 80797 München, Germany"}
{"timestamp":"2016-11-28T15:40:00+0100","id":124002,"name":"Ferdl","coordinate":{"longitude":11.56401062,"latitude":48.15028381},"fuelLevel":0.8999999999999999,"lastAddress":"Augustenstraße 76, 80333 München, Germany"}
{"timestamp":"2016-11-28T15:40:00+0100","id":124048,"name":"Wiggerl","coordinate":{"longitude":11.57739258,"latitude":48.15910339},"fuelLevel":0.7799999999999999,"lastAddress":"Ainmillerstraße 42, 80801 München, Germany"}
{"timestamp":"2016-11-28T15:40:00+0100","id":124028,"name":"Gitte","coordinate":{"longitude":11.5796051,"latitude":48.15782166},"fuelLevel":0.9099999999999999,"lastAddress":"Franz-Joseph-Straße 26, 80801 München, Germany"}
{"timestamp":"2016-11-28T15:40:00+0100","id":124027,"name":"Fanni","coordinate":{"longitude":11.58099365,"latitude":48.16149902},"fuelLevel":0.8300000000000001,"lastAddress":"Kaiserpl. 1, 80803 München, Germany"}
{"timestamp":"2016-11-28T15:40:00+0100","id":124005,"name":"Georg","coordinate":{"longitude":11.57951355,"latitude":48.15911865},"fuelLevel":0.75,"lastAddress":"Ainmillerstraße 30, 80801 München, Germany"}
{"timestamp":"2016-11-28T15:40:00+0100","id":124001,"name":"Edmund","coordinate":{"longitude":11.57859802,"latitude":48.15901184},"fuelLevel":0.51,"lastAddress":"Ainmillerstraße 34, 80801 München, Germany"}
{"timestamp":"2016-11-28T15:40:00+0100","id":124032,"name":"Irmi","coordinate":{"longitude":11.57499695,"latitude":48.15969849},"fuelLevel":0.61,"lastAddress":"Kurfürstenpl. 2, 80796 München, Germany"}
{"timestamp":"2016-11-28T15:40:00+0100","id":124037,"name":"Luise","coordinate":{"longitude":11.5710144,"latitude":48.15869141},"fuelLevel":0.55,"lastAddress":"Elisabethstraße 22, 80796 München, Germany"}
{"timestamp":"2016-11-28T15:40:00+0100","id":124017,"name":"Siggi","coordinate":{"longitude":11.57351685,"latitude":48.15670776},"fuelLevel":0.8,"lastAddress":"Arcisstraße 65, 80801 München, Germany"}
{"timestamp":"2016-11-28T15:40:00+0100","id":124029,"name":"Hannah","coordinate":{"longitude":11.50939941,"latitude":48.04530334},"fuelLevel":0.89,"lastAddress":"Seitnerstraße 70, 82049 Pullach im Isartal, Germany"}
{"timestamp":"2016-11-28T15:40:00+0100","id":124039,"name":"Marie","coordinate":{"longitude":11.50629997,"latitude":48.04370117},"fuelLevel":0.71,"lastAddress":"Wolfratshauser Str. 138, 82049 Pullach im Isartal, Germany"}
{"timestamp":"2016-11-28T15:40:00+0100","id":124009,"name":"Ludwig","coordinate":{"longitude":11.58230591,"latitude":48.16558838},"fuelLevel":0.71,"lastAddress":"Muffatstraße 5-7, 80803 München, Germany"}
{"timestamp":"2016-11-28T15:40:00+0100","id":124007,"name":"Jakob","coordinate":{"longitude":11.57752991,"latitude":48.16668701},"fuelLevel":0.6499999999999999,"lastAddress":"Karl-Theodor-Straße 55, 80803 München, Germany"}