{"timestamp":"2016-10-03T20:15:00+0200","id":124041,"name":"Sophie","coordinate":{"longitude":11.5777998,"latitude":48.1495018},"fuelLevel":0.93,"lastAddress":"Amalienstraße 55, 80799 München, Germany"}
{"timestamp":"2016-10-03T20:15:00+0200","id":124026,"name":"Eva","coordinate":{"longitude":11.57909966,"latitude":48.15470123},"fuelLevel":0.61,"lastAddress":"Georgenstraße 19, 80799 München, Germany"}
{"timestamp":"2016-10-03T20:15:00+0200","id":124025,"name":"Elli","coordinate":{"longitude":11.57590008,"latitude":48.15179825},"fuelLevel":0.9500000000000001,"lastAddress":"Blütenstraße 5, 80799 München, Germany"}
{"timestamp":"2016-10-03T20:15:00+0200","id":124033,"name":"Johanna","coordinate":{"longitude":11.58139992,"latitude":48.15209961},"fuelLevel":0.84,"lastAddress":"Akademiestraße 1, 80799 München, Germany"}
{"timestamp":"2016-10-03T20:15:00+0200","id":124036,"name":"Liesel","coordinate":{"longitude":11.57590008,"latitude":48.15650177},"fuelLevel":0.6699999999999999,"lastAddress":"Kurfürstenstraße 33, 80801 München, Germany"}
{"timestamp":"2016-10-03T20:15:00+0200","id":124024,"name":"Christl","coordinate":{"longitude":11.57929993,"latitude":48.13349915},"fuelLevel":0.8,"lastAddress":"Klenzestraße 3, 80469 München, Germany"}
{"timestamp":"2016-10-03T20:15:00+0200","id":124040,"name":"Reserl","coordinate":{"longitude":11.57190037,"latitude":48.13169861},"fuelLevel":0.89,"lastAddress":"Müllerstraße 24, 80469 München, Germany"}
{"timestamp":"2016-10-03T20:15:00+0200","id":124021,"name":"Xaver","coordinate":{"longitude":11.58059978,"latitude":48.13199997},"fuelLevel":0.5,"lastAddress":"Kohlstraße 3, 80469 München, Germany"}
{"timestamp":"2016-10-03T20:15:00+0200","id":124014,"name":"Quirin","coordinate":{"longitude":11.60820007,"latitude":48.13270187},"fuelLevel":0.63,"lastAddress":"Kirchenstraße 86, 81675 München, Germany"}
{"timestamp":"2016-10-03T20:15:00+0200","id":124034,"name":"Kathi","coordinate":{"longitude":11.60499954,"latitude":48.13240051},"fuelLevel":0.67,"lastAddress":"Elsässer Str. 4, 81667 München, Germany"}
{"timestamp":"2016-10-03T20:15:00+0200","id":124030,"name":"Hedwig","coordinate":{"longitude":11.5635004,"latitude":48.12749863},"fuelLevel":0.9199999999999999,"lastAddress":"Thalkirchner Str. 56, 80337 München, Germany"}
{"timestamp":"2016-10-03T20:15:00+0200","id":124023,"name":"Babsi","coordinate":{"longitude":11.56379986,"latitude":48.1269989},"fuelLevel":0.93,"lastAddress":"Thalkirchner Str. 54, 80337 München, Germany"}
{"timestamp":"2016-10-03T20:15:00+0200","id":124016,"name":"Sepp","coordinate":{"longitude":11.59850025,"latitude":48.12580109},"fuelLevel":0.9199999999999999,"lastAddress":"Rosenheimer Str. 100, 81669 München, Germany"}
{"timestamp":"2016-10-03T20:15:00+0200","id":124022,"name":"Anne","coordinate":{"longitude":11.59640026,"latitude":48.1269989},"fuelLevel":0.87,"lastAddress":"Rosenheimer Str. 82, 81669 München, Germany"}
{"timestamp":"2016-10-03T20:15:00+0200","id":124000,"name":"Bertl","coordinate":{"longitude":11.59679985,"latitude":48.12960052},"fuelLevel":0.82,"lastAddress":"Kellerstraße 34, 81667 München, Germany"}
{"timestamp":"2016-10-03T20:15:00+0200","id":124013,"name":"Poldi","coordinate":{"longitude":11.59449959,"latitude":48.12760162},"fuelLevel":0.79,"lastAddress":"Balanstraße 6A, 81669 München, Germany"}
{"timestamp":"2016-10-03T20:15:00+0200","id":124011,"name":"Maxl","coordinate":{"longitude":11.59259987,"latitude":48.12590027},"fuelLevel":0.78,"lastAddress":"Sieboldstraße 2, 81669 München, Germany"}
{"timestamp":"2016-10-03T20:15:00+0200","id":124003,"name":"Franzl","coordinate":{"longitude":11.59309959,"latitude":48.12749863},"fuelLevel":0.79,"lastAddress":"Franziskanerstraße 8, 81669 München, Germany"}
{"timestamp":"2016-10-03T20:15:00+0200","id":124010,"name":"Luitpold","coordinate":{"longitude":11.58570004,"latitude":48.12599945},"fuelLevel":0.88,"lastAddress":"Gebsattelstraße 2, 81541 München, Germany"}
{"timestamp":"2016-10-03T20:15:00+0200","id":124019,"name":"Valentin","coordinate":{"longitude":11.5848999,"latitude":48.12360001},"fuelLevel":0.9199999999999999,"lastAddress":"Hochstraße 49C, 81541 München, Germany"}
{"timestamp":"2016-10-03T20:15:00+0200","id":124035,"name":"Leonie","coordinate":{"longitude":11.5855999,"latitude":48.12919998},"fuelLevel":0.7899999999999999,"lastAddress":"Schwarzstraße 2, 81669 München, Germany"}
{"timestamp":"2016-10-03T20:15:00+0200","id":124006,"name":"Gustl","coordinate":{"longitude":11.5777998,"latitude":48.1208992},"fuelLevel":0.9400000000000001,"lastAddress":"Falkenstraße 43, 81541 München, Germany"}
{"timestamp":"2016-10-03T20:15:00+0200","id":124020,"name":"Vinzenz","coordinate":{"longitude":11.57859993,"latitude":48.12350082},"fuelLevel":0.9099999999999999,"lastAddress":"Entenbachstraße 16, 81541 München, Germany"}
{"timestamp":"2016-10-03T20:15:00+0200","id":124049,"name":"Marei","coordinate":{"longitude":11.57450008,"latitude":48.11989975},"fuelLevel":0.69,"lastAddress":"Humboldtstraße 23, 81543 München, Germany"}
{"timestamp":"2016-10-03T20:15:00+0200","id":124045,"name":"Vroni","coordinate":{"longitude":11.56739998,"latitude":48.12799835},"fuelLevel":0.9199999999999999,"lastAddress":"Pestalozzistraße 52A, 80469 München, Germany"}
{"timestamp":"2016-10-03T20:15:00+0200","id":124043,"name":"Traudl","coordinate":{"longitude":11.50269985,"latitude":48.10129929},"fuelLevel":0.71,"lastAddress":"Boschetsrieder Str., 81475 München, Germany"}
{"timestamp":"2016-10-03T20:15:00+0200","id":124018,"name":"Toni","coordinate":{"longitude":11.57019997,"latitude":48.13090134},"fuelLevel":0.9099999999999999,"lastAddress":"Müllerstraße 34, 80469 München, Germany"}
{"timestamp":"2016-10-03T20:15:00+0200","id":124012,"name":"Peter","coordinate":{"longitude":11.57240009,"latitude":48.15000153},"fuelLevel":1,"lastAddress":"Barer Str. 29, 80799 München, Germany"}
{"timestamp":"2016-10-03T20:15:00+0200","id":124004,"name":"Fridl","coordinate":{"longitude":11.56579971,"latitude":48.15650177},"fuelLevel":0.55,"lastAddress":"Hiltenspergerstraße 15, 80798 München, Germany"}
{"timestamp":"2016-10-03T20:15:00+0200","id":124031,"name":"Heidi","coordinate":{"longitude":11.56630039,"latitude":48.14970016},"fuelLevel":0.8,"lastAddress":"Luisenstraße 49, 80333 München, Germany"}
{"timestamp":"2016-10-03T20:15:00+0200","id":124047,"name":"Walli","coordinate":{"longitude":11.60890007,"latitude":48.12630081},"fuelLevel":0.8999999999999999,"lastAddress":"Haager Str. 12-14, 81671 München, Germany"}
{"timestamp":"2016-10-03T20:15:00+0200","id":124002,"name":"Ferdl","coordinate":{"longitude":11.56509972,"latitude":48.15240097},"fuelLevel":0.9500000000000001,"lastAddress":"Augustenstraße 96A, 80798 München, Germany"}
{"timestamp":"2016-10-03T20:15:00+0200","id":124048,"name":"Wiggerl","coordinate":{"longitude":11.5788002,"latitude":48.16139984},"fuelLevel":0.68,"lastAddress":"Kaiserstraße 38, 80801 München, Germany"}
{"timestamp":"2016-10-03T20:15:00+0200","id":124028,"name":"Gitte","coordinate":{"longitude":11.57719994,"latitude":48.16019821},"fuelLevel":0.75,"lastAddress":"Hohenzollernstraße 70, 80801 München, Germany"}
{"timestamp":"2016-10-03T20:15:00+0200","id":124027,"name":"Fanni","coordinate":{"longitude":11.5777998,"latitude":48.15909958},"fuelLevel":0.7899999999999999,"lastAddress":"Ainmillerstraße 40, 80801 München, Germany"}
{"timestamp":"2016-10-03T20:15:00+0200","id":124005,"name":"Georg","coordinate":{"longitude":11.58150005,"latitude":48.1590004},"fuelLevel":0.66,"lastAddress":"Ainmillerstraße 20, 80801 München, Germany"}
{"timestamp":"2016-10-03T20:15:00+0200","id":124032,"name":"Irmi","coordinate":{"longitude":11.57320023,"latitude":48.16040039},"fuelLevel":0.64,"lastAddress":"Isabellastraße 49, 80796 München, Germany"}
{"timestamp":"2016-10-03T20:15:00+0200","id":124037,"name":"Luise","coordinate":{"longitude":11.56620026,"latitude":48.15790176},"fuelLevel":0.58,"lastAddress":"Hiltenspergerstraße 18, 80798 München, Germany"}
{"timestamp":"2016-10-03T20:15:00+0200","id":124017,"name":"Siggi","coordinate":{"longitude":11.57079983,"latitude":48.16070175},"fuelLevel":0.56,"lastAddress":"Hohenzollernstraße 81, 80796 München, Germany"}
{"timestamp":"2016-10-03T20:15:00+0200","id":124029,"name":"Hannah","coordinate":{"longitude":11.51019955,"latitude":48.04539871},"fuelLevel":0.71,"lastAddress":"Gistlstraße 159, 82049 Pullach im Isartal, Germany"}
{"timestamp":"2016-10-03T20:15:00+0200","id":124042,"name":"Tilli","coordinate":{"longitude":11.50959969,"latitude":48.04560089},"fuelLevel":0.77,"lastAddress":"Seitnerstraße 70, 82049 Pullach im Isartal, Germany"}
{"timestamp":"2016-10-03T20:15:00+0200","id":124008,"name":"Johann","coordinate":{"longitude":11.51010036,"latitude":48.04529953},"fuelLevel":0.87,"lastAddress":"Gistlstraße 159, 82049 Pullach im Isartal, Germany"}
{"timestamp":"2016-10-03T20:15:00+0200","id":124039,"name":"Marie","coordinate":{"longitude":11.75329971,"latitude":46.55680084},"fuelLevel":0.5555555555555556,"lastAddress":"Str. Rainell, 65, 39048 Selva di Val Gardena BZ, Italy"}
{"timestamp":"2016-10-03T20:15:00+0200","id":124009,"name":"Ludwig","coordinate":{"longitude":11.5848999,"latitude":48.16210175},"fuelLevel":0.8999999999999999,"lastAddress":"Herzogstraße 4, 80803 München, Germany"}