{"timestamp":"2016-10-13T11:40:00+0200","id":124041,"name":"Sophie","coordinate":{"longitude":11.57800007,"latitude":48.15010071},"fuelLevel":0.86,"lastAddress":"Amalienstraße 61, 80799 München, Germany"}
{"timestamp":"2016-10-13T11:40:00+0200","id":124026,"name":"Eva","coordinate":{"longitude":11.57820034,"latitude":48.15359879},"fuelLevel":0.61,"lastAddress":"Türkenstraße 95, 80799 München, Germany"}
{"timestamp":"2016-10-13T11:40:00+0200","id":124025,"name":"Elli","coordinate":{"longitude":11.57670021,"latitude":48.15769958},"fuelLevel":0.87,"lastAddress":"Franz-Joseph-Straße 41, 80801 München, Germany"}
{"timestamp":"2016-10-13T11:40:00+0200","id":124033,"name":"Johanna","coordinate":{"longitude":11.57750034,"latitude":48.15060043},"fuelLevel":0.73,"lastAddress":"Schellingstraße 26, 80799 München, Germany"}
{"timestamp":"2016-10-13T11:40:00+0200","id":124044,"name":"Uschi","coordinate":{"longitude":11.57260036,"latitude":48.13199997},"fuelLevel":0.9199999999999999,"lastAddress":"Müllerstraße 20, 80469 München, Germany"}
{"timestamp":"2016-10-13T11:40:00+0200","id":124040,"name":"Reserl","coordinate":{"longitude":11.57199955,"latitude":48.13180161},"fuelLevel":0.83,"lastAddress":"Müllerstraße 24, 80469 München, Germany"}
{"timestamp":"2016-10-13T11:40:00+0200","id":124021,"name":"Xaver","coordinate":{"longitude":11.58040047,"latitude":48.13000107},"fuelLevel":0.9199999999999999,"lastAddress":"Erhardtstraße 27, 80469 München, Germany"}
{"timestamp":"2016-10-13T11:40:00+0200","id":124014,"name":"Quirin","coordinate":{"longitude":11.59829998,"latitude":48.13460159},"fuelLevel":0.57,"lastAddress":"Johannispl. 23, 81667 München, Germany"}
{"timestamp":"2016-10-13T11:40:00+0200","id":124023,"name":"Babsi","coordinate":{"longitude":11.5625,"latitude":48.12609863},"fuelLevel":0.9,"lastAddress":"Thalkirchner Str. 78, 80337 München, Germany"}
{"timestamp":"2016-10-13T11:40:00+0200","id":124016,"name":"Sepp","coordinate":{"longitude":11.60200024,"latitude":48.12900162},"fuelLevel":0.9099999999999999,"lastAddress":"Wörthstraße 40, 81667 München, Germany"}
{"timestamp":"2016-10-13T11:40:00+0200","id":124038,"name":"Magda","coordinate":{"longitude":11.6001997,"latitude":48.12829971},"fuelLevel":0.67,"lastAddress":"Pariser Pl., 81667 München, Germany"}
{"timestamp":"2016-10-13T11:40:00+0200","id":124022,"name":"Anne","coordinate":{"longitude":11.59609985,"latitude":48.1269989},"fuelLevel":0.8300000000000001,"lastAddress":"Rosenheimer Str. 80, 81669 München, Germany"}
{"timestamp":"2016-10-13T11:40:00+0200","id":124011,"name":"Maxl","coordinate":{"longitude":11.59440041,"latitude":48.1283989},"fuelLevel":0.6699999999999999,"lastAddress":"Weißenburger Str. 2, 81667 München, Germany"}
{"timestamp":"2016-10-13T11:40:00+0200","id":124003,"name":"Franzl","coordinate":{"longitude":11.59329987,"latitude":48.12739944},"fuelLevel":0.8,"lastAddress":"Franziskanerstraße 15, 81669 München, Germany"}
{"timestamp":"2016-10-13T11:40:00+0200","id":124010,"name":"Luitpold","coordinate":{"longitude":11.58510017,"latitude":48.12789917},"fuelLevel":0.9400000000000001,"lastAddress":"Lilienstraße 65, 81669 München, Germany"}
{"timestamp":"2016-10-13T11:40:00+0200","id":124006,"name":"Gustl","coordinate":{"longitude":11.57470036,"latitude":48.12030029},"fuelLevel":0.9500000000000001,"lastAddress":"Oefelestraße 8, 81543 München, Germany"}
{"timestamp":"2016-10-13T11:40:00+0200","id":124049,"name":"Marei","coordinate":{"longitude":11.57409954,"latitude":48.12269974},"fuelLevel":0.9400000000000001,"lastAddress":"Eduard-Schmid-Straße 37, 81541 München, Germany"}
{"timestamp":"2016-10-13T11:40:00+0200","id":124045,"name":"Vroni","coordinate":{"longitude":11.56509972,"latitude":48.12409973},"fuelLevel":0.64,"lastAddress":"Kapuzinerstraße 37, 80469 München, Germany"}
{"timestamp":"2016-10-13T11:40:00+0200","id":124018,"name":"Toni","coordinate":{"longitude":11.56970024,"latitude":48.12969971},"fuelLevel":0.66,"lastAddress":"Hans-Sachs-Straße 14, 80469 München, Germany"}
{"timestamp":"2016-10-13T11:40:00+0200","id":124031,"name":"Heidi","coordinate":{"longitude":11.56659985,"latitude":48.15159988},"fuelLevel":0.6499999999999999,"lastAddress":"Heßstraße 23, 80798 München, Germany"}
{"timestamp":"2016-10-13T11:40:00+0200","id":124047,"name":"Walli","coordinate":{"longitude":11.57019997,"latitude":48.14960098},"fuelLevel":0.71,"lastAddress":"Theresienstraße, 80333 München, Germany"}
{"timestamp":"2016-10-13T11:40:00+0200","id":124002,"name":"Ferdl","coordinate":{"longitude":11.56270027,"latitude":48.15499878},"fuelLevel":0.9444444444444444,"lastAddress":"Zentnerstraße 7, 80798 München, Germany"}
{"timestamp":"2016-10-13T11:40:00+0200","id":124048,"name":"Wiggerl","coordinate":{"longitude":11.58049965,"latitude":48.16320038},"fuelLevel":0.66,"lastAddress":"Viktoriastraße 8, 80803 München, Germany"}
{"timestamp":"2016-10-13T11:40:00+0200","id":124028,"name":"Gitte","coordinate":{"longitude":11.57719994,"latitude":48.16009903},"fuelLevel":0.76,"lastAddress":"Hohenzollernstraße 41, 80801 München, Germany"}
{"timestamp":"2016-10-13T11:40:00+0200","id":124027,"name":"Fanni","coordinate":{"longitude":11.5855999,"latitude":48.16149902},"fuelLevel":0.7899999999999999,"lastAddress":"Leopoldstraße 59, 80802 München, Germany"}
{"timestamp":"2016-10-13T11:40:00+0200","id":124005,"name":"Georg","coordinate":{"longitude":11.57540035,"latitude":48.16189957},"fuelLevel":0.56,"lastAddress":"Viktor-Scheffel-Straße 21, 80803 München, Germany"}
{"timestamp":"2016-10-13T11:40:00+0200","id":124032,"name":"Irmi","coordinate":{"longitude":11.57299995,"latitude":48.16030121},"fuelLevel":0.64,"lastAddress":"Isabellastraße 49, 80796 München, Germany"}
{"timestamp":"2016-10-13T11:40:00+0200","id":124037,"name":"Luise","coordinate":{"longitude":11.5703001,"latitude":48.15739822},"fuelLevel":0.52,"lastAddress":"Agnesstraße 12-14, 80798 München, Germany"}
{"timestamp":"2016-10-13T11:40:00+0200","id":124017,"name":"Siggi","coordinate":{"longitude":11.57250023,"latitude":48.16009903},"fuelLevel":0.56,"lastAddress":"Isabellastraße 45, 80796 München, Germany"}
{"timestamp":"2016-10-13T11:40:00+0200","id":124029,"name":"Hannah","coordinate":{"longitude":11.51019955,"latitude":48.04550171},"fuelLevel":0.7,"lastAddress":"Gistlstraße 159, 82049 Pullach im Isartal, Germany"}
{"timestamp":"2016-10-13T11:40:00+0200","id":124008,"name":"Johann","coordinate":{"longitude":11.50990009,"latitude":48.04550171},"fuelLevel":0.87,"lastAddress":"Gistlstraße 159, 82049 Pullach im Isartal, Germany"}
{"timestamp":"2016-10-13T11:40:00+0200","id":124009,"name":"Ludwig","coordinate":{"longitude":11.58440018,"latitude":48.16249847},"fuelLevel":0.71,"lastAddress":"Siegfriedstraße 5, 80803 München, Germany"}
{"timestamp":"2016-10-13T11:40:00+0200","id":124007,"name":"Jakob","coordinate":{"longitude":11.57730007,"latitude":48.16669846},"fuelLevel":0.9400000000000001,"lastAddress":"Ansprengerstraße 22, 80803 München, Germany"}