{"timestamp":"2016-10-02T14:50:00+0200","id":124041,"name":"Sophie","coordinate":{"longitude":11.57789993,"latitude":48.15010071},"fuelLevel":0.93,"lastAddress":"Amalienstraße 61, 80799 München, Germany"}
{"timestamp":"2016-10-02T14:50:00+0200","id":124026,"name":"Eva","coordinate":{"longitude":11.5781002,"latitude":48.15370178},"fuelLevel":0.61,"lastAddress":"Rambergstraße 3, 80799 München, Germany"}
{"timestamp":"2016-10-02T14:50:00+0200","id":124025,"name":"Elli","coordinate":{"longitude":11.57600021,"latitude":48.15209961},"fuelLevel":0.9500000000000001,"lastAddress":"Nordendstraße 2, 80799 München, Germany"}
{"timestamp":"2016-10-02T14:50:00+0200","id":124033,"name":"Johanna","coordinate":{"longitude":11.58160019,"latitude":48.15179825},"fuelLevel":0.84,"lastAddress":"Ludwigstraße 31, 80539 München, Germany"}
{"timestamp":"2016-10-02T14:50:00+0200","id":124036,"name":"Liesel","coordinate":{"longitude":11.57499981,"latitude":48.15629959},"fuelLevel":0.6699999999999999,"lastAddress":"Nordendstraße 29, 80801 München, Germany"}
{"timestamp":"2016-10-02T14:50:00+0200","id":124024,"name":"Christl","coordinate":{"longitude":11.57909966,"latitude":48.13370132},"fuelLevel":0.8,"lastAddress":"Rumfordstraße 30, 80469 München, Germany"}
{"timestamp":"2016-10-02T14:50:00+0200","id":124040,"name":"Reserl","coordinate":{"longitude":11.57619953,"latitude":48.13159943},"fuelLevel":0.38,"lastAddress":"Gärtnerpl. 2, 80469 München, Germany"}
{"timestamp":"2016-10-02T14:50:00+0200","id":124021,"name":"Xaver","coordinate":{"longitude":11.58049965,"latitude":48.13199997},"fuelLevel":0.52,"lastAddress":"Kohlstraße 3, 80469 München, Germany"}
{"timestamp":"2016-10-02T14:50:00+0200","id":124034,"name":"Kathi","coordinate":{"longitude":11.60490036,"latitude":48.13259888},"fuelLevel":0.67,"lastAddress":"Elsässer Str. 4, 81667 München, Germany"}
{"timestamp":"2016-10-02T14:50:00+0200","id":124030,"name":"Hedwig","coordinate":{"longitude":11.56369972,"latitude":48.1271019},"fuelLevel":0.43,"lastAddress":"Thalkirchner Str. 54, 80337 München, Germany"}
{"timestamp":"2016-10-02T14:50:00+0200","id":124023,"name":"Babsi","coordinate":{"longitude":11.56340027,"latitude":48.1269989},"fuelLevel":0.93,"lastAddress":"Thalkirchner Str. 54, 80337 München, Germany"}
{"timestamp":"2016-10-02T14:50:00+0200","id":124016,"name":"Sepp","coordinate":{"longitude":11.59840012,"latitude":48.12580109},"fuelLevel":0.9199999999999999,"lastAddress":"Rosenheimer Str. 100, 81669 München, Germany"}
{"timestamp":"2016-10-02T14:50:00+0200","id":124038,"name":"Magda","coordinate":{"longitude":11.60050011,"latitude":48.12810135},"fuelLevel":0.67,"lastAddress":"Gravelottestraße 1, 81667 München, Germany"}
{"timestamp":"2016-10-02T14:50:00+0200","id":124022,"name":"Anne","coordinate":{"longitude":11.59679985,"latitude":48.12689972},"fuelLevel":0.8900000000000001,"lastAddress":"Rosenheimer Str. 105, 81667 München, Germany"}
{"timestamp":"2016-10-02T14:50:00+0200","id":124000,"name":"Bertl","coordinate":{"longitude":11.59710026,"latitude":48.12960052},"fuelLevel":0.82,"lastAddress":"Kellerstraße 43, 81667 München, Germany"}
{"timestamp":"2016-10-02T14:50:00+0200","id":124013,"name":"Poldi","coordinate":{"longitude":11.59420013,"latitude":48.12789917},"fuelLevel":0.79,"lastAddress":"Balanstraße 2, 81669 München, Germany"}
{"timestamp":"2016-10-02T14:50:00+0200","id":124011,"name":"Maxl","coordinate":{"longitude":11.59280014,"latitude":48.12630081},"fuelLevel":0.8099999999999999,"lastAddress":"Simon-Knoll-Platz 3, 81669 München, Germany"}
{"timestamp":"2016-10-02T14:50:00+0200","id":124003,"name":"Franzl","coordinate":{"longitude":11.59300041,"latitude":48.12730026},"fuelLevel":0.79,"lastAddress":"Franziskanerstraße 8, 81669 München, Germany"}
{"timestamp":"2016-10-02T14:50:00+0200","id":124010,"name":"Luitpold","coordinate":{"longitude":11.58600044,"latitude":48.12599945},"fuelLevel":0.88,"lastAddress":"Gebsattelstraße 2, 81541 München, Germany"}
{"timestamp":"2016-10-02T14:50:00+0200","id":124019,"name":"Valentin","coordinate":{"longitude":11.58479977,"latitude":48.12329865},"fuelLevel":0.9199999999999999,"lastAddress":"Hochstraße 51, 81541 München, Germany"}
{"timestamp":"2016-10-02T14:50:00+0200","id":124035,"name":"Leonie","coordinate":{"longitude":11.58539963,"latitude":48.12919998},"fuelLevel":0.7899999999999999,"lastAddress":"Schwarzstraße 2, 81669 München, Germany"}
{"timestamp":"2016-10-02T14:50:00+0200","id":124006,"name":"Gustl","coordinate":{"longitude":11.57750034,"latitude":48.12110138},"fuelLevel":0.9400000000000001,"lastAddress":"Falkenstraße 44, 81541 München, Germany"}
{"timestamp":"2016-10-02T14:50:00+0200","id":124020,"name":"Vinzenz","coordinate":{"longitude":11.57849979,"latitude":48.12379837},"fuelLevel":0.9099999999999999,"lastAddress":"Albanistraße 13, 81541 München, Germany"}
{"timestamp":"2016-10-02T14:50:00+0200","id":124049,"name":"Marei","coordinate":{"longitude":11.57359982,"latitude":48.11989975},"fuelLevel":0.7200000000000001,"lastAddress":"Oefelestraße 9, 81543 München, Germany"}
{"timestamp":"2016-10-02T14:50:00+0200","id":124045,"name":"Vroni","coordinate":{"longitude":11.56709957,"latitude":48.12799835},"fuelLevel":0.9199999999999999,"lastAddress":"Pestalozzistraße 52, 80469 München, Germany"}
{"timestamp":"2016-10-02T14:50:00+0200","id":124018,"name":"Toni","coordinate":{"longitude":11.56980038,"latitude":48.13100052},"fuelLevel":0.9099999999999999,"lastAddress":"Müllerstraße 40, 80469 München, Germany"}
{"timestamp":"2016-10-02T14:50:00+0200","id":124012,"name":"Peter","coordinate":{"longitude":11.57289982,"latitude":48.14970016},"fuelLevel":1,"lastAddress":"Barer Str. 50, 80799 München, Germany"}
{"timestamp":"2016-10-02T14:50:00+0200","id":124004,"name":"Fridl","coordinate":{"longitude":11.56620026,"latitude":48.15650177},"fuelLevel":0.55,"lastAddress":"Hiltenspergerstraße 6, 80798 München, Germany"}
{"timestamp":"2016-10-02T14:50:00+0200","id":124031,"name":"Heidi","coordinate":{"longitude":11.56630039,"latitude":48.14989853},"fuelLevel":0.8,"lastAddress":"Luisenstraße 51, 80333 München, Germany"}
{"timestamp":"2016-10-02T14:50:00+0200","id":124002,"name":"Ferdl","coordinate":{"longitude":11.41139984,"latitude":47.82899857},"fuelLevel":0.9500000000000001,"lastAddress":"Klosterstraße 6, 82547 Eurasburg, Germany"}
{"timestamp":"2016-10-02T14:50:00+0200","id":124048,"name":"Wiggerl","coordinate":{"longitude":11.57890034,"latitude":48.16120148},"fuelLevel":0.68,"lastAddress":"Kaiserstraße 45, 80801 München, Germany"}
{"timestamp":"2016-10-02T14:50:00+0200","id":124028,"name":"Gitte","coordinate":{"longitude":11.57730007,"latitude":48.16009903},"fuelLevel":0.75,"lastAddress":"Römerstraße 17, 80801 München, Germany"}
{"timestamp":"2016-10-02T14:50:00+0200","id":124005,"name":"Georg","coordinate":{"longitude":11.58160019,"latitude":48.15879822},"fuelLevel":0.66,"lastAddress":"Ainmillerstraße 18, 80801 München, Germany"}
{"timestamp":"2016-10-02T14:50:00+0200","id":124032,"name":"Irmi","coordinate":{"longitude":11.57269955,"latitude":48.16009903},"fuelLevel":0.64,"lastAddress":"Isabellastraße 47, 80796 München, Germany"}
{"timestamp":"2016-10-02T14:50:00+0200","id":124037,"name":"Luise","coordinate":{"longitude":11.56630039,"latitude":48.15790176},"fuelLevel":0.58,"lastAddress":"Agnesstraße 38, 80798 München, Germany"}
{"timestamp":"2016-10-02T14:50:00+0200","id":124017,"name":"Siggi","coordinate":{"longitude":11.57089996,"latitude":48.16080093},"fuelLevel":0.56,"lastAddress":"Hohenzollernstraße 79-81, 80796 München, Germany"}
{"timestamp":"2016-10-02T14:50:00+0200","id":124029,"name":"Hannah","coordinate":{"longitude":11.51019955,"latitude":48.04539871},"fuelLevel":0.71,"lastAddress":"Gistlstraße 159, 82049 Pullach im Isartal, Germany"}
{"timestamp":"2016-10-02T14:50:00+0200","id":124042,"name":"Tilli","coordinate":{"longitude":11.50959969,"latitude":48.04529953},"fuelLevel":0.77,"lastAddress":"Seitnerstraße 70, 82049 Pullach im Isartal, Germany"}
{"timestamp":"2016-10-02T14:50:00+0200","id":124009,"name":"Ludwig","coordinate":{"longitude":11.5848999,"latitude":48.16210175},"fuelLevel":0.8999999999999999,"lastAddress":"Herzogstraße 4, 80803 München, Germany"}
{"timestamp":"2016-10-02T14:50:00+0200","id":124007,"name":"Jakob","coordinate":{"longitude":11.58640003,"latitude":48.16379929},"fuelLevel":0.9500000000000001,"lastAddress":"Leopoldstraße 85, 80802 München, Germany"}