{"timestamp":"2016-10-01T09:20:00+0200","id":124041,"name":"Sophie","coordinate":{"longitude":11.57769966,"latitude":48.1495018},"fuelLevel":0.93,"lastAddress":"Amalienstraße 55, 80799 München, Germany"}
{"timestamp":"2016-10-01T09:20:00+0200","id":124026,"name":"Eva","coordinate":{"longitude":11.57839966,"latitude":48.15359879},"fuelLevel":0.61,"lastAddress":"Türkenstraße 95, 80799 München, Germany"}
{"timestamp":"2016-10-01T09:20:00+0200","id":124025,"name":"Elli","coordinate":{"longitude":11.57600021,"latitude":48.15499878},"fuelLevel":0.77,"lastAddress":"Georgenstraße 37, 80799 München, Germany"}
{"timestamp":"2016-10-01T09:20:00+0200","id":124033,"name":"Johanna","coordinate":{"longitude":11.58090019,"latitude":48.15250015},"fuelLevel":0.88,"lastAddress":"Akademiestraße 5, 80799 München, Germany"}
{"timestamp":"2016-10-01T09:20:00+0200","id":124036,"name":"Liesel","coordinate":{"longitude":11.57509995,"latitude":48.15620041},"fuelLevel":0.6699999999999999,"lastAddress":"Nordendstraße 29, 80801 München, Germany"}
{"timestamp":"2016-10-01T09:20:00+0200","id":124024,"name":"Christl","coordinate":{"longitude":11.57960033,"latitude":48.13399887},"fuelLevel":0.8,"lastAddress":"Zwingerstraße, 80469 München, Germany"}
{"timestamp":"2016-10-01T09:20:00+0200","id":124040,"name":"Reserl","coordinate":{"longitude":11.57909966,"latitude":48.12979889},"fuelLevel":0.79,"lastAddress":"Corneliusstraße 44-46, 80469 München, Germany"}
{"timestamp":"2016-10-01T09:20:00+0200","id":124021,"name":"Xaver","coordinate":{"longitude":11.58049965,"latitude":48.13180161},"fuelLevel":0.52,"lastAddress":"Kohlstraße 4, 80469 München, Germany"}
{"timestamp":"2016-10-01T09:20:00+0200","id":124014,"name":"Quirin","coordinate":{"longitude":11.60709953,"latitude":48.13079834},"fuelLevel":0.9099999999999999,"lastAddress":"Orleansstraße 69, 81667 München, Germany"}
{"timestamp":"2016-10-01T09:20:00+0200","id":124034,"name":"Kathi","coordinate":{"longitude":11.60519981,"latitude":48.13219833},"fuelLevel":0.67,"lastAddress":"Spicherenstraße 1, 81667 München, Germany"}
{"timestamp":"2016-10-01T09:20:00+0200","id":124030,"name":"Hedwig","coordinate":{"longitude":11.56719971,"latitude":48.13059998},"fuelLevel":0.89,"lastAddress":"Pestalozzistraße 20, 80469 München, Germany"}
{"timestamp":"2016-10-01T09:20:00+0200","id":124023,"name":"Babsi","coordinate":{"longitude":11.5635004,"latitude":48.1271019},"fuelLevel":0.93,"lastAddress":"Thalkirchner Str. 54, 80337 München, Germany"}
{"timestamp":"2016-10-01T09:20:00+0200","id":124016,"name":"Sepp","coordinate":{"longitude":11.59850025,"latitude":48.12580109},"fuelLevel":0.9199999999999999,"lastAddress":"Rosenheimer Str. 100, 81669 München, Germany"}
{"timestamp":"2016-10-01T09:20:00+0200","id":124038,"name":"Magda","coordinate":{"longitude":11.60000038,"latitude":48.12889862},"fuelLevel":0.76,"lastAddress":"Sedanstraße 39, 81667 München, Germany"}
{"timestamp":"2016-10-01T09:20:00+0200","id":124022,"name":"Anne","coordinate":{"longitude":11.59619999,"latitude":48.1257019},"fuelLevel":0.8900000000000001,"lastAddress":"Balanstraße 33, 81669 München, Germany"}
{"timestamp":"2016-10-01T09:20:00+0200","id":124000,"name":"Bertl","coordinate":{"longitude":11.59459972,"latitude":48.12960052},"fuelLevel":0.84,"lastAddress":"Steinstraße 68, 81667 München, Germany"}
{"timestamp":"2016-10-01T09:20:00+0200","id":124013,"name":"Poldi","coordinate":{"longitude":11.59399986,"latitude":48.12829971},"fuelLevel":0.79,"lastAddress":"Rosenheimer Pl. 1, 81669 München, Germany"}
{"timestamp":"2016-10-01T09:20:00+0200","id":124011,"name":"Maxl","coordinate":{"longitude":11.59290028,"latitude":48.1257019},"fuelLevel":0.8099999999999999,"lastAddress":"Sieboldstraße 7, 81669 München, Germany"}
{"timestamp":"2016-10-01T09:20:00+0200","id":124003,"name":"Franzl","coordinate":{"longitude":11.59309959,"latitude":48.12760162},"fuelLevel":0.79,"lastAddress":"Franziskanerstraße 8, 81669 München, Germany"}
{"timestamp":"2016-10-01T09:20:00+0200","id":124010,"name":"Luitpold","coordinate":{"longitude":11.58590031,"latitude":48.12580109},"fuelLevel":0.88,"lastAddress":"Gebsattelstraße 2, 81541 München, Germany"}
{"timestamp":"2016-10-01T09:20:00+0200","id":124019,"name":"Valentin","coordinate":{"longitude":11.58520031,"latitude":48.12350082},"fuelLevel":0.9199999999999999,"lastAddress":"Hochstraße 49C, 81541 München, Germany"}
{"timestamp":"2016-10-01T09:20:00+0200","id":124035,"name":"Leonie","coordinate":{"longitude":11.58570004,"latitude":48.12929916},"fuelLevel":0.7899999999999999,"lastAddress":"Schwarzstraße 1, 81669 München, Germany"}
{"timestamp":"2016-10-01T09:20:00+0200","id":124006,"name":"Gustl","coordinate":{"longitude":11.57750034,"latitude":48.1208992},"fuelLevel":0.9400000000000001,"lastAddress":"Falkenstraße 46, 81541 München, Germany"}
{"timestamp":"2016-10-01T09:20:00+0200","id":124020,"name":"Vinzenz","coordinate":{"longitude":11.57870007,"latitude":48.12390137},"fuelLevel":0.9099999999999999,"lastAddress":"Asamstraße 8, 81541 München, Germany"}
{"timestamp":"2016-10-01T09:20:00+0200","id":124049,"name":"Marei","coordinate":{"longitude":11.57409954,"latitude":48.12039948},"fuelLevel":0.7200000000000001,"lastAddress":"Oefelestraße 12, 81543 München, Germany"}
{"timestamp":"2016-10-01T09:20:00+0200","id":124045,"name":"Vroni","coordinate":{"longitude":11.56690025,"latitude":48.1271019},"fuelLevel":0.9199999999999999,"lastAddress":"Holzstraße 49-51, 80469 München, Germany"}
{"timestamp":"2016-10-01T09:20:00+0200","id":124018,"name":"Toni","coordinate":{"longitude":11.57269955,"latitude":48.12969971},"fuelLevel":0.9299999999999999,"lastAddress":"Klenzestraße 46A, 80469 München, Germany"}
{"timestamp":"2016-10-01T09:20:00+0200","id":124012,"name":"Peter","coordinate":{"longitude":11.57250023,"latitude":48.14960098},"fuelLevel":1,"lastAddress":"Barer Str. 48, 80799 München, Germany"}
{"timestamp":"2016-10-01T09:20:00+0200","id":124004,"name":"Fridl","coordinate":{"longitude":11.56579971,"latitude":48.15599823},"fuelLevel":0.55,"lastAddress":"Josephspl. 5, 80798 München, Germany"}
{"timestamp":"2016-10-01T09:20:00+0200","id":124031,"name":"Heidi","coordinate":{"longitude":11.56639957,"latitude":48.14970016},"fuelLevel":0.8,"lastAddress":"Luisenstraße 51-53, 80333 München, Germany"}
{"timestamp":"2016-10-01T09:20:00+0200","id":124002,"name":"Ferdl","coordinate":{"longitude":11.56400013,"latitude":48.15069962},"fuelLevel":0.9500000000000001,"lastAddress":"Augustenstraße 82, 80333 München, Germany"}
{"timestamp":"2016-10-01T09:20:00+0200","id":124048,"name":"Wiggerl","coordinate":{"longitude":11.57730007,"latitude":48.15950012},"fuelLevel":0.7200000000000001,"lastAddress":"Römerstraße 10-14, 80801 München, Germany"}
{"timestamp":"2016-10-01T09:20:00+0200","id":124028,"name":"Gitte","coordinate":{"longitude":11.57989979,"latitude":48.16040039},"fuelLevel":0.77,"lastAddress":"Friedrichstraße 29, 80801 München, Germany"}
{"timestamp":"2016-10-01T09:20:00+0200","id":124027,"name":"Fanni","coordinate":{"longitude":11.5770998,"latitude":48.15969849},"fuelLevel":0.8099999999999999,"lastAddress":"Römerstraße 15, 80801 München, Germany"}
{"timestamp":"2016-10-01T09:20:00+0200","id":124005,"name":"Georg","coordinate":{"longitude":11.58119965,"latitude":48.15829849},"fuelLevel":0.69,"lastAddress":"Ainmillerstraße 17, 80801 München, Germany"}
{"timestamp":"2016-10-01T09:20:00+0200","id":124001,"name":"Edmund","coordinate":{"longitude":11.57800007,"latitude":48.15829849},"fuelLevel":0.62,"lastAddress":"Ainmillerstraße 31, 80801 München, Germany"}
{"timestamp":"2016-10-01T09:20:00+0200","id":124032,"name":"Irmi","coordinate":{"longitude":11.57310009,"latitude":48.16049957},"fuelLevel":0.64,"lastAddress":"Hohenzollernstraße 65, 80796 München, Germany"}
{"timestamp":"2016-10-01T09:20:00+0200","id":124037,"name":"Luise","coordinate":{"longitude":11.56649971,"latitude":48.15800095},"fuelLevel":0.9027777777777778,"lastAddress":"Hiltenspergerstraße 18, 80798 München, Germany"}
{"timestamp":"2016-10-01T09:20:00+0200","id":124017,"name":"Siggi","coordinate":{"longitude":11.57089996,"latitude":48.16090012},"fuelLevel":0.56,"lastAddress":"Hohenzollernstraße 112, 80796 München, Germany"}
{"timestamp":"2016-10-01T09:20:00+0200","id":124029,"name":"Hannah","coordinate":{"longitude":11.51019955,"latitude":48.04539871},"fuelLevel":0.71,"lastAddress":"Gistlstraße 159, 82049 Pullach im Isartal, Germany"}
{"timestamp":"2016-10-01T09:20:00+0200","id":124042,"name":"Tilli","coordinate":{"longitude":11.50930023,"latitude":48.04560089},"fuelLevel":0.77,"lastAddress":"Franz-Höllriegel-Straße, 82049 Pullach im Isartal, Germany"}
{"timestamp":"2016-10-01T09:20:00+0200","id":124008,"name":"Johann","coordinate":{"longitude":11.50959969,"latitude":48.04539871},"fuelLevel":0.87,"lastAddress":"Seitnerstraße 70, 82049 Pullach im Isartal, Germany"}
{"timestamp":"2016-10-01T09:20:00+0200","id":124009,"name":"Ludwig","coordinate":{"longitude":11.58539963,"latitude":48.16329956},"fuelLevel":0.8999999999999999,"lastAddress":"Clemensstraße 1, 80803 München, Germany"}
{"timestamp":"2016-10-01T09:20:00+0200","id":124007,"name":"Jakob","coordinate":{"longitude":11.5862999,"latitude":48.16379929},"fuelLevel":0.9500000000000001,"lastAddress":"Leopoldstraße 85, 80802 München, Germany"}