{"timestamp":"2016-10-20T12:20:00+0200","id":124041,"name":"Sophie","coordinate":{"longitude":11.58119965,"latitude":48.15169907},"fuelLevel":0.78,"lastAddress":"Adalbertstraße 6, 80799 München, Germany"}
{"timestamp":"2016-10-20T12:20:00+0200","id":124026,"name":"Eva","coordinate":{"longitude":11.58080006,"latitude":48.14970016},"fuelLevel":0.9199999999999999,"lastAddress":"Ludwigstraße 20, 80539 München, Germany"}
{"timestamp":"2016-10-20T12:20:00+0200","id":124025,"name":"Elli","coordinate":{"longitude":11.57940006,"latitude":48.15570068},"fuelLevel":0.8300000000000001,"lastAddress":"Konradstraße 16, 80801 München, Germany"}
{"timestamp":"2016-10-20T12:20:00+0200","id":124044,"name":"Uschi","coordinate":{"longitude":11.57260036,"latitude":48.13190079},"fuelLevel":0.71,"lastAddress":"Müllerstraße 9, 80469 München, Germany"}
{"timestamp":"2016-10-20T12:20:00+0200","id":124040,"name":"Reserl","coordinate":{"longitude":11.57209969,"latitude":48.13259888},"fuelLevel":0.77,"lastAddress":"Blumenstraße 28, 80331 München, Germany"}
{"timestamp":"2016-10-20T12:20:00+0200","id":124034,"name":"Kathi","coordinate":{"longitude":11.60879993,"latitude":48.13259888},"fuelLevel":0.57,"lastAddress":"Kirchenstraße 90, 81675 München, Germany"}
{"timestamp":"2016-10-20T12:20:00+0200","id":124016,"name":"Sepp","coordinate":{"longitude":11.59829998,"latitude":48.12620163},"fuelLevel":0.86,"lastAddress":"Rosenheimer Str. 123, 81667 München, Germany"}
{"timestamp":"2016-10-20T12:20:00+0200","id":124013,"name":"Poldi","coordinate":{"longitude":11.59459972,"latitude":48.12770081},"fuelLevel":0.61,"lastAddress":"Balanstraße 6A, 81669 München, Germany"}
{"timestamp":"2016-10-20T12:20:00+0200","id":124011,"name":"Maxl","coordinate":{"longitude":11.59469986,"latitude":48.12789917},"fuelLevel":0.6699999999999999,"lastAddress":"Rosenheimer Str. 64, 81669 München, Germany"}
{"timestamp":"2016-10-20T12:20:00+0200","id":124003,"name":"Franzl","coordinate":{"longitude":11.59329987,"latitude":48.12689972},"fuelLevel":0.7799999999999999,"lastAddress":"Rablstraße 36, 81669 München, Germany"}
{"timestamp":"2016-10-20T12:20:00+0200","id":124010,"name":"Luitpold","coordinate":{"longitude":11.58759975,"latitude":48.12770081},"fuelLevel":0.87,"lastAddress":"Hochstraße 19, 81669 München, Germany"}
{"timestamp":"2016-10-20T12:20:00+0200","id":124020,"name":"Vinzenz","coordinate":{"longitude":11.57800007,"latitude":48.12549973},"fuelLevel":0.75,"lastAddress":"Boosstraße 7, 81541 München, Germany"}
{"timestamp":"2016-10-20T12:20:00+0200","id":124049,"name":"Marei","coordinate":{"longitude":11.57419968,"latitude":48.12239838},"fuelLevel":0.9400000000000001,"lastAddress":"Sommerstraße 8, 81543 München, Germany"}
{"timestamp":"2016-10-20T12:20:00+0200","id":124045,"name":"Vroni","coordinate":{"longitude":11.56509972,"latitude":48.12440109},"fuelLevel":0.64,"lastAddress":"Kapuzinerstraße 37, 80469 München, Germany"}
{"timestamp":"2016-10-20T12:20:00+0200","id":124018,"name":"Toni","coordinate":{"longitude":11.56970024,"latitude":48.12979889},"fuelLevel":0.6499999999999999,"lastAddress":"Hans-Sachs-Straße 10, 80469 München, Germany"}
{"timestamp":"2016-10-20T12:20:00+0200","id":124004,"name":"Fridl","coordinate":{"longitude":11.55580044,"latitude":48.15520096},"fuelLevel":0.58,"lastAddress":"Lothstraße 64, 80335 München, Germany"}
{"timestamp":"2016-10-20T12:20:00+0200","id":124031,"name":"Heidi","coordinate":{"longitude":11.5635004,"latitude":48.14960098},"fuelLevel":0.62,"lastAddress":"Augustenstraße 70, 80333 München, Germany"}
{"timestamp":"2016-10-20T12:20:00+0200","id":124047,"name":"Walli","coordinate":{"longitude":11.57219982,"latitude":48.1493988},"fuelLevel":0.6499999999999999,"lastAddress":"Barer Str. 29, 80799 München, Germany"}
{"timestamp":"2016-10-20T12:20:00+0200","id":124048,"name":"Wiggerl","coordinate":{"longitude":11.58300018,"latitude":48.15850067},"fuelLevel":0.63,"lastAddress":"Wilhelmstraße 4, 80801 München, Germany"}
{"timestamp":"2016-10-20T12:20:00+0200","id":124028,"name":"Gitte","coordinate":{"longitude":11.57579994,"latitude":48.16030121},"fuelLevel":0.7200000000000001,"lastAddress":"Hohenzollernstraße 78-82, 80801 München, Germany"}
{"timestamp":"2016-10-20T12:20:00+0200","id":124037,"name":"Luise","coordinate":{"longitude":11.57219982,"latitude":48.15739822},"fuelLevel":0.9500000000000001,"lastAddress":"Agnesstraße 6, 80801 München, Germany"}
{"timestamp":"2016-10-20T12:20:00+0200","id":124029,"name":"Hannah","coordinate":{"longitude":11.51000023,"latitude":48.04550171},"fuelLevel":0.59,"lastAddress":"Gistlstraße 159, 82049 Pullach im Isartal, Germany"}
{"timestamp":"2016-10-20T12:20:00+0200","id":124009,"name":"Ludwig","coordinate":{"longitude":11.58619976,"latitude":48.16500092},"fuelLevel":0.59,"lastAddress":"Leopoldstraße 102, 80802 München, Germany"}
{"timestamp":"2016-10-20T12:20:00+0200","id":124007,"name":"Jakob","coordinate":{"longitude":11.57439995,"latitude":48.16690063},"fuelLevel":0.9500000000000001,"lastAddress":"Karl-Theodor-Straße 79, 80803 München, Germany"}