{"timestamp":"2016-09-30T04:25:00+0200","id":124041,"name":"Sophie","coordinate":{"longitude":11.57769966,"latitude":48.14970016},"fuelLevel":0.93,"lastAddress":"Schellingstraße 11, 80799 München, Germany"}
{"timestamp":"2016-09-30T04:25:00+0200","id":124026,"name":"Eva","coordinate":{"longitude":11.57849979,"latitude":48.15359879},"fuelLevel":0.61,"lastAddress":"Türkenstraße 95, 80799 München, Germany"}
{"timestamp":"2016-09-30T04:25:00+0200","id":124025,"name":"Elli","coordinate":{"longitude":11.57600021,"latitude":48.15530014},"fuelLevel":0.77,"lastAddress":"Kurfürstenstraße 21, 80801 München, Germany"}
{"timestamp":"2016-09-30T04:25:00+0200","id":124033,"name":"Johanna","coordinate":{"longitude":11.58110046,"latitude":48.15250015},"fuelLevel":0.88,"lastAddress":"Akademiestraße 5, 80799 München, Germany"}
{"timestamp":"2016-09-30T04:25:00+0200","id":124036,"name":"Liesel","coordinate":{"longitude":11.57540035,"latitude":48.15639877},"fuelLevel":0.6699999999999999,"lastAddress":"Nordendstraße 38, 80801 München, Germany"}
{"timestamp":"2016-09-30T04:25:00+0200","id":124024,"name":"Christl","coordinate":{"longitude":11.57960033,"latitude":48.13349915},"fuelLevel":0.8,"lastAddress":"Klenzestraße 1A, 80469 München, Germany"}
{"timestamp":"2016-09-30T04:25:00+0200","id":124040,"name":"Reserl","coordinate":{"longitude":11.57870007,"latitude":48.13140106},"fuelLevel":0.79,"lastAddress":"Baaderstraße 36, 80469 München, Germany"}
{"timestamp":"2016-09-30T04:25:00+0200","id":124021,"name":"Xaver","coordinate":{"longitude":11.57999992,"latitude":48.13199997},"fuelLevel":0.52,"lastAddress":"Baaderstraße 22, 80469 München, Germany"}
{"timestamp":"2016-09-30T04:25:00+0200","id":124034,"name":"Kathi","coordinate":{"longitude":11.60490036,"latitude":48.13240051},"fuelLevel":0.67,"lastAddress":"Elsässer Str. 6, 81667 München, Germany"}
{"timestamp":"2016-09-30T04:25:00+0200","id":124030,"name":"Hedwig","coordinate":{"longitude":11.56760025,"latitude":48.13119888},"fuelLevel":0.89,"lastAddress":"Pestalozzistraße 7, 80469 München, Germany"}
{"timestamp":"2016-09-30T04:25:00+0200","id":124023,"name":"Babsi","coordinate":{"longitude":11.56359959,"latitude":48.12720108},"fuelLevel":0.93,"lastAddress":"Thalkirchner Str. 54, 80337 München, Germany"}
{"timestamp":"2016-09-30T04:25:00+0200","id":124016,"name":"Sepp","coordinate":{"longitude":11.59869957,"latitude":48.12590027},"fuelLevel":0.9199999999999999,"lastAddress":"Rosenheimer Str. 125, 81667 München, Germany"}
{"timestamp":"2016-09-30T04:25:00+0200","id":124038,"name":"Magda","coordinate":{"longitude":11.6001997,"latitude":48.12820053},"fuelLevel":0.76,"lastAddress":"Pariser Pl., 81667 München, Germany"}
{"timestamp":"2016-09-30T04:25:00+0200","id":124022,"name":"Anne","coordinate":{"longitude":11.59689999,"latitude":48.12680054},"fuelLevel":0.8900000000000001,"lastAddress":"Rosenheimer Str. 88-90, 81667 München, Germany"}
{"timestamp":"2016-09-30T04:25:00+0200","id":124000,"name":"Bertl","coordinate":{"longitude":11.5948,"latitude":48.12960052},"fuelLevel":0.84,"lastAddress":"Steinstraße 68, 81667 München, Germany"}
{"timestamp":"2016-09-30T04:25:00+0200","id":124013,"name":"Poldi","coordinate":{"longitude":11.59329987,"latitude":48.1271019},"fuelLevel":0.79,"lastAddress":"Franziskanerstraße 17, 81669 München, Germany"}
{"timestamp":"2016-09-30T04:25:00+0200","id":124011,"name":"Maxl","coordinate":{"longitude":11.5927,"latitude":48.12580109},"fuelLevel":0.8099999999999999,"lastAddress":"Sieboldstraße 2, 81669 München, Germany"}
{"timestamp":"2016-09-30T04:25:00+0200","id":124003,"name":"Franzl","coordinate":{"longitude":11.59309959,"latitude":48.12720108},"fuelLevel":0.79,"lastAddress":"Franziskanerstraße 17, 81669 München, Germany"}
{"timestamp":"2016-09-30T04:25:00+0200","id":124010,"name":"Luitpold","coordinate":{"longitude":11.58600044,"latitude":48.12599945},"fuelLevel":0.88,"lastAddress":"Gebsattelstraße 2, 81541 München, Germany"}
{"timestamp":"2016-09-30T04:25:00+0200","id":124019,"name":"Valentin","coordinate":{"longitude":11.58500004,"latitude":48.12360001},"fuelLevel":0.9199999999999999,"lastAddress":"Hochstraße 49C, 81541 München, Germany"}
{"timestamp":"2016-09-30T04:25:00+0200","id":124035,"name":"Leonie","coordinate":{"longitude":11.58580017,"latitude":48.12929916},"fuelLevel":0.7899999999999999,"lastAddress":"Schwarzstraße 1, 81669 München, Germany"}
{"timestamp":"2016-09-30T04:25:00+0200","id":124006,"name":"Gustl","coordinate":{"longitude":11.57769966,"latitude":48.1208992},"fuelLevel":0.93,"lastAddress":"Falkenstraße 43, 81541 München, Germany"}
{"timestamp":"2016-09-30T04:25:00+0200","id":124020,"name":"Vinzenz","coordinate":{"longitude":11.57789993,"latitude":48.12360001},"fuelLevel":0.9099999999999999,"lastAddress":"Albanistraße 12, 81541 München, Germany"}
{"timestamp":"2016-09-30T04:25:00+0200","id":124049,"name":"Marei","coordinate":{"longitude":11.57429981,"latitude":48.11999893},"fuelLevel":0.7200000000000001,"lastAddress":"Humboldtstraße 23, 81543 München, Germany"}
{"timestamp":"2016-09-30T04:25:00+0200","id":124045,"name":"Vroni","coordinate":{"longitude":11.56849957,"latitude":48.12850189},"fuelLevel":0.9199999999999999,"lastAddress":"Westermühlstraße 6, 80469 München, Germany"}
{"timestamp":"2016-09-30T04:25:00+0200","id":124018,"name":"Toni","coordinate":{"longitude":11.57250023,"latitude":48.12960052},"fuelLevel":0.9299999999999999,"lastAddress":"Klenzestraße 46-48, 80469 München, Germany"}
{"timestamp":"2016-09-30T04:25:00+0200","id":124012,"name":"Peter","coordinate":{"longitude":11.57250023,"latitude":48.14989853},"fuelLevel":1,"lastAddress":"Barer Str. 29, 80799 München, Germany"}
{"timestamp":"2016-09-30T04:25:00+0200","id":124004,"name":"Fridl","coordinate":{"longitude":11.56589985,"latitude":48.15650177},"fuelLevel":0.55,"lastAddress":"Hiltenspergerstraße 8/I, 80798 München, Germany"}
{"timestamp":"2016-09-30T04:25:00+0200","id":124031,"name":"Heidi","coordinate":{"longitude":11.56639957,"latitude":48.15010071},"fuelLevel":0.8,"lastAddress":"Luisenstraße 55, 80333 München, Germany"}
{"timestamp":"2016-09-30T04:25:00+0200","id":124002,"name":"Ferdl","coordinate":{"longitude":11.56389999,"latitude":48.15100098},"fuelLevel":0.9500000000000001,"lastAddress":"Theresienstraße 63, 80333 München, Germany"}
{"timestamp":"2016-09-30T04:25:00+0200","id":124048,"name":"Wiggerl","coordinate":{"longitude":11.5777998,"latitude":48.15909958},"fuelLevel":0.7200000000000001,"lastAddress":"Ainmillerstraße 40, 80801 München, Germany"}
{"timestamp":"2016-09-30T04:25:00+0200","id":124028,"name":"Gitte","coordinate":{"longitude":11.57999992,"latitude":48.16030121},"fuelLevel":0.77,"lastAddress":"Friedrichstraße 29, 80801 München, Germany"}
{"timestamp":"2016-09-30T04:25:00+0200","id":124027,"name":"Fanni","coordinate":{"longitude":11.57719994,"latitude":48.15950012},"fuelLevel":0.8099999999999999,"lastAddress":"Römerstraße 11, 80801 München, Germany"}
{"timestamp":"2016-09-30T04:25:00+0200","id":124005,"name":"Georg","coordinate":{"longitude":11.58129978,"latitude":48.15890121},"fuelLevel":0.69,"lastAddress":"Ainmillerstraße 20, 80801 München, Germany"}
{"timestamp":"2016-09-30T04:25:00+0200","id":124001,"name":"Edmund","coordinate":{"longitude":11.57830048,"latitude":48.15800095},"fuelLevel":0.62,"lastAddress":"Franz-Joseph-Straße 34, 80801 München, Germany"}
{"timestamp":"2016-09-30T04:25:00+0200","id":124032,"name":"Irmi","coordinate":{"longitude":11.57299995,"latitude":48.16019821},"fuelLevel":0.64,"lastAddress":"Isabellastraße 47, 80796 München, Germany"}
{"timestamp":"2016-09-30T04:25:00+0200","id":124037,"name":"Luise","coordinate":{"longitude":11.56610012,"latitude":48.15819931},"fuelLevel":0.9027777777777778,"lastAddress":"Hiltenspergerstraße 25, 80798 München, Germany"}
{"timestamp":"2016-09-30T04:25:00+0200","id":124017,"name":"Siggi","coordinate":{"longitude":11.57110023,"latitude":48.16070175},"fuelLevel":0.56,"lastAddress":"Hohenzollernstraße 79, 80796 München, Germany"}
{"timestamp":"2016-09-30T04:25:00+0200","id":124029,"name":"Hannah","coordinate":{"longitude":11.51039982,"latitude":48.04550171},"fuelLevel":0.7,"lastAddress":"Gistlstraße 159, 82049 Pullach im Isartal, Germany"}
{"timestamp":"2016-09-30T04:25:00+0200","id":124042,"name":"Tilli","coordinate":{"longitude":11.50990009,"latitude":48.04579926},"fuelLevel":0.77,"lastAddress":"Gistlstraße 159, 82049 Pullach im Isartal, Germany"}
{"timestamp":"2016-09-30T04:25:00+0200","id":124009,"name":"Ludwig","coordinate":{"longitude":11.58479977,"latitude":48.16189957},"fuelLevel":0.89,"lastAddress":"Herzogstraße 5, 80803 München, Germany"}
{"timestamp":"2016-09-30T04:25:00+0200","id":124007,"name":"Jakob","coordinate":{"longitude":11.58619976,"latitude":48.16389847},"fuelLevel":0.9500000000000001,"lastAddress":"Leopoldstraße 87, 80802 München, Germany"}