{"timestamp":"2016-10-18T02:50:00+0200","id":124041,"name":"Sophie","coordinate":{"longitude":11.5788002,"latitude":48.15409851},"fuelLevel":0.8300000000000001,"lastAddress":"Türkenstraße 104, 80799 München, Germany"}
{"timestamp":"2016-10-18T02:50:00+0200","id":124026,"name":"Eva","coordinate":{"longitude":11.58129978,"latitude":48.15000153},"fuelLevel":0.9199999999999999,"lastAddress":"Professor-Huber-Platz 1, 80539 München, Germany"}
{"timestamp":"2016-10-18T02:50:00+0200","id":124025,"name":"Elli","coordinate":{"longitude":11.57940006,"latitude":48.1556015},"fuelLevel":0.8300000000000001,"lastAddress":"Friedrichstraße 3, 80801 München, Germany"}
{"timestamp":"2016-10-18T02:50:00+0200","id":124044,"name":"Uschi","coordinate":{"longitude":11.57190037,"latitude":48.13180161},"fuelLevel":0.8,"lastAddress":"Müllerstraße 24, 80469 München, Germany"}
{"timestamp":"2016-10-18T02:50:00+0200","id":124040,"name":"Reserl","coordinate":{"longitude":11.57250023,"latitude":48.13190079},"fuelLevel":0.79,"lastAddress":"Müllerstraße 20, 80469 München, Germany"}
{"timestamp":"2016-10-18T02:50:00+0200","id":124014,"name":"Quirin","coordinate":{"longitude":11.59759998,"latitude":48.13479996},"fuelLevel":0.57,"lastAddress":"Innere Wiener Straße 59-61, 81667 München, Germany"}
{"timestamp":"2016-10-18T02:50:00+0200","id":124034,"name":"Kathi","coordinate":{"longitude":11.60890007,"latitude":48.13259888},"fuelLevel":0.57,"lastAddress":"Kirchenstraße 90, 81675 München, Germany"}
{"timestamp":"2016-10-18T02:50:00+0200","id":124030,"name":"Hedwig","coordinate":{"longitude":11.60859966,"latitude":48.12630081},"fuelLevel":0.9236111111111112,"lastAddress":"Haager Str. 10A, 81671 München, Germany"}
{"timestamp":"2016-10-18T02:50:00+0200","id":124016,"name":"Sepp","coordinate":{"longitude":11.59809971,"latitude":48.12630081},"fuelLevel":0.88,"lastAddress":"Rosenheimer Str. 119, 81667 München, Germany"}
{"timestamp":"2016-10-18T02:50:00+0200","id":124038,"name":"Magda","coordinate":{"longitude":11.60029984,"latitude":48.12829971},"fuelLevel":0.67,"lastAddress":"Pariser Pl., 81667 München, Germany"}
{"timestamp":"2016-10-18T02:50:00+0200","id":124022,"name":"Anne","coordinate":{"longitude":11.50590038,"latitude":48.09140015},"fuelLevel":0.7999999999999999,"lastAddress":"Meglingerstraße 40, 81477 München, Germany"}
{"timestamp":"2016-10-18T02:50:00+0200","id":124013,"name":"Poldi","coordinate":{"longitude":11.59430027,"latitude":48.12760162},"fuelLevel":0.61,"lastAddress":"Balanstraße 6A, 81669 München, Germany"}
{"timestamp":"2016-10-18T02:50:00+0200","id":124011,"name":"Maxl","coordinate":{"longitude":11.59500027,"latitude":48.12760162},"fuelLevel":0.6699999999999999,"lastAddress":"Rosenheimer Str. 66, 81669 München, Germany"}
{"timestamp":"2016-10-18T02:50:00+0200","id":124003,"name":"Franzl","coordinate":{"longitude":11.59309959,"latitude":48.1269989},"fuelLevel":0.7799999999999999,"lastAddress":"Rablstraße 36, 81669 München, Germany"}
{"timestamp":"2016-10-18T02:50:00+0200","id":124010,"name":"Luitpold","coordinate":{"longitude":11.58749962,"latitude":48.12779999},"fuelLevel":0.87,"lastAddress":"Hochstraße 19, 81669 München, Germany"}
{"timestamp":"2016-10-18T02:50:00+0200","id":124019,"name":"Valentin","coordinate":{"longitude":11.50580025,"latitude":48.09090042},"fuelLevel":0.8680555555555556,"lastAddress":"Meglingerstraße 30-32, 81477 München, Germany"}
{"timestamp":"2016-10-18T02:50:00+0200","id":124020,"name":"Vinzenz","coordinate":{"longitude":11.5777998,"latitude":48.1230011},"fuelLevel":0.81,"lastAddress":"Schlotthauerstraße 16, 81541 München, Germany"}
{"timestamp":"2016-10-18T02:50:00+0200","id":124049,"name":"Marei","coordinate":{"longitude":11.57229996,"latitude":48.12039948},"fuelLevel":0.9400000000000001,"lastAddress":"Sommerstraße 29, 81543 München, Germany"}
{"timestamp":"2016-10-18T02:50:00+0200","id":124045,"name":"Vroni","coordinate":{"longitude":11.56519985,"latitude":48.12409973},"fuelLevel":0.64,"lastAddress":"Kapuzinerstraße 39, 80469 München, Germany"}
{"timestamp":"2016-10-18T02:50:00+0200","id":124018,"name":"Toni","coordinate":{"longitude":11.56999969,"latitude":48.12939835},"fuelLevel":0.6499999999999999,"lastAddress":"Hans-Sachs-Straße 11, 80469 München, Germany"}
{"timestamp":"2016-10-18T02:50:00+0200","id":124012,"name":"Peter","coordinate":{"longitude":11.56140041,"latitude":48.15510178},"fuelLevel":0.9600000000000001,"lastAddress":"Schleißheimer Str. 55A, 80797 München, Germany"}
{"timestamp":"2016-10-18T02:50:00+0200","id":124004,"name":"Fridl","coordinate":{"longitude":11.55580044,"latitude":48.15520096},"fuelLevel":0.58,"lastAddress":"Lothstraße 64, 80335 München, Germany"}
{"timestamp":"2016-10-18T02:50:00+0200","id":124031,"name":"Heidi","coordinate":{"longitude":11.56359959,"latitude":48.14960098},"fuelLevel":0.62,"lastAddress":"Augustenstraße 70, 80333 München, Germany"}
{"timestamp":"2016-10-18T02:50:00+0200","id":124047,"name":"Walli","coordinate":{"longitude":11.57069969,"latitude":48.1493988},"fuelLevel":0.6499999999999999,"lastAddress":"Theresienstraße, 80333 München, Germany"}
{"timestamp":"2016-10-18T02:50:00+0200","id":124048,"name":"Wiggerl","coordinate":{"longitude":11.58049965,"latitude":48.16220093},"fuelLevel":0.67,"lastAddress":"Kaiserpl. 8, 80803 München, Germany"}
{"timestamp":"2016-10-18T02:50:00+0200","id":124028,"name":"Gitte","coordinate":{"longitude":11.57569981,"latitude":48.16040039},"fuelLevel":0.7200000000000001,"lastAddress":"Hohenzollernstraße 78, 80801 München, Germany"}
{"timestamp":"2016-10-18T02:50:00+0200","id":124032,"name":"Irmi","coordinate":{"longitude":11.57059956,"latitude":48.15930176},"fuelLevel":0.9400000000000001,"lastAddress":"Jakob-Klar-Straße 3, 80796 München, Germany"}
{"timestamp":"2016-10-18T02:50:00+0200","id":124037,"name":"Luise","coordinate":{"longitude":11.57050037,"latitude":48.15779877},"fuelLevel":0.52,"lastAddress":"Agnesstraße 14, 80798 München, Germany"}
{"timestamp":"2016-10-18T02:50:00+0200","id":124017,"name":"Siggi","coordinate":{"longitude":11.57269955,"latitude":48.15779877},"fuelLevel":0.56,"lastAddress":"Elisabethstraße 3, 80796 München, Germany"}
{"timestamp":"2016-10-18T02:50:00+0200","id":124029,"name":"Hannah","coordinate":{"longitude":11.51000023,"latitude":48.04550171},"fuelLevel":0.59,"lastAddress":"Gistlstraße 159, 82049 Pullach im Isartal, Germany"}
{"timestamp":"2016-10-18T02:50:00+0200","id":124009,"name":"Ludwig","coordinate":{"longitude":11.58349991,"latitude":48.16239929},"fuelLevel":0.6499999999999999,"lastAddress":"Herzogstraße 16, 80803 München, Germany"}
{"timestamp":"2016-10-18T02:50:00+0200","id":124007,"name":"Jakob","coordinate":{"longitude":11.5763998,"latitude":48.16669846},"fuelLevel":0.30000000000000004,"lastAddress":"Karl-Theodor-Straße 63, 80803 München, Germany"}