{"timestamp":"2016-10-15T12:40:00+0200","id":124025,"name":"Elli","coordinate":{"longitude":11.57660007,"latitude":48.15790176},"fuelLevel":0.87,"lastAddress":"Franz-Joseph-Straße 44, 80801 München, Germany"}
{"timestamp":"2016-10-15T12:40:00+0200","id":124033,"name":"Johanna","coordinate":{"longitude":11.57680035,"latitude":48.15000153},"fuelLevel":0.73,"lastAddress":"Schellingstraße 19, 80799 München, Germany"}
{"timestamp":"2016-10-15T12:40:00+0200","id":124044,"name":"Uschi","coordinate":{"longitude":11.57240009,"latitude":48.13209915},"fuelLevel":0.9199999999999999,"lastAddress":"Müllerstraße 20, 80469 München, Germany"}
{"timestamp":"2016-10-15T12:40:00+0200","id":124040,"name":"Reserl","coordinate":{"longitude":11.57369995,"latitude":48.13150024},"fuelLevel":0.79,"lastAddress":"Müllerstraße 7, 80469 München, Germany"}
{"timestamp":"2016-10-15T12:40:00+0200","id":124021,"name":"Xaver","coordinate":{"longitude":11.58040047,"latitude":48.13010025},"fuelLevel":0.9199999999999999,"lastAddress":"Erhardtstraße 27, 80469 München, Germany"}
{"timestamp":"2016-10-15T12:40:00+0200","id":124014,"name":"Quirin","coordinate":{"longitude":11.59739971,"latitude":48.13479996},"fuelLevel":0.57,"lastAddress":"Innere Wiener Straße 59, 81667 München, Germany"}
{"timestamp":"2016-10-15T12:40:00+0200","id":124034,"name":"Kathi","coordinate":{"longitude":11.60890007,"latitude":48.13299942},"fuelLevel":0.57,"lastAddress":"Kirchenstraße 89, 81675 München, Germany"}
{"timestamp":"2016-10-15T12:40:00+0200","id":124016,"name":"Sepp","coordinate":{"longitude":11.59809971,"latitude":48.12620163},"fuelLevel":0.88,"lastAddress":"Rosenheimer Str. 119, 81667 München, Germany"}
{"timestamp":"2016-10-15T12:40:00+0200","id":124038,"name":"Magda","coordinate":{"longitude":11.60029984,"latitude":48.12829971},"fuelLevel":0.67,"lastAddress":"Pariser Pl., 81667 München, Germany"}
{"timestamp":"2016-10-15T12:40:00+0200","id":124022,"name":"Anne","coordinate":{"longitude":11.60009956,"latitude":48.1257019},"fuelLevel":0.7999999999999999,"lastAddress":"Orleansstraße 34, 81667 München, Germany"}
{"timestamp":"2016-10-15T12:40:00+0200","id":124013,"name":"Poldi","coordinate":{"longitude":11.59430027,"latitude":48.12760162},"fuelLevel":0.61,"lastAddress":"Balanstraße 6A, 81669 München, Germany"}
{"timestamp":"2016-10-15T12:40:00+0200","id":124011,"name":"Maxl","coordinate":{"longitude":11.59490013,"latitude":48.12760162},"fuelLevel":0.6699999999999999,"lastAddress":"Rosenheimer Str. 66, 81669 München, Germany"}
{"timestamp":"2016-10-15T12:40:00+0200","id":124003,"name":"Franzl","coordinate":{"longitude":11.59309959,"latitude":48.12739944},"fuelLevel":0.8,"lastAddress":"Franziskanerstraße 8, 81669 München, Germany"}
{"timestamp":"2016-10-15T12:40:00+0200","id":124010,"name":"Luitpold","coordinate":{"longitude":11.58440018,"latitude":48.12770081},"fuelLevel":0.9400000000000001,"lastAddress":"Lilienstraße 66, 81669 München, Germany"}
{"timestamp":"2016-10-15T12:40:00+0200","id":124006,"name":"Gustl","coordinate":{"longitude":11.57489967,"latitude":48.12020111},"fuelLevel":0.9400000000000001,"lastAddress":"Oefelestraße 5, 81543 München, Germany"}
{"timestamp":"2016-10-15T12:40:00+0200","id":124020,"name":"Vinzenz","coordinate":{"longitude":11.5788002,"latitude":48.12239838},"fuelLevel":0.81,"lastAddress":"Falkenstraße 24, 81541 München, Germany"}
{"timestamp":"2016-10-15T12:40:00+0200","id":124049,"name":"Marei","coordinate":{"longitude":11.57429981,"latitude":48.12250137},"fuelLevel":0.9400000000000001,"lastAddress":"Sommerstraße 8, 81543 München, Germany"}
{"timestamp":"2016-10-15T12:40:00+0200","id":124045,"name":"Vroni","coordinate":{"longitude":11.56529999,"latitude":48.12419891},"fuelLevel":0.64,"lastAddress":"Kapuzinerstraße 39, 80469 München, Germany"}
{"timestamp":"2016-10-15T12:40:00+0200","id":124012,"name":"Peter","coordinate":{"longitude":11.56099987,"latitude":48.1548996},"fuelLevel":0.9600000000000001,"lastAddress":"Schleißheimer Str. 51, 80797 München, Germany"}
{"timestamp":"2016-10-15T12:40:00+0200","id":124031,"name":"Heidi","coordinate":{"longitude":11.56649971,"latitude":48.15179825},"fuelLevel":0.63,"lastAddress":"Heßstraße 44, 80798 München, Germany"}
{"timestamp":"2016-10-15T12:40:00+0200","id":124047,"name":"Walli","coordinate":{"longitude":11.5703001,"latitude":48.14960098},"fuelLevel":0.71,"lastAddress":"Theresienstraße, 80333 München, Germany"}
{"timestamp":"2016-10-15T12:40:00+0200","id":124048,"name":"Wiggerl","coordinate":{"longitude":11.58090019,"latitude":48.1631012},"fuelLevel":0.67,"lastAddress":"Herzogstraße 38, 80803 München, Germany"}
{"timestamp":"2016-10-15T12:40:00+0200","id":124028,"name":"Gitte","coordinate":{"longitude":11.57579994,"latitude":48.16040039},"fuelLevel":0.7200000000000001,"lastAddress":"Hohenzollernstraße 78, 80801 München, Germany"}
{"timestamp":"2016-10-15T12:40:00+0200","id":124027,"name":"Fanni","coordinate":{"longitude":11.58469963,"latitude":48.16049957},"fuelLevel":0.7899999999999999,"lastAddress":"Kaiserstraße 5, 80801 München, Germany"}
{"timestamp":"2016-10-15T12:40:00+0200","id":124005,"name":"Georg","coordinate":{"longitude":11.57559967,"latitude":48.16230011},"fuelLevel":0.56,"lastAddress":"Viktor-Scheffel-Straße 13, 80803 München, Germany"}
{"timestamp":"2016-10-15T12:40:00+0200","id":124032,"name":"Irmi","coordinate":{"longitude":11.57260036,"latitude":48.16070175},"fuelLevel":0.64,"lastAddress":"Hohenzollernstraße 102, 80796 München, Germany"}
{"timestamp":"2016-10-15T12:40:00+0200","id":124037,"name":"Luise","coordinate":{"longitude":11.5703001,"latitude":48.15739822},"fuelLevel":0.52,"lastAddress":"Agnesstraße 12-14, 80798 München, Germany"}
{"timestamp":"2016-10-15T12:40:00+0200","id":124017,"name":"Siggi","coordinate":{"longitude":11.57250023,"latitude":48.16049957},"fuelLevel":0.56,"lastAddress":"Hohenzollernstraße 67, 80796 München, Germany"}
{"timestamp":"2016-10-15T12:40:00+0200","id":124039,"name":"Marie","coordinate":{"longitude":11.50469971,"latitude":48.03710175},"fuelLevel":0.9099999999999999,"lastAddress":"Zugspitzstraße 15, 82049 Pullach im Isartal, Germany"}
{"timestamp":"2016-10-15T12:40:00+0200","id":124009,"name":"Ludwig","coordinate":{"longitude":11.58370018,"latitude":48.16189957},"fuelLevel":0.69,"lastAddress":"Wilhelmstraße 28, 80801 München, Germany"}