{"timestamp":"2016-11-02T07:40:00+0100","id":124041,"name":"Sophie","coordinate":{"longitude":11.57958984,"latitude":48.15280151},"fuelLevel":0.72,"lastAddress":"Akademiestraße 11, 80799 München, Germany"}
{"timestamp":"2016-11-02T07:40:00+0100","id":124026,"name":"Eva","coordinate":{"longitude":11.57980347,"latitude":48.15266418},"fuelLevel":0.89,"lastAddress":"Akademiestraße 11, 80799 München, Germany"}
{"timestamp":"2016-11-02T07:40:00+0100","id":124025,"name":"Elli","coordinate":{"longitude":11.57620239,"latitude":48.1558075},"fuelLevel":0.6900000000000001,"lastAddress":"Konradstraße 2, 80801 München, Germany"}
{"timestamp":"2016-11-02T07:40:00+0100","id":124033,"name":"Johanna","coordinate":{"longitude":11.57841492,"latitude":48.15312195},"fuelLevel":0.55,"lastAddress":"Akademiestraße 4, 80799 München, Germany"}
{"timestamp":"2016-11-02T07:40:00+0100","id":124036,"name":"Liesel","coordinate":{"longitude":11.58059692,"latitude":48.15170288},"fuelLevel":0.8099999999999999,"lastAddress":"Adalbertstraße 12, 80799 München, Germany"}
{"timestamp":"2016-11-02T07:40:00+0100","id":124044,"name":"Uschi","coordinate":{"longitude":11.57139587,"latitude":48.13221741},"fuelLevel":0.5902777777777778,"lastAddress":"Blumenstraße 28-30, 80331 München, Germany"}
{"timestamp":"2016-11-02T07:40:00+0100","id":124024,"name":"Christl","coordinate":{"longitude":11.57260132,"latitude":48.13050842},"fuelLevel":0.82,"lastAddress":"Jahnstraße 4, 80469 München, Germany"}
{"timestamp":"2016-11-02T07:40:00+0100","id":124040,"name":"Reserl","coordinate":{"longitude":11.57270813,"latitude":48.13320923},"fuelLevel":0.62,"lastAddress":"Blumenstraße 28, 80331 München, Germany"}
{"timestamp":"2016-11-02T07:40:00+0100","id":124021,"name":"Xaver","coordinate":{"longitude":11.57200623,"latitude":48.1309967},"fuelLevel":0.88,"lastAddress":"Fraunhoferstraße 5, 80469 München, Germany"}
{"timestamp":"2016-11-02T07:40:00+0100","id":124014,"name":"Quirin","coordinate":{"longitude":11.60087585,"latitude":48.13040161},"fuelLevel":0.33,"lastAddress":"Wörthstraße 27, 81667 München, Germany"}
{"timestamp":"2016-11-02T07:40:00+0100","id":124034,"name":"Kathi","coordinate":{"longitude":11.5980835,"latitude":48.13249207},"fuelLevel":0.86,"lastAddress":"Preysingstraße 43, 81667 München, Germany"}
{"timestamp":"2016-11-02T07:40:00+0100","id":124030,"name":"Hedwig","coordinate":{"longitude":11.56089783,"latitude":48.12559509},"fuelLevel":0.7799999999999999,"lastAddress":"Maistraße 73, 80337 München, Germany"}
{"timestamp":"2016-11-02T07:40:00+0100","id":124038,"name":"Magda","coordinate":{"longitude":11.60040283,"latitude":48.12789917},"fuelLevel":0.87,"lastAddress":"Gravelottestraße 1A, 81667 München, Germany"}
{"timestamp":"2016-11-02T07:40:00+0100","id":124000,"name":"Bertl","coordinate":{"longitude":11.60029602,"latitude":48.12820435},"fuelLevel":0.8,"lastAddress":"Pariser Pl., 81667 München, Germany"}
{"timestamp":"2016-11-02T07:40:00+0100","id":124013,"name":"Poldi","coordinate":{"longitude":11.59030151,"latitude":48.12541199},"fuelLevel":0.86,"lastAddress":"Franziskanerstraße 43, 81669 München, Germany"}
{"timestamp":"2016-11-02T07:40:00+0100","id":124011,"name":"Maxl","coordinate":{"longitude":11.59751892,"latitude":48.1242981},"fuelLevel":0.61,"lastAddress":"Orleansstraße 1, 81669 München, Germany"}
{"timestamp":"2016-11-02T07:40:00+0100","id":124003,"name":"Franzl","coordinate":{"longitude":11.59120178,"latitude":48.13027954},"fuelLevel":0.26,"lastAddress":"Rosenheimer Str. 30-32, 81669 München, Germany"}
{"timestamp":"2016-11-02T07:40:00+0100","id":124019,"name":"Valentin","coordinate":{"longitude":11.58190918,"latitude":48.12101746},"fuelLevel":0.6499999999999999,"lastAddress":"Hochstraße 81, 81541 München, Germany"}
{"timestamp":"2016-11-02T07:40:00+0100","id":124035,"name":"Leonie","coordinate":{"longitude":11.58566284,"latitude":48.12969971},"fuelLevel":0.5499999999999999,"lastAddress":"Zeppelinstraße 65, 81669 München, Germany"}
{"timestamp":"2016-11-02T07:40:00+0100","id":124006,"name":"Gustl","coordinate":{"longitude":11.57879639,"latitude":48.12358093},"fuelLevel":0.7100000000000001,"lastAddress":"Entenbachstraße 15, 81541 München, Germany"}
{"timestamp":"2016-11-02T07:40:00+0100","id":124020,"name":"Vinzenz","coordinate":{"longitude":11.57420349,"latitude":48.11999512},"fuelLevel":0.56,"lastAddress":"Humboldtstraße 23, 81543 München, Germany"}
{"timestamp":"2016-11-02T07:40:00+0100","id":124049,"name":"Marei","coordinate":{"longitude":11.57919979,"latitude":48.12459946},"fuelLevel":0.62,"lastAddress":"Boosstraße 17, 81541 München, Germany"}
{"timestamp":"2016-11-02T07:40:00+0100","id":124045,"name":"Vroni","coordinate":{"longitude":11.5684967,"latitude":48.13111877},"fuelLevel":0.5902777777777778,"lastAddress":"Müllerstraße 43, 80469 München, Germany"}
{"timestamp":"2016-11-02T07:40:00+0100","id":124018,"name":"Toni","coordinate":{"longitude":11.57059956,"latitude":48.13019943},"fuelLevel":0.6499999999999999,"lastAddress":"Hans-Sachs-Straße 5, 80469 München, Germany"}
{"timestamp":"2016-11-02T07:40:00+0100","id":124012,"name":"Peter","coordinate":{"longitude":11.55659485,"latitude":48.15480042},"fuelLevel":0.8800000000000001,"lastAddress":"Heßstraße 108, 80797 München, Germany"}
{"timestamp":"2016-11-02T07:40:00+0100","id":124004,"name":"Fridl","coordinate":{"longitude":11.56221008,"latitude":48.15699768},"fuelLevel":0.55,"lastAddress":"Schleißheimer Str. 104-106, 80797 München, Germany"}
{"timestamp":"2016-11-02T07:40:00+0100","id":124031,"name":"Heidi","coordinate":{"longitude":11.56977844,"latitude":48.14938354},"fuelLevel":0.6388888888888888,"lastAddress":"Theresienstraße 90, 80333 München, Germany"}
{"timestamp":"2016-11-02T07:40:00+0100","id":124047,"name":"Walli","coordinate":{"longitude":11.56611633,"latitude":48.14950562},"fuelLevel":0.8500000000000001,"lastAddress":"Luisenstraße 47, 80333 München, Germany"}
{"timestamp":"2016-11-02T07:40:00+0100","id":124002,"name":"Ferdl","coordinate":{"longitude":11.56349182,"latitude":48.14968872},"fuelLevel":0.7799999999999999,"lastAddress":"Augustenstraße 72, 80333 München, Germany"}
{"timestamp":"2016-11-02T07:40:00+0100","id":124048,"name":"Wiggerl","coordinate":{"longitude":11.57539368,"latitude":48.15872192},"fuelLevel":0.54,"lastAddress":"Kurfürstenstraße 55, 80801 München, Germany"}
{"timestamp":"2016-11-02T07:40:00+0100","id":124028,"name":"Gitte","coordinate":{"longitude":11.57580566,"latitude":48.16009521},"fuelLevel":0.7200000000000001,"lastAddress":"Hohenzollernstraße 49, 80801 München, Germany"}
{"timestamp":"2016-11-02T07:40:00+0100","id":124027,"name":"Fanni","coordinate":{"longitude":11.58422852,"latitude":48.16241455},"fuelLevel":0.63,"lastAddress":"Herzogstraße 10, 80803 München, Germany"}
{"timestamp":"2016-11-02T07:40:00+0100","id":124005,"name":"Georg","coordinate":{"longitude":11.57679749,"latitude":48.15800476},"fuelLevel":0.8500000000000001,"lastAddress":"Römerstraße 1, 80801 München, Germany"}
{"timestamp":"2016-11-02T07:40:00+0100","id":124001,"name":"Edmund","coordinate":{"longitude":11.57940674,"latitude":48.15791321},"fuelLevel":0.7999999999999999,"lastAddress":"Franz-Joseph-Straße 26, 80801 München, Germany"}
{"timestamp":"2016-11-02T07:40:00+0100","id":124032,"name":"Irmi","coordinate":{"longitude":11.57492065,"latitude":48.15892029},"fuelLevel":0.57,"lastAddress":"Nordendstraße 62-64, 80801 München, Germany"}
{"timestamp":"2016-11-02T07:40:00+0100","id":124017,"name":"Siggi","coordinate":{"longitude":11.57110596,"latitude":48.15948486},"fuelLevel":0.54,"lastAddress":"Jakob-Klar-Straße 8, 80796 München, Germany"}
{"timestamp":"2016-11-02T07:40:00+0100","id":124029,"name":"Hannah","coordinate":{"longitude":11.50990295,"latitude":48.04550171},"fuelLevel":0.81,"lastAddress":"Gistlstraße 159, 82049 Pullach im Isartal, Germany"}
{"timestamp":"2016-11-02T07:40:00+0100","id":124008,"name":"Johann","coordinate":{"longitude":11.50959778,"latitude":48.0453949},"fuelLevel":0.74,"lastAddress":"Seitnerstraße 70, 82049 Pullach im Isartal, Germany"}
{"timestamp":"2016-11-02T07:40:00+0100","id":124039,"name":"Marie","coordinate":{"longitude":11.50990295,"latitude":48.04528809},"fuelLevel":0.82,"lastAddress":"Seitnerstraße 70, 82049 Pullach im Isartal, Germany"}
{"timestamp":"2016-11-02T07:40:00+0100","id":124009,"name":"Ludwig","coordinate":{"longitude":11.57608032,"latitude":48.16697693},"fuelLevel":0.7,"lastAddress":"Karl-Theodor-Straße 74, 80803 München, Germany"}
{"timestamp":"2016-11-02T07:40:00+0100","id":124007,"name":"Jakob","coordinate":{"longitude":11.57420349,"latitude":48.16439819},"fuelLevel":0.84,"lastAddress":"Belgradstraße 37, 80796 München, Germany"}