{"timestamp":"2016-10-11T22:50:00+0200","id":124041,"name":"Sophie","coordinate":{"longitude":11.57909966,"latitude":48.15039825},"fuelLevel":0.9400000000000001,"lastAddress":"Hauptgebäude, Geschwister-Scholl-Platz 1, 80539 München, Germany"}
{"timestamp":"2016-10-11T22:50:00+0200","id":124026,"name":"Eva","coordinate":{"longitude":11.57870007,"latitude":48.15340042},"fuelLevel":0.61,"lastAddress":"Akademiestraße 2, 80799 München, Germany"}
{"timestamp":"2016-10-11T22:50:00+0200","id":124025,"name":"Elli","coordinate":{"longitude":11.57619953,"latitude":48.15739822},"fuelLevel":0.9,"lastAddress":"Franz-Joseph-Straße 43, 80801 München, Germany"}
{"timestamp":"2016-10-11T22:50:00+0200","id":124033,"name":"Johanna","coordinate":{"longitude":11.58069992,"latitude":48.15240097},"fuelLevel":0.76,"lastAddress":"Akademiestraße 5, 80799 München, Germany"}
{"timestamp":"2016-10-11T22:50:00+0200","id":124036,"name":"Liesel","coordinate":{"longitude":11.58139992,"latitude":48.15069962},"fuelLevel":0.5900000000000001,"lastAddress":"Ludwigstraße 29, 80539 München, Germany"}
{"timestamp":"2016-10-11T22:50:00+0200","id":124044,"name":"Uschi","coordinate":{"longitude":11.57250023,"latitude":48.13209915},"fuelLevel":0.9199999999999999,"lastAddress":"Müllerstraße 20, 80469 München, Germany"}
{"timestamp":"2016-10-11T22:50:00+0200","id":124024,"name":"Christl","coordinate":{"longitude":11.57489967,"latitude":48.13330078},"fuelLevel":0.69,"lastAddress":"Müllerstraße 1, 80469 München, Germany"}
{"timestamp":"2016-10-11T22:50:00+0200","id":124040,"name":"Reserl","coordinate":{"longitude":11.57190037,"latitude":48.13150024},"fuelLevel":0.83,"lastAddress":"Müllerstraße 17, 80469 München, Germany"}
{"timestamp":"2016-10-11T22:50:00+0200","id":124021,"name":"Xaver","coordinate":{"longitude":11.58040047,"latitude":48.13000107},"fuelLevel":0.9199999999999999,"lastAddress":"Erhardtstraße 27, 80469 München, Germany"}
{"timestamp":"2016-10-11T22:50:00+0200","id":124014,"name":"Quirin","coordinate":{"longitude":11.60499954,"latitude":48.13249969},"fuelLevel":0.6000000000000001,"lastAddress":"Elsässer Str. 4, 81667 München, Germany"}
{"timestamp":"2016-10-11T22:50:00+0200","id":124016,"name":"Sepp","coordinate":{"longitude":11.60270023,"latitude":48.12879944},"fuelLevel":0.9099999999999999,"lastAddress":"Wörthstraße 42, 81667 München, Germany"}
{"timestamp":"2016-10-11T22:50:00+0200","id":124038,"name":"Magda","coordinate":{"longitude":11.5994997,"latitude":48.12820053},"fuelLevel":0.67,"lastAddress":"Pariser Str. 29A, 81667 München, Germany"}
{"timestamp":"2016-10-11T22:50:00+0200","id":124022,"name":"Anne","coordinate":{"longitude":11.59609985,"latitude":48.1271019},"fuelLevel":0.8300000000000001,"lastAddress":"Rosenheimer Str. 80, 81669 München, Germany"}
{"timestamp":"2016-10-11T22:50:00+0200","id":124000,"name":"Bertl","coordinate":{"longitude":11.59780025,"latitude":48.12670135},"fuelLevel":0.8,"lastAddress":"Pariser Str. 20, 81667 München, Germany"}
{"timestamp":"2016-10-11T22:50:00+0200","id":124013,"name":"Poldi","coordinate":{"longitude":11.59459972,"latitude":48.12749863},"fuelLevel":0.79,"lastAddress":"Balanstraße 8, 81669 München, Germany"}
{"timestamp":"2016-10-11T22:50:00+0200","id":124011,"name":"Maxl","coordinate":{"longitude":11.5951004,"latitude":48.12749863},"fuelLevel":0.6699999999999999,"lastAddress":"Rosenheimer Str. 68, 81669 München, Germany"}
{"timestamp":"2016-10-11T22:50:00+0200","id":124003,"name":"Franzl","coordinate":{"longitude":11.59290028,"latitude":48.12720108},"fuelLevel":0.8,"lastAddress":"Franziskanerstraße 8, 81669 München, Germany"}
{"timestamp":"2016-10-11T22:50:00+0200","id":124035,"name":"Leonie","coordinate":{"longitude":11.58500004,"latitude":48.13069916},"fuelLevel":0.76,"lastAddress":"80331 Munich, Germany"}
{"timestamp":"2016-10-11T22:50:00+0200","id":124006,"name":"Gustl","coordinate":{"longitude":11.57460022,"latitude":48.12049866},"fuelLevel":0.9500000000000001,"lastAddress":"Oefelestraße 8, 81543 München, Germany"}
{"timestamp":"2016-10-11T22:50:00+0200","id":124020,"name":"Vinzenz","coordinate":{"longitude":11.57759953,"latitude":48.1230011},"fuelLevel":0.8999999999999999,"lastAddress":"Schlotthauerstraße 14A, 81541 München, Germany"}
{"timestamp":"2016-10-11T22:50:00+0200","id":124049,"name":"Marei","coordinate":{"longitude":11.57190037,"latitude":48.12070084},"fuelLevel":0.52,"lastAddress":"Humboldtstraße 6, 81543 München, Germany"}
{"timestamp":"2016-10-11T22:50:00+0200","id":124045,"name":"Vroni","coordinate":{"longitude":11.5649004,"latitude":48.12400055},"fuelLevel":0.64,"lastAddress":"Kapuzinerstraße 40-44, 80469 München, Germany"}
{"timestamp":"2016-10-11T22:50:00+0200","id":124018,"name":"Toni","coordinate":{"longitude":11.56970024,"latitude":48.12969971},"fuelLevel":0.66,"lastAddress":"Hans-Sachs-Straße 14, 80469 München, Germany"}
{"timestamp":"2016-10-11T22:50:00+0200","id":124012,"name":"Peter","coordinate":{"longitude":11.55650043,"latitude":48.15670013},"fuelLevel":0.9600000000000001,"lastAddress":"Lothstraße 21, 80797 München, Germany"}
{"timestamp":"2016-10-11T22:50:00+0200","id":124004,"name":"Fridl","coordinate":{"longitude":11.55679989,"latitude":48.15510178},"fuelLevel":0.9600000000000001,"lastAddress":"Heßstraße 108, 80797 München, Germany"}
{"timestamp":"2016-10-11T22:50:00+0200","id":124031,"name":"Heidi","coordinate":{"longitude":11.56680012,"latitude":48.15159988},"fuelLevel":0.6499999999999999,"lastAddress":"Heßstraße 21, 80798 München, Germany"}
{"timestamp":"2016-10-11T22:50:00+0200","id":124047,"name":"Walli","coordinate":{"longitude":11.57059956,"latitude":48.1493988},"fuelLevel":0.71,"lastAddress":"Theresienstraße, 80333 München, Germany"}
{"timestamp":"2016-10-11T22:50:00+0200","id":124002,"name":"Ferdl","coordinate":{"longitude":11.56359959,"latitude":48.1548996},"fuelLevel":0.4097222222222222,"lastAddress":"Zentnerstraße 8, 80798 München, Germany"}
{"timestamp":"2016-10-11T22:50:00+0200","id":124048,"name":"Wiggerl","coordinate":{"longitude":11.58049965,"latitude":48.16270065},"fuelLevel":0.66,"lastAddress":"Herzogstraße 33, 80803 München, Germany"}
{"timestamp":"2016-10-11T22:50:00+0200","id":124028,"name":"Gitte","coordinate":{"longitude":11.57730007,"latitude":48.16009903},"fuelLevel":0.75,"lastAddress":"Römerstraße 17, 80801 München, Germany"}
{"timestamp":"2016-10-11T22:50:00+0200","id":124027,"name":"Fanni","coordinate":{"longitude":11.58460045,"latitude":48.16070175},"fuelLevel":0.7899999999999999,"lastAddress":"Kaiserstraße 10, 80801 München, Germany"}
{"timestamp":"2016-10-11T22:50:00+0200","id":124005,"name":"Georg","coordinate":{"longitude":11.57559967,"latitude":48.1617012},"fuelLevel":0.56,"lastAddress":"Viktor-Scheffel-Straße 19, 80803 München, Germany"}
{"timestamp":"2016-10-11T22:50:00+0200","id":124032,"name":"Irmi","coordinate":{"longitude":11.57269955,"latitude":48.16040039},"fuelLevel":0.64,"lastAddress":"Hohenzollernstraße 65, 80796 München, Germany"}
{"timestamp":"2016-10-11T22:50:00+0200","id":124037,"name":"Luise","coordinate":{"longitude":11.56999969,"latitude":48.15710068},"fuelLevel":0.52,"lastAddress":"Daimlerstraße 12, 80798 München, Germany"}
{"timestamp":"2016-10-11T22:50:00+0200","id":124017,"name":"Siggi","coordinate":{"longitude":11.57250023,"latitude":48.16070175},"fuelLevel":0.56,"lastAddress":"Hohenzollernstraße 102, 80796 München, Germany"}
{"timestamp":"2016-10-11T22:50:00+0200","id":124029,"name":"Hannah","coordinate":{"longitude":11.51019955,"latitude":48.04539871},"fuelLevel":0.7,"lastAddress":"Gistlstraße 159, 82049 Pullach im Isartal, Germany"}
{"timestamp":"2016-10-11T22:50:00+0200","id":124008,"name":"Johann","coordinate":{"longitude":11.50990009,"latitude":48.04550171},"fuelLevel":0.87,"lastAddress":"Gistlstraße 159, 82049 Pullach im Isartal, Germany"}
{"timestamp":"2016-10-11T22:50:00+0200","id":124009,"name":"Ludwig","coordinate":{"longitude":11.58510017,"latitude":48.16220093},"fuelLevel":0.8999999999999999,"lastAddress":"Herzogstraße 2, 80803 München, Germany"}
{"timestamp":"2016-10-11T22:50:00+0200","id":124007,"name":"Jakob","coordinate":{"longitude":11.57740021,"latitude":48.16680145},"fuelLevel":0.25,"lastAddress":"Karl-Theodor-Straße 62, 80803 München, Germany"}