{"timestamp":"2016-11-20T02:45:00+0100","id":124041,"name":"Sophie","coordinate":{"longitude":11.5789032,"latitude":48.15299988},"fuelLevel":0.5599999999999999,"lastAddress":"Akademiestraße 2, 80799 München, Germany"}
{"timestamp":"2016-11-20T02:45:00+0100","id":124026,"name":"Eva","coordinate":{"longitude":11.58129883,"latitude":48.15240479},"fuelLevel":0.75,"lastAddress":"Akademiestraße 3, 80799 München, Germany"}
{"timestamp":"2016-11-20T02:45:00+0100","id":124025,"name":"Elli","coordinate":{"longitude":11.58126831,"latitude":48.15235901},"fuelLevel":0.8400000000000001,"lastAddress":"Akademiestraße 3, 80799 München, Germany"}
{"timestamp":"2016-11-20T02:45:00+0100","id":124024,"name":"Christl","coordinate":{"longitude":11.57699585,"latitude":48.13278198},"fuelLevel":0.6499999999999999,"lastAddress":"Buttermelcherstraße 4, 80469 München, Germany"}
{"timestamp":"2016-11-20T02:45:00+0100","id":124040,"name":"Reserl","coordinate":{"longitude":11.58169556,"latitude":48.1308136},"fuelLevel":0.86,"lastAddress":"Erhardtstraße 27, 80469 München, Germany"}
{"timestamp":"2016-11-20T02:45:00+0100","id":124021,"name":"Xaver","coordinate":{"longitude":11.58189392,"latitude":48.13110352},"fuelLevel":0.8,"lastAddress":"Kohlstraße 11, 80469 München, Germany"}
{"timestamp":"2016-11-20T02:45:00+0100","id":124014,"name":"Quirin","coordinate":{"longitude":11.59921265,"latitude":48.13598633},"fuelLevel":0.6527777777777778,"lastAddress":"Einsteinstraße 3, 81675 München, Germany"}
{"timestamp":"2016-11-20T02:45:00+0100","id":124034,"name":"Kathi","coordinate":{"longitude":11.60379982,"latitude":48.13040161},"fuelLevel":0.84,"lastAddress":"Breisacher Str. 12, 81667 München, Germany"}
{"timestamp":"2016-11-20T02:45:00+0100","id":124023,"name":"Babsi","coordinate":{"longitude":11.5647583,"latitude":48.12973022},"fuelLevel":0.5700000000000001,"lastAddress":"Winckelstraße, 80337 München, Germany"}
{"timestamp":"2016-11-20T02:45:00+0100","id":124022,"name":"Anne","coordinate":{"longitude":11.60139465,"latitude":48.12680054},"fuelLevel":0.44000000000000006,"lastAddress":"Orleansstraße 35, 81667 München, Germany"}
{"timestamp":"2016-11-20T02:45:00+0100","id":124000,"name":"Bertl","coordinate":{"longitude":11.59689331,"latitude":48.12799072},"fuelLevel":0.55,"lastAddress":"Lothringer Str. 4, 81667 München, Germany"}
{"timestamp":"2016-11-20T02:45:00+0100","id":124013,"name":"Poldi","coordinate":{"longitude":11.58959961,"latitude":48.125},"fuelLevel":0.79,"lastAddress":"Franziskanerstraße 47, 81669 München, Germany"}
{"timestamp":"2016-11-20T02:45:00+0100","id":124003,"name":"Franzl","coordinate":{"longitude":11.58810425,"latitude":48.12539673},"fuelLevel":0.7200000000000001,"lastAddress":"Gebsattelstraße 16, 81541 München, Germany"}
{"timestamp":"2016-11-20T02:45:00+0100","id":124010,"name":"Luitpold","coordinate":{"longitude":11.58818054,"latitude":48.12858582},"fuelLevel":0.58,"lastAddress":"Hochstraße 15, 81669 München, Germany"}
{"timestamp":"2016-11-20T02:45:00+0100","id":124019,"name":"Valentin","coordinate":{"longitude":11.58201599,"latitude":48.1210022},"fuelLevel":0.64,"lastAddress":"Hochstraße 81, 81541 München, Germany"}
{"timestamp":"2016-11-20T02:45:00+0100","id":124035,"name":"Leonie","coordinate":{"longitude":11.58349609,"latitude":48.12770081},"fuelLevel":0.87,"lastAddress":"Zeppelinstraße 39, 81669 München, Germany"}
{"timestamp":"2016-11-20T02:45:00+0100","id":124006,"name":"Gustl","coordinate":{"longitude":11.57600403,"latitude":48.1210022},"fuelLevel":0.86,"lastAddress":"Kolumbusstraße 22, 81543 München, Germany"}
{"timestamp":"2016-11-20T02:45:00+0100","id":124020,"name":"Vinzenz","coordinate":{"longitude":11.57719421,"latitude":48.12310791},"fuelLevel":0.86,"lastAddress":"Schlotthauerstraße 12, 81541 München, Germany"}
{"timestamp":"2016-11-20T02:45:00+0100","id":124049,"name":"Marei","coordinate":{"longitude":11.57769775,"latitude":48.12030029},"fuelLevel":0.8999999999999999,"lastAddress":"Dollmannstraße 9-11, 81541 München, Germany"}
{"timestamp":"2016-11-20T02:45:00+0100","id":124018,"name":"Toni","coordinate":{"longitude":11.56919861,"latitude":48.1239624},"fuelLevel":0.56,"lastAddress":"Wittelsbacherstraße 10-11, 80469 München, Germany"}
{"timestamp":"2016-11-20T02:45:00+0100","id":124012,"name":"Peter","coordinate":{"longitude":11.56001282,"latitude":48.15501404},"fuelLevel":0.6,"lastAddress":"Schellingstraße 138, 80797 München, Germany"}
{"timestamp":"2016-11-20T02:45:00+0100","id":124004,"name":"Fridl","coordinate":{"longitude":11.55908203,"latitude":48.15390015},"fuelLevel":0.88,"lastAddress":"Heßstraße 79, 80797 München, Germany"}
{"timestamp":"2016-11-20T02:45:00+0100","id":124031,"name":"Heidi","coordinate":{"longitude":11.57020569,"latitude":48.14952087},"fuelLevel":0.51,"lastAddress":"Theresienstraße, 80333 München, Germany"}
{"timestamp":"2016-11-20T02:45:00+0100","id":124047,"name":"Walli","coordinate":{"longitude":11.56719971,"latitude":48.15081787},"fuelLevel":0.75,"lastAddress":"Luisenstraße 63, 80798 München, Germany"}
{"timestamp":"2016-11-20T02:45:00+0100","id":124002,"name":"Ferdl","coordinate":{"longitude":11.5639801,"latitude":48.15031433},"fuelLevel":0.8999999999999999,"lastAddress":"Augustenstraße 76, 80333 München, Germany"}
{"timestamp":"2016-11-20T02:45:00+0100","id":124048,"name":"Wiggerl","coordinate":{"longitude":11.57739258,"latitude":48.15899658},"fuelLevel":0.8,"lastAddress":"Ainmillerstraße 33, 80801 München, Germany"}
{"timestamp":"2016-11-20T02:45:00+0100","id":124028,"name":"Gitte","coordinate":{"longitude":11.57910156,"latitude":48.1579895},"fuelLevel":0.9099999999999999,"lastAddress":"Franz-Joseph-Straße 28, 80801 München, Germany"}
{"timestamp":"2016-11-20T02:45:00+0100","id":124027,"name":"Fanni","coordinate":{"longitude":11.58340454,"latitude":48.16088867},"fuelLevel":0.8800000000000001,"lastAddress":"Kaiserstraße 19, 80801 München, Germany"}
{"timestamp":"2016-11-20T02:45:00+0100","id":124001,"name":"Edmund","coordinate":{"longitude":11.57981873,"latitude":48.1612854},"fuelLevel":0.5599999999999999,"lastAddress":"Kaiserpl. 13, 80803 München, Germany"}
{"timestamp":"2016-11-20T02:45:00+0100","id":124032,"name":"Irmi","coordinate":{"longitude":11.57260132,"latitude":48.15809631},"fuelLevel":0.89,"lastAddress":"Elisabethstraße 10, 80796 München, Germany"}
{"timestamp":"2016-11-20T02:45:00+0100","id":124037,"name":"Luise","coordinate":{"longitude":11.56237793,"latitude":48.15733337},"fuelLevel":0.57,"lastAddress":"Schleißheimer Str. 108, 80797 München, Germany"}
{"timestamp":"2016-11-20T02:45:00+0100","id":124017,"name":"Siggi","coordinate":{"longitude":11.56907654,"latitude":48.15940857},"fuelLevel":0.64,"lastAddress":"Tengstraße 31, 80796 München, Germany"}
{"timestamp":"2016-11-20T02:45:00+0100","id":124029,"name":"Hannah","coordinate":{"longitude":11.50959778,"latitude":48.04548645},"fuelLevel":0.89,"lastAddress":"Seitnerstraße 70, 82049 Pullach im Isartal, Germany"}
{"timestamp":"2016-11-20T02:45:00+0100","id":124008,"name":"Johann","coordinate":{"longitude":11.50949097,"latitude":48.04550171},"fuelLevel":0.81,"lastAddress":"Seitnerstraße 70, 82049 Pullach im Isartal, Germany"}
{"timestamp":"2016-11-20T02:45:00+0100","id":124039,"name":"Marie","coordinate":{"longitude":11.50570011,"latitude":48.04430008},"fuelLevel":0.7569444444444444,"lastAddress":"Wolfratshauser Str. 138, 82049 Pullach im Isartal, Germany"}
{"timestamp":"2016-11-20T02:45:00+0100","id":124009,"name":"Ludwig","coordinate":{"longitude":11.58230591,"latitude":48.16560364},"fuelLevel":0.8,"lastAddress":"Muffatstraße 5-7, 80803 München, Germany"}
{"timestamp":"2016-11-20T02:45:00+0100","id":124007,"name":"Jakob","coordinate":{"longitude":11.57409668,"latitude":48.16430664},"fuelLevel":0.84,"lastAddress":"Belgradstraße 37, 80796 München, Germany"}