{"timestamp":"2016-09-27T18:40:00+0200","id":124041,"name":"Sophie","coordinate":{"longitude":11.57759953,"latitude":48.14989853},"fuelLevel":0.93,"lastAddress":"Schellingstraße 18, 80799 München, Germany"}
{"timestamp":"2016-09-27T18:40:00+0200","id":124026,"name":"Eva","coordinate":{"longitude":11.5781002,"latitude":48.15359879},"fuelLevel":0.61,"lastAddress":"Türkenstraße 95, 80799 München, Germany"}
{"timestamp":"2016-09-27T18:40:00+0200","id":124025,"name":"Elli","coordinate":{"longitude":11.57839966,"latitude":48.15319824},"fuelLevel":0.85,"lastAddress":"Akademiestraße 4, 80799 München, Germany"}
{"timestamp":"2016-09-27T18:40:00+0200","id":124033,"name":"Johanna","coordinate":{"longitude":11.57960033,"latitude":48.15650177},"fuelLevel":0.89,"lastAddress":"Friedrichstraße 13, 80801 München, Germany"}
{"timestamp":"2016-09-27T18:40:00+0200","id":124036,"name":"Liesel","coordinate":{"longitude":11.57520008,"latitude":48.15629959},"fuelLevel":0.6699999999999999,"lastAddress":"Nordendstraße 36, 80801 München, Germany"}
{"timestamp":"2016-09-27T18:40:00+0200","id":124044,"name":"Uschi","coordinate":{"longitude":11.57579994,"latitude":48.13019943},"fuelLevel":0.51,"lastAddress":"Reichenbachstraße 24, 80469 München, Germany"}
{"timestamp":"2016-09-27T18:40:00+0200","id":124024,"name":"Christl","coordinate":{"longitude":11.58030033,"latitude":48.13219833},"fuelLevel":0.83,"lastAddress":"Baaderpl. 2, 80469 München, Germany"}
{"timestamp":"2016-09-27T18:40:00+0200","id":124021,"name":"Xaver","coordinate":{"longitude":11.58080006,"latitude":48.13190079},"fuelLevel":0.52,"lastAddress":"Kohlstraße 5, 80469 München, Germany"}
{"timestamp":"2016-09-27T18:40:00+0200","id":124014,"name":"Quirin","coordinate":{"longitude":11.60929966,"latitude":48.1257019},"fuelLevel":0.62,"lastAddress":"Haager Str. 14, 81671 München, Germany"}
{"timestamp":"2016-09-27T18:40:00+0200","id":124034,"name":"Kathi","coordinate":{"longitude":11.60480022,"latitude":48.13230133},"fuelLevel":0.67,"lastAddress":"Elsässer Str. 6, 81667 München, Germany"}
{"timestamp":"2016-09-27T18:40:00+0200","id":124030,"name":"Hedwig","coordinate":{"longitude":11.56309986,"latitude":48.12659836},"fuelLevel":0.9099999999999999,"lastAddress":"Thalkirchner Str. 17, 80337 München, Germany"}
{"timestamp":"2016-09-27T18:40:00+0200","id":124023,"name":"Babsi","coordinate":{"longitude":11.56369972,"latitude":48.12720108},"fuelLevel":0.93,"lastAddress":"Thalkirchner Str. 54, 80337 München, Germany"}
{"timestamp":"2016-09-27T18:40:00+0200","id":124016,"name":"Sepp","coordinate":{"longitude":11.59920025,"latitude":48.12609863},"fuelLevel":0.9199999999999999,"lastAddress":"Lothringer Str. 28A, 81667 München, Germany"}
{"timestamp":"2016-09-27T18:40:00+0200","id":124022,"name":"Anne","coordinate":{"longitude":11.59689999,"latitude":48.12670135},"fuelLevel":0.8900000000000001,"lastAddress":"Rosenheimer Str. 90, 81669 München, Germany"}
{"timestamp":"2016-09-27T18:40:00+0200","id":124000,"name":"Bertl","coordinate":{"longitude":11.59490013,"latitude":48.12969971},"fuelLevel":0.8500000000000001,"lastAddress":"Steinstraße 62, 81667 München, Germany"}
{"timestamp":"2016-09-27T18:40:00+0200","id":124013,"name":"Poldi","coordinate":{"longitude":11.59469986,"latitude":48.12689972},"fuelLevel":0.83,"lastAddress":"Balanstraße 14, 81669 München, Germany"}
{"timestamp":"2016-09-27T18:40:00+0200","id":124011,"name":"Maxl","coordinate":{"longitude":11.5909996,"latitude":48.12620163},"fuelLevel":0.8099999999999999,"lastAddress":"Franziskanerstraße 16, 81669 München, Germany"}
{"timestamp":"2016-09-27T18:40:00+0200","id":124003,"name":"Franzl","coordinate":{"longitude":11.58969975,"latitude":48.12509918},"fuelLevel":0.88,"lastAddress":"Franziskanerstraße 47, 81669 München, Germany"}
{"timestamp":"2016-09-27T18:40:00+0200","id":124010,"name":"Luitpold","coordinate":{"longitude":11.58580017,"latitude":48.12590027},"fuelLevel":0.88,"lastAddress":"Gebsattelstraße 2, 81541 München, Germany"}
{"timestamp":"2016-09-27T18:40:00+0200","id":124019,"name":"Valentin","coordinate":{"longitude":11.5855999,"latitude":48.12340164},"fuelLevel":0.9199999999999999,"lastAddress":"Hochstraße 49, 81541 München, Germany"}
{"timestamp":"2016-09-27T18:40:00+0200","id":124035,"name":"Leonie","coordinate":{"longitude":11.5855999,"latitude":48.12929916},"fuelLevel":0.7899999999999999,"lastAddress":"Schwarzstraße 1, 81669 München, Germany"}
{"timestamp":"2016-09-27T18:40:00+0200","id":124006,"name":"Gustl","coordinate":{"longitude":11.57769966,"latitude":48.12080002},"fuelLevel":0.93,"lastAddress":"Dollmannstraße 2, 81541 München, Germany"}
{"timestamp":"2016-09-27T18:40:00+0200","id":124020,"name":"Vinzenz","coordinate":{"longitude":11.57989979,"latitude":48.1228981},"fuelLevel":0.9299999999999999,"lastAddress":"Falkenstraße 17, 81541 München, Germany"}
{"timestamp":"2016-09-27T18:40:00+0200","id":124049,"name":"Marei","coordinate":{"longitude":11.57400036,"latitude":48.11999893},"fuelLevel":0.7200000000000001,"lastAddress":"Humboldtstraße 22, 81543 München, Germany"}
{"timestamp":"2016-09-27T18:40:00+0200","id":124045,"name":"Vroni","coordinate":{"longitude":11.56739998,"latitude":48.12770081},"fuelLevel":0.9199999999999999,"lastAddress":"Holzstraße 34, 80469 München, Germany"}
{"timestamp":"2016-09-27T18:40:00+0200","id":124018,"name":"Toni","coordinate":{"longitude":11.56919956,"latitude":48.12639999},"fuelLevel":0.9500000000000001,"lastAddress":"Baumstraße 18, 80469 München, Germany"}
{"timestamp":"2016-09-27T18:40:00+0200","id":124012,"name":"Peter","coordinate":{"longitude":11.57289982,"latitude":48.14989853},"fuelLevel":1,"lastAddress":"Barer Str. 54A, 80799 München, Germany"}
{"timestamp":"2016-09-27T18:40:00+0200","id":124031,"name":"Heidi","coordinate":{"longitude":11.56729984,"latitude":48.14849854},"fuelLevel":0.8500000000000001,"lastAddress":"Dachauer Str. 25, 80335 München, Germany"}
{"timestamp":"2016-09-27T18:40:00+0200","id":124047,"name":"Walli","coordinate":{"longitude":11.57129955,"latitude":48.15610123},"fuelLevel":0.8999999999999999,"lastAddress":"Georgenstraße 63, 80799 München, Germany"}
{"timestamp":"2016-09-27T18:40:00+0200","id":124002,"name":"Ferdl","coordinate":{"longitude":11.56369972,"latitude":48.15060043},"fuelLevel":0.48000000000000004,"lastAddress":"Augustenstraße 77, 80333 München, Germany"}
{"timestamp":"2016-09-27T18:40:00+0200","id":124048,"name":"Wiggerl","coordinate":{"longitude":11.57740021,"latitude":48.1590004},"fuelLevel":0.7200000000000001,"lastAddress":"Ainmillerstraße 33, 80801 München, Germany"}
{"timestamp":"2016-09-27T18:40:00+0200","id":124028,"name":"Gitte","coordinate":{"longitude":11.57989979,"latitude":48.15790176},"fuelLevel":0.81,"lastAddress":"Habsburgerpl. 3, 80801 München, Germany"}
{"timestamp":"2016-09-27T18:40:00+0200","id":124027,"name":"Fanni","coordinate":{"longitude":11.57730007,"latitude":48.15909958},"fuelLevel":0.85,"lastAddress":"Römerstraße 10, 80801 München, Germany"}
{"timestamp":"2016-09-27T18:40:00+0200","id":124005,"name":"Georg","coordinate":{"longitude":11.58129978,"latitude":48.1590004},"fuelLevel":0.69,"lastAddress":"Ainmillerstraße 20, 80801 München, Germany"}
{"timestamp":"2016-09-27T18:40:00+0200","id":124032,"name":"Irmi","coordinate":{"longitude":11.57310009,"latitude":48.16009903},"fuelLevel":0.64,"lastAddress":"Isabellastraße 42-44, 80796 München, Germany"}
{"timestamp":"2016-09-27T18:40:00+0200","id":124037,"name":"Luise","coordinate":{"longitude":11.56519985,"latitude":48.15940094},"fuelLevel":0.9400000000000001,"lastAddress":"Zentnerstraße 38, 80798 München, Germany"}
{"timestamp":"2016-09-27T18:40:00+0200","id":124017,"name":"Siggi","coordinate":{"longitude":11.57129955,"latitude":48.16030121},"fuelLevel":0.56,"lastAddress":"Jakob-Klar-Straße 11, 80796 München, Germany"}
{"timestamp":"2016-09-27T18:40:00+0200","id":124029,"name":"Hannah","coordinate":{"longitude":11.51010036,"latitude":48.04539871},"fuelLevel":0.7,"lastAddress":"Gistlstraße 159, 82049 Pullach im Isartal, Germany"}
{"timestamp":"2016-09-27T18:40:00+0200","id":124042,"name":"Tilli","coordinate":{"longitude":11.50940037,"latitude":48.04539871},"fuelLevel":0.84,"lastAddress":"Seitnerstraße 70, 82049 Pullach im Isartal, Germany"}
{"timestamp":"2016-09-27T18:40:00+0200","id":124039,"name":"Marie","coordinate":{"longitude":11.50949955,"latitude":48.04550171},"fuelLevel":0.89,"lastAddress":"Seitnerstraße 70, 82049 Pullach im Isartal, Germany"}
{"timestamp":"2016-09-27T18:40:00+0200","id":124009,"name":"Ludwig","coordinate":{"longitude":11.57800007,"latitude":48.16410065},"fuelLevel":0.9400000000000001,"lastAddress":"Cherubinistraße 3, 80803 München, Germany"}
{"timestamp":"2016-09-27T18:40:00+0200","id":124007,"name":"Jakob","coordinate":{"longitude":11.58650017,"latitude":48.16379929},"fuelLevel":0.9500000000000001,"lastAddress":"Leopoldstraße 85, 80802 München, Germany"}