{"timestamp":"2016-11-17T09:50:00+0100","id":124041,"name":"Sophie","coordinate":{"longitude":11.58059692,"latitude":48.15161133},"fuelLevel":0.63,"lastAddress":"Adalbertstraße 8, 80799 München, Germany"}
{"timestamp":"2016-11-17T09:50:00+0100","id":124026,"name":"Eva","coordinate":{"longitude":11.58129883,"latitude":48.15229797},"fuelLevel":0.75,"lastAddress":"Akademiestraße 3, 80799 München, Germany"}
{"timestamp":"2016-11-17T09:50:00+0100","id":124025,"name":"Elli","coordinate":{"longitude":11.58128357,"latitude":48.15252686},"fuelLevel":0.8900000000000001,"lastAddress":"Akademiestraße 3, 80799 München, Germany"}
{"timestamp":"2016-11-17T09:50:00+0100","id":124024,"name":"Christl","coordinate":{"longitude":11.57629395,"latitude":48.13331604},"fuelLevel":0.69,"lastAddress":"Reichenbachstraße 8, 80469 München, Germany"}
{"timestamp":"2016-11-17T09:50:00+0100","id":124040,"name":"Reserl","coordinate":{"longitude":11.58169556,"latitude":48.1308136},"fuelLevel":0.86,"lastAddress":"Erhardtstraße 27, 80469 München, Germany"}
{"timestamp":"2016-11-17T09:50:00+0100","id":124021,"name":"Xaver","coordinate":{"longitude":11.57420349,"latitude":48.13279724},"fuelLevel":0.87,"lastAddress":"Müllerstraße 3, 80469 München, Germany"}
{"timestamp":"2016-11-17T09:50:00+0100","id":124014,"name":"Quirin","coordinate":{"longitude":11.59919739,"latitude":48.13598633},"fuelLevel":0.6527777777777778,"lastAddress":"Einsteinstraße 3, 81675 München, Germany"}
{"timestamp":"2016-11-17T09:50:00+0100","id":124022,"name":"Anne","coordinate":{"longitude":11.598526,"latitude":48.13021851},"fuelLevel":0.85,"lastAddress":"Metzstraße 19, 81667 München, Germany"}
{"timestamp":"2016-11-17T09:50:00+0100","id":124000,"name":"Bertl","coordinate":{"longitude":11.59689331,"latitude":48.12800598},"fuelLevel":0.55,"lastAddress":"Lothringer Str. 4, 81667 München, Germany"}
{"timestamp":"2016-11-17T09:50:00+0100","id":124013,"name":"Poldi","coordinate":{"longitude":11.58959961,"latitude":48.12501526},"fuelLevel":0.79,"lastAddress":"Franziskanerstraße 47, 81669 München, Germany"}
{"timestamp":"2016-11-17T09:50:00+0100","id":124003,"name":"Franzl","coordinate":{"longitude":11.58979797,"latitude":48.12539673},"fuelLevel":0.7799999999999999,"lastAddress":"Franziskanerstraße 32, 81669 München, Germany"}
{"timestamp":"2016-11-17T09:50:00+0100","id":124010,"name":"Luitpold","coordinate":{"longitude":11.58399963,"latitude":48.1264801},"fuelLevel":0.63,"lastAddress":"Sammtstraße 9, 81669 München, Germany"}
{"timestamp":"2016-11-17T09:50:00+0100","id":124035,"name":"Leonie","coordinate":{"longitude":11.58351135,"latitude":48.12771606},"fuelLevel":0.87,"lastAddress":"Zeppelinstraße 39, 81669 München, Germany"}
{"timestamp":"2016-11-17T09:50:00+0100","id":124006,"name":"Gustl","coordinate":{"longitude":11.57368469,"latitude":48.12019348},"fuelLevel":0.8900000000000001,"lastAddress":"Humboldtstraße 21, 81543 München, Germany"}
{"timestamp":"2016-11-17T09:50:00+0100","id":124020,"name":"Vinzenz","coordinate":{"longitude":11.57879639,"latitude":48.12350464},"fuelLevel":0.88,"lastAddress":"Entenbachstraße 15, 81541 München, Germany"}
{"timestamp":"2016-11-17T09:50:00+0100","id":124018,"name":"Toni","coordinate":{"longitude":11.56900024,"latitude":48.12399292},"fuelLevel":0.55,"lastAddress":"Wittelsbacherstraße 10-11, 80469 München, Germany"}
{"timestamp":"2016-11-17T09:50:00+0100","id":124004,"name":"Fridl","coordinate":{"longitude":11.55908203,"latitude":48.15390015},"fuelLevel":0.88,"lastAddress":"Heßstraße 79, 80797 München, Germany"}
{"timestamp":"2016-11-17T09:50:00+0100","id":124048,"name":"Wiggerl","coordinate":{"longitude":11.57771301,"latitude":48.15791321},"fuelLevel":0.88,"lastAddress":"Franz-Joseph-Straße 36A, 80801 München, Germany"}
{"timestamp":"2016-11-17T09:50:00+0100","id":124027,"name":"Fanni","coordinate":{"longitude":11.5834198,"latitude":48.16079712},"fuelLevel":0.9,"lastAddress":"Kaiserstraße 19, 80801 München, Germany"}
{"timestamp":"2016-11-17T09:50:00+0100","id":124005,"name":"Georg","coordinate":{"longitude":11.5769043,"latitude":48.15829468},"fuelLevel":0.8,"lastAddress":"Römerstraße 3, 80801 München, Germany"}
{"timestamp":"2016-11-17T09:50:00+0100","id":124001,"name":"Edmund","coordinate":{"longitude":11.57669067,"latitude":48.16130066},"fuelLevel":0.63,"lastAddress":"Kaiserstraße 59-61, 80801 München, Germany"}
{"timestamp":"2016-11-17T09:50:00+0100","id":124008,"name":"Johann","coordinate":{"longitude":11.50990295,"latitude":48.04530334},"fuelLevel":0.88,"lastAddress":"Gistlstraße 159, 82049 Pullach im Isartal, Germany"}
{"timestamp":"2016-11-17T09:50:00+0100","id":124009,"name":"Ludwig","coordinate":{"longitude":11.58139038,"latitude":48.16641235},"fuelLevel":0.89,"lastAddress":"Karl-Theodor-Straße 44, 80803 München, Germany"}
{"timestamp":"2016-11-17T09:50:00+0100","id":124007,"name":"Jakob","coordinate":{"longitude":11.57409668,"latitude":48.1643219},"fuelLevel":0.84,"lastAddress":"Belgradstraße 37, 80796 München, Germany"}