{"timestamp":"2016-11-30T04:00:00+0100","id":124026,"name":"Eva","coordinate":{"longitude":11.58131409,"latitude":48.15229797},"fuelLevel":0.7200000000000001,"lastAddress":"Akademiestraße 3, 80799 München, Germany"}
{"timestamp":"2016-11-30T04:00:00+0100","id":124025,"name":"Elli","coordinate":{"longitude":11.58120728,"latitude":48.1525116},"fuelLevel":0.8200000000000001,"lastAddress":"Akademiestraße 5, 80799 München, Germany"}
{"timestamp":"2016-11-30T04:00:00+0100","id":124033,"name":"Johanna","coordinate":{"longitude":11.57917786,"latitude":48.15188599},"fuelLevel":0.69,"lastAddress":"Amalienstraße 95, 80799 München, Germany"}
{"timestamp":"2016-11-30T04:00:00+0100","id":124036,"name":"Liesel","coordinate":{"longitude":11.57859802,"latitude":48.15310669},"fuelLevel":0.5499999999999999,"lastAddress":"Akademiestraße 4, 80799 München, Germany"}
{"timestamp":"2016-11-30T04:00:00+0100","id":124024,"name":"Christl","coordinate":{"longitude":11.57699585,"latitude":48.1328125},"fuelLevel":0.6499999999999999,"lastAddress":"Buttermelcherstraße 4, 80469 München, Germany"}
{"timestamp":"2016-11-30T04:00:00+0100","id":124040,"name":"Reserl","coordinate":{"longitude":11.57371521,"latitude":48.13240051},"fuelLevel":0.58,"lastAddress":"Müllerstraße 3, 80469 München, Germany"}
{"timestamp":"2016-11-30T04:00:00+0100","id":124021,"name":"Xaver","coordinate":{"longitude":11.58198547,"latitude":48.13108826},"fuelLevel":0.79,"lastAddress":"Kohlstraße 11, 80469 München, Germany"}
{"timestamp":"2016-11-30T04:00:00+0100","id":124034,"name":"Kathi","coordinate":{"longitude":11.60549927,"latitude":48.13223267},"fuelLevel":0.62,"lastAddress":"Spicherenstraße 3, 81667 München, Germany"}
{"timestamp":"2016-11-30T04:00:00+0100","id":124023,"name":"Babsi","coordinate":{"longitude":11.56739998,"latitude":48.13079834},"fuelLevel":0.8800000000000001,"lastAddress":"Pestalozzistraße 13, 80469 München, Germany"}
{"timestamp":"2016-11-30T04:00:00+0100","id":124022,"name":"Anne","coordinate":{"longitude":11.59991455,"latitude":48.12799072},"fuelLevel":0.63,"lastAddress":"Pariser Str. 38, 81667 München, Germany"}
{"timestamp":"2016-11-30T04:00:00+0100","id":124000,"name":"Bertl","coordinate":{"longitude":11.60310364,"latitude":48.1282959},"fuelLevel":0.77,"lastAddress":"Orleanspl. 3, 81667 München, Germany"}
{"timestamp":"2016-11-30T04:00:00+0100","id":124013,"name":"Poldi","coordinate":{"longitude":11.58959961,"latitude":48.125},"fuelLevel":0.79,"lastAddress":"Franziskanerstraße 47, 81669 München, Germany"}
{"timestamp":"2016-11-30T04:00:00+0100","id":124011,"name":"Maxl","coordinate":{"longitude":11.59260559,"latitude":48.12670898},"fuelLevel":0.5599999999999999,"lastAddress":"Franziskanerstraße 14, 81669 München, Germany"}
{"timestamp":"2016-11-30T04:00:00+0100","id":124003,"name":"Franzl","coordinate":{"longitude":11.58419991,"latitude":48.13280106},"fuelLevel":0.5555555555555556,"lastAddress":"Zweibrückenstraße 17, 80331 München, Germany"}
{"timestamp":"2016-11-30T04:00:00+0100","id":124010,"name":"Luitpold","coordinate":{"longitude":11.58459473,"latitude":48.12869263},"fuelLevel":0.59,"lastAddress":"Zeppelinstraße 53, 81669 München, Germany"}
{"timestamp":"2016-11-30T04:00:00+0100","id":124019,"name":"Valentin","coordinate":{"longitude":11.58340454,"latitude":48.12239075},"fuelLevel":0.52,"lastAddress":"Hochstraße 75, 81541 München, Germany"}
{"timestamp":"2016-11-30T04:00:00+0100","id":124035,"name":"Leonie","coordinate":{"longitude":11.58457947,"latitude":48.12771606},"fuelLevel":0.7899999999999999,"lastAddress":"Lilienstraße 64, 81669 München, Germany"}
{"timestamp":"2016-11-30T04:00:00+0100","id":124020,"name":"Vinzenz","coordinate":{"longitude":11.57940674,"latitude":48.12458801},"fuelLevel":0.71,"lastAddress":"Entenbachstraße 6, 81541 München, Germany"}
{"timestamp":"2016-11-30T04:00:00+0100","id":124049,"name":"Marei","coordinate":{"longitude":11.5776062,"latitude":48.1204071},"fuelLevel":0.8999999999999999,"lastAddress":"Dollmannstraße 4, 81541 München, Germany"}
{"timestamp":"2016-11-30T04:00:00+0100","id":124045,"name":"Vroni","coordinate":{"longitude":11.60849953,"latitude":48.12630081},"fuelLevel":0.8541666666666666,"lastAddress":"Haager Str. 10A, 81671 München, Germany"}
{"timestamp":"2016-11-30T04:00:00+0100","id":124018,"name":"Toni","coordinate":{"longitude":11.56559753,"latitude":48.12638855},"fuelLevel":0.81,"lastAddress":"Pestalozzistraße 60, 80469 München, Germany"}
{"timestamp":"2016-11-30T04:00:00+0100","id":124012,"name":"Peter","coordinate":{"longitude":11.56109619,"latitude":48.15740967},"fuelLevel":0.5599999999999999,"lastAddress":"Georgenstraße 121-123, 80797 München, Germany"}
{"timestamp":"2016-11-30T04:00:00+0100","id":124004,"name":"Fridl","coordinate":{"longitude":11.5564003,"latitude":48.15499878},"fuelLevel":0.7799999999999999,"lastAddress":"Heßstraße 110, 80797 München, Germany"}
{"timestamp":"2016-11-30T04:00:00+0100","id":124031,"name":"Heidi","coordinate":{"longitude":11.57200623,"latitude":48.15089417},"fuelLevel":0.875,"lastAddress":"Schraudolphstraße 4, 80799 München, Germany"}
{"timestamp":"2016-11-30T04:00:00+0100","id":124047,"name":"Walli","coordinate":{"longitude":11.56578064,"latitude":48.15341187},"fuelLevel":0.6499999999999999,"lastAddress":"Augustenstraße 106, 80798 München, Germany"}
{"timestamp":"2016-11-30T04:00:00+0100","id":124048,"name":"Wiggerl","coordinate":{"longitude":11.57739258,"latitude":48.15911865},"fuelLevel":0.7799999999999999,"lastAddress":"Römerstraße 10, 80801 München, Germany"}
{"timestamp":"2016-11-30T04:00:00+0100","id":124028,"name":"Gitte","coordinate":{"longitude":11.57960033,"latitude":48.15779877},"fuelLevel":0.9099999999999999,"lastAddress":"Franz-Joseph-Straße 25, 80801 München, Germany"}
{"timestamp":"2016-11-30T04:00:00+0100","id":124027,"name":"Fanni","coordinate":{"longitude":11.58099365,"latitude":48.16145325},"fuelLevel":0.8300000000000001,"lastAddress":"Kaiserpl. 1, 80803 München, Germany"}
{"timestamp":"2016-11-30T04:00:00+0100","id":124005,"name":"Georg","coordinate":{"longitude":11.57951355,"latitude":48.15910339},"fuelLevel":0.75,"lastAddress":"Ainmillerstraße 30, 80801 München, Germany"}
{"timestamp":"2016-11-30T04:00:00+0100","id":124001,"name":"Edmund","coordinate":{"longitude":11.57843018,"latitude":48.15911865},"fuelLevel":0.51,"lastAddress":"Ainmillerstraße 38, 80801 München, Germany"}
{"timestamp":"2016-11-30T04:00:00+0100","id":124032,"name":"Irmi","coordinate":{"longitude":11.57499981,"latitude":48.15969849},"fuelLevel":0.61,"lastAddress":"Kurfürstenpl. 2, 80796 München, Germany"}
{"timestamp":"2016-11-30T04:00:00+0100","id":124037,"name":"Luise","coordinate":{"longitude":11.5710001,"latitude":48.15869904},"fuelLevel":0.9099999999999999,"lastAddress":"Elisabethstraße 22, 80796 München, Germany"}
{"timestamp":"2016-11-30T04:00:00+0100","id":124017,"name":"Siggi","coordinate":{"longitude":11.57339954,"latitude":48.15670013},"fuelLevel":0.8,"lastAddress":"Arcisstraße 65, 80801 München, Germany"}
{"timestamp":"2016-11-30T04:00:00+0100","id":124029,"name":"Hannah","coordinate":{"longitude":11.50979614,"latitude":48.0453949},"fuelLevel":0.6000000000000001,"lastAddress":"Seitnerstraße 70, 82049 Pullach im Isartal, Germany"}
{"timestamp":"2016-11-30T04:00:00+0100","id":124039,"name":"Marie","coordinate":{"longitude":11.50629997,"latitude":48.04370117},"fuelLevel":0.71,"lastAddress":"Wolfratshauser Str. 138, 82049 Pullach im Isartal, Germany"}
{"timestamp":"2016-11-30T04:00:00+0100","id":124009,"name":"Ludwig","coordinate":{"longitude":11.58239746,"latitude":48.16560364},"fuelLevel":0.71,"lastAddress":"Muffatstraße 8, 80803 München, Germany"}