{"timestamp":"2016-09-28T04:35:00+0200","id":124041,"name":"Sophie","coordinate":{"longitude":11.5777998,"latitude":48.14970016},"fuelLevel":0.93,"lastAddress":"Schellingstraße 11, 80799 München, Germany"}
{"timestamp":"2016-09-28T04:35:00+0200","id":124026,"name":"Eva","coordinate":{"longitude":11.57849979,"latitude":48.15380096},"fuelLevel":0.61,"lastAddress":"Türkenstraße 104, 80799 München, Germany"}
{"timestamp":"2016-09-28T04:35:00+0200","id":124025,"name":"Elli","coordinate":{"longitude":11.57789993,"latitude":48.15319824},"fuelLevel":0.85,"lastAddress":"Türkenstraße 93, 80799 München, Germany"}
{"timestamp":"2016-09-28T04:35:00+0200","id":124033,"name":"Johanna","coordinate":{"longitude":11.57960033,"latitude":48.15629959},"fuelLevel":0.89,"lastAddress":"Friedrichstraße 11, 80801 München, Germany"}
{"timestamp":"2016-09-28T04:35:00+0200","id":124036,"name":"Liesel","coordinate":{"longitude":11.57509995,"latitude":48.15629959},"fuelLevel":0.6699999999999999,"lastAddress":"Nordendstraße 29, 80801 München, Germany"}
{"timestamp":"2016-09-28T04:35:00+0200","id":124044,"name":"Uschi","coordinate":{"longitude":11.57579994,"latitude":48.13029861},"fuelLevel":0.51,"lastAddress":"Reichenbachstraße 24, 80469 München, Germany"}
{"timestamp":"2016-09-28T04:35:00+0200","id":124024,"name":"Christl","coordinate":{"longitude":11.58080006,"latitude":48.13219833},"fuelLevel":0.83,"lastAddress":"Baaderstraße 2, 80469 München, Germany"}
{"timestamp":"2016-09-28T04:35:00+0200","id":124021,"name":"Xaver","coordinate":{"longitude":11.58059978,"latitude":48.13199997},"fuelLevel":0.52,"lastAddress":"Kohlstraße 3, 80469 München, Germany"}
{"timestamp":"2016-09-28T04:35:00+0200","id":124014,"name":"Quirin","coordinate":{"longitude":11.60910034,"latitude":48.12590027},"fuelLevel":0.62,"lastAddress":"Haager Str. 14, 81671 München, Germany"}
{"timestamp":"2016-09-28T04:35:00+0200","id":124034,"name":"Kathi","coordinate":{"longitude":11.60499954,"latitude":48.13249969},"fuelLevel":0.67,"lastAddress":"Elsässer Str. 4, 81667 München, Germany"}
{"timestamp":"2016-09-28T04:35:00+0200","id":124030,"name":"Hedwig","coordinate":{"longitude":11.56219959,"latitude":48.12659836},"fuelLevel":0.9099999999999999,"lastAddress":"Thalkirchner Str. 70A, 80337 München, Germany"}
{"timestamp":"2016-09-28T04:35:00+0200","id":124023,"name":"Babsi","coordinate":{"longitude":11.5642004,"latitude":48.1271019},"fuelLevel":0.93,"lastAddress":"Thalkirchner Str. 54, 80337 München, Germany"}
{"timestamp":"2016-09-28T04:35:00+0200","id":124016,"name":"Sepp","coordinate":{"longitude":11.59840012,"latitude":48.12559891},"fuelLevel":0.9199999999999999,"lastAddress":"Rosenheimer Str. 102, 81669 München, Germany"}
{"timestamp":"2016-09-28T04:35:00+0200","id":124022,"name":"Anne","coordinate":{"longitude":11.59679985,"latitude":48.12649918},"fuelLevel":0.8900000000000001,"lastAddress":"Pariser Str. 16, 81669 München, Germany"}
{"timestamp":"2016-09-28T04:35:00+0200","id":124000,"name":"Bertl","coordinate":{"longitude":11.59469986,"latitude":48.12939835},"fuelLevel":0.8500000000000001,"lastAddress":"Steinstraße 79A, 81667 München, Germany"}
{"timestamp":"2016-09-28T04:35:00+0200","id":124013,"name":"Poldi","coordinate":{"longitude":11.59440041,"latitude":48.12680054},"fuelLevel":0.83,"lastAddress":"Rablstraße 47, 81669 München, Germany"}
{"timestamp":"2016-09-28T04:35:00+0200","id":124011,"name":"Maxl","coordinate":{"longitude":11.59290028,"latitude":48.12590027},"fuelLevel":0.8099999999999999,"lastAddress":"Sieboldstraße 5, 81669 München, Germany"}
{"timestamp":"2016-09-28T04:35:00+0200","id":124003,"name":"Franzl","coordinate":{"longitude":11.58950043,"latitude":48.12480164},"fuelLevel":0.88,"lastAddress":"Franziskanerstraße 49, 81669 München, Germany"}
{"timestamp":"2016-09-28T04:35:00+0200","id":124010,"name":"Luitpold","coordinate":{"longitude":11.58590031,"latitude":48.12590027},"fuelLevel":0.88,"lastAddress":"Gebsattelstraße 2, 81541 München, Germany"}
{"timestamp":"2016-09-28T04:35:00+0200","id":124019,"name":"Valentin","coordinate":{"longitude":11.58500004,"latitude":48.12329865},"fuelLevel":0.9199999999999999,"lastAddress":"Hochstraße 51A, 81541 München, Germany"}
{"timestamp":"2016-09-28T04:35:00+0200","id":124035,"name":"Leonie","coordinate":{"longitude":11.5855999,"latitude":48.12900162},"fuelLevel":0.7899999999999999,"lastAddress":"Schwarzstraße 4, 81669 München, Germany"}
{"timestamp":"2016-09-28T04:35:00+0200","id":124006,"name":"Gustl","coordinate":{"longitude":11.57719994,"latitude":48.1208992},"fuelLevel":0.93,"lastAddress":"Falkenstraße 46, 81541 München, Germany"}
{"timestamp":"2016-09-28T04:35:00+0200","id":124020,"name":"Vinzenz","coordinate":{"longitude":11.5795002,"latitude":48.12329865},"fuelLevel":0.9299999999999999,"lastAddress":"Albanistraße 19, 81541 München, Germany"}
{"timestamp":"2016-09-28T04:35:00+0200","id":124049,"name":"Marei","coordinate":{"longitude":11.57460022,"latitude":48.12039948},"fuelLevel":0.7200000000000001,"lastAddress":"Oefelestraße 8, 81543 München, Germany"}
{"timestamp":"2016-09-28T04:35:00+0200","id":124045,"name":"Vroni","coordinate":{"longitude":11.56690025,"latitude":48.12779999},"fuelLevel":0.9199999999999999,"lastAddress":"Pestalozzistraße 54, 80469 München, Germany"}
{"timestamp":"2016-09-28T04:35:00+0200","id":124018,"name":"Toni","coordinate":{"longitude":11.56910038,"latitude":48.12639999},"fuelLevel":0.9500000000000001,"lastAddress":"Baumstraße 18, 80469 München, Germany"}
{"timestamp":"2016-09-28T04:35:00+0200","id":124012,"name":"Peter","coordinate":{"longitude":11.57240009,"latitude":48.15010071},"fuelLevel":1,"lastAddress":"Heßstraße 2, 80799 München, Germany"}
{"timestamp":"2016-09-28T04:35:00+0200","id":124031,"name":"Heidi","coordinate":{"longitude":11.56630039,"latitude":48.14780045},"fuelLevel":0.8500000000000001,"lastAddress":"Gabelsbergerstraße 49, 80333 München, Germany"}
{"timestamp":"2016-09-28T04:35:00+0200","id":124047,"name":"Walli","coordinate":{"longitude":11.57149982,"latitude":48.15629959},"fuelLevel":0.8999999999999999,"lastAddress":"Georgenstraße 80, 80799 München, Germany"}
{"timestamp":"2016-09-28T04:35:00+0200","id":124002,"name":"Ferdl","coordinate":{"longitude":11.56359959,"latitude":48.15060043},"fuelLevel":0.48000000000000004,"lastAddress":"Augustenstraße 77, 80333 München, Germany"}
{"timestamp":"2016-09-28T04:35:00+0200","id":124048,"name":"Wiggerl","coordinate":{"longitude":11.5781002,"latitude":48.15919876},"fuelLevel":0.7200000000000001,"lastAddress":"Ainmillerstraße 38, 80801 München, Germany"}
{"timestamp":"2016-09-28T04:35:00+0200","id":124028,"name":"Gitte","coordinate":{"longitude":11.58049965,"latitude":48.15819931},"fuelLevel":0.81,"lastAddress":"Habsburgerpl. 2, 80801 München, Germany"}
{"timestamp":"2016-09-28T04:35:00+0200","id":124027,"name":"Fanni","coordinate":{"longitude":11.5777998,"latitude":48.15940094},"fuelLevel":0.85,"lastAddress":"Ainmillerstraße 40A, 80801 München, Germany"}
{"timestamp":"2016-09-28T04:35:00+0200","id":124005,"name":"Georg","coordinate":{"longitude":11.58139992,"latitude":48.15909958},"fuelLevel":0.69,"lastAddress":"Ainmillerstraße 20, 80801 München, Germany"}
{"timestamp":"2016-09-28T04:35:00+0200","id":124032,"name":"Irmi","coordinate":{"longitude":11.57320023,"latitude":48.16030121},"fuelLevel":0.64,"lastAddress":"Isabellastraße 46-48, 80796 München, Germany"}
{"timestamp":"2016-09-28T04:35:00+0200","id":124037,"name":"Luise","coordinate":{"longitude":11.56569958,"latitude":48.15950012},"fuelLevel":0.9400000000000001,"lastAddress":"Elisabethstraße 48-50, 80796 München, Germany"}
{"timestamp":"2016-09-28T04:35:00+0200","id":124017,"name":"Siggi","coordinate":{"longitude":11.57069969,"latitude":48.16030121},"fuelLevel":0.56,"lastAddress":"Jakob-Klar-Straße 11, 80796 München, Germany"}
{"timestamp":"2016-09-28T04:35:00+0200","id":124029,"name":"Hannah","coordinate":{"longitude":11.51019955,"latitude":48.04560089},"fuelLevel":0.7,"lastAddress":"Gistlstraße 159, 82049 Pullach im Isartal, Germany"}
{"timestamp":"2016-09-28T04:35:00+0200","id":124039,"name":"Marie","coordinate":{"longitude":11.50949955,"latitude":48.04539871},"fuelLevel":0.89,"lastAddress":"Seitnerstraße 70, 82049 Pullach im Isartal, Germany"}
{"timestamp":"2016-09-28T04:35:00+0200","id":124009,"name":"Ludwig","coordinate":{"longitude":11.57839966,"latitude":48.16379929},"fuelLevel":0.9400000000000001,"lastAddress":"Clemensstraße 47-49, 80803 München, Germany"}
{"timestamp":"2016-09-28T04:35:00+0200","id":124007,"name":"Jakob","coordinate":{"longitude":11.58650017,"latitude":48.16379929},"fuelLevel":0.9500000000000001,"lastAddress":"Leopoldstraße 85, 80802 München, Germany"}