{"timestamp":"2016-10-13T02:05:00+0200","id":124041,"name":"Sophie","coordinate":{"longitude":11.57849979,"latitude":48.15000153},"fuelLevel":0.86,"lastAddress":"Amalienstraße 52, 80799 München, Germany"}
{"timestamp":"2016-10-13T02:05:00+0200","id":124026,"name":"Eva","coordinate":{"longitude":11.57859993,"latitude":48.15359879},"fuelLevel":0.61,"lastAddress":"Türkenstraße 104, 80799 München, Germany"}
{"timestamp":"2016-10-13T02:05:00+0200","id":124025,"name":"Elli","coordinate":{"longitude":11.57680035,"latitude":48.15769958},"fuelLevel":0.87,"lastAddress":"Franz-Joseph-Straße 41, 80801 München, Germany"}
{"timestamp":"2016-10-13T02:05:00+0200","id":124033,"name":"Johanna","coordinate":{"longitude":11.57699966,"latitude":48.15019989},"fuelLevel":0.73,"lastAddress":"Schellingstraße 24, 80799 München, Germany"}
{"timestamp":"2016-10-13T02:05:00+0200","id":124036,"name":"Liesel","coordinate":{"longitude":11.58150005,"latitude":48.15019989},"fuelLevel":0.45,"lastAddress":"Professor-Huber-Platz 1, 80539 München, Germany"}
{"timestamp":"2016-10-13T02:05:00+0200","id":124044,"name":"Uschi","coordinate":{"longitude":11.57250023,"latitude":48.13199997},"fuelLevel":0.9199999999999999,"lastAddress":"Müllerstraße 20, 80469 München, Germany"}
{"timestamp":"2016-10-13T02:05:00+0200","id":124024,"name":"Christl","coordinate":{"longitude":11.57610035,"latitude":48.13230133},"fuelLevel":0.47000000000000003,"lastAddress":"Reichenbachstraße 16, 80469 München, Germany"}
{"timestamp":"2016-10-13T02:05:00+0200","id":124040,"name":"Reserl","coordinate":{"longitude":11.57199955,"latitude":48.13079834},"fuelLevel":0.83,"lastAddress":"Fraunhoferstraße 6, 80469 München, Germany"}
{"timestamp":"2016-10-13T02:05:00+0200","id":124021,"name":"Xaver","coordinate":{"longitude":11.58069992,"latitude":48.13000107},"fuelLevel":0.9199999999999999,"lastAddress":"Erhardtstraße 27, 80469 München, Germany"}
{"timestamp":"2016-10-13T02:05:00+0200","id":124014,"name":"Quirin","coordinate":{"longitude":11.59770012,"latitude":48.13470078},"fuelLevel":0.57,"lastAddress":"Innere Wiener Straße 60, 81667 München, Germany"}
{"timestamp":"2016-10-13T02:05:00+0200","id":124034,"name":"Kathi","coordinate":{"longitude":11.60229969,"latitude":48.12990189},"fuelLevel":0.82,"lastAddress":"Breisacher Str. 1, 81667 München, Germany"}
{"timestamp":"2016-10-13T02:05:00+0200","id":124023,"name":"Babsi","coordinate":{"longitude":11.56270027,"latitude":48.12609863},"fuelLevel":0.9,"lastAddress":"Thalkirchner Str. 17, 80337 München, Germany"}
{"timestamp":"2016-10-13T02:05:00+0200","id":124016,"name":"Sepp","coordinate":{"longitude":11.60200024,"latitude":48.12889862},"fuelLevel":0.9099999999999999,"lastAddress":"Wörthstraße 40, 81667 München, Germany"}
{"timestamp":"2016-10-13T02:05:00+0200","id":124038,"name":"Magda","coordinate":{"longitude":11.60039997,"latitude":48.12820053},"fuelLevel":0.67,"lastAddress":"Gravelottestraße 1, 81667 München, Germany"}
{"timestamp":"2016-10-13T02:05:00+0200","id":124022,"name":"Anne","coordinate":{"longitude":11.59630013,"latitude":48.12720108},"fuelLevel":0.8300000000000001,"lastAddress":"Rosenheimer Str. 87, 81667 München, Germany"}
{"timestamp":"2016-10-13T02:05:00+0200","id":124000,"name":"Bertl","coordinate":{"longitude":11.59799957,"latitude":48.12609863},"fuelLevel":0.8,"lastAddress":"Rosenheimer Str. 98, 81669 München, Germany"}
{"timestamp":"2016-10-13T02:05:00+0200","id":124013,"name":"Poldi","coordinate":{"longitude":11.59440041,"latitude":48.12730026},"fuelLevel":0.79,"lastAddress":"Balanstraße 10, 81669 München, Germany"}
{"timestamp":"2016-10-13T02:05:00+0200","id":124011,"name":"Maxl","coordinate":{"longitude":11.59440041,"latitude":48.12810135},"fuelLevel":0.6699999999999999,"lastAddress":"Balanstraße 2, 81669 München, Germany"}
{"timestamp":"2016-10-13T02:05:00+0200","id":124003,"name":"Franzl","coordinate":{"longitude":11.59189987,"latitude":48.12649918},"fuelLevel":0.8,"lastAddress":"Franziskanerstraße 14, 81669 München, Germany"}
{"timestamp":"2016-10-13T02:05:00+0200","id":124010,"name":"Luitpold","coordinate":{"longitude":11.58469963,"latitude":48.12760162},"fuelLevel":0.9400000000000001,"lastAddress":"Lilienstraße 71, 81669 München, Germany"}
{"timestamp":"2016-10-13T02:05:00+0200","id":124006,"name":"Gustl","coordinate":{"longitude":11.57419968,"latitude":48.12060165},"fuelLevel":0.9500000000000001,"lastAddress":"Oefelestraße 10, 81543 München, Germany"}
{"timestamp":"2016-10-13T02:05:00+0200","id":124020,"name":"Vinzenz","coordinate":{"longitude":11.5781002,"latitude":48.1228981},"fuelLevel":0.8999999999999999,"lastAddress":"Entenbachstraße 26, 81541 München, Germany"}
{"timestamp":"2016-10-13T02:05:00+0200","id":124049,"name":"Marei","coordinate":{"longitude":11.57409954,"latitude":48.12269974},"fuelLevel":0.9400000000000001,"lastAddress":"Eduard-Schmid-Straße 37, 81541 München, Germany"}
{"timestamp":"2016-10-13T02:05:00+0200","id":124045,"name":"Vroni","coordinate":{"longitude":11.56529999,"latitude":48.12419891},"fuelLevel":0.64,"lastAddress":"Kapuzinerstraße 39, 80469 München, Germany"}
{"timestamp":"2016-10-13T02:05:00+0200","id":124018,"name":"Toni","coordinate":{"longitude":11.57019997,"latitude":48.12919998},"fuelLevel":0.66,"lastAddress":"Hans-Sachs-Straße 13, 80469 München, Germany"}
{"timestamp":"2016-10-13T02:05:00+0200","id":124004,"name":"Fridl","coordinate":{"longitude":11.55650043,"latitude":48.1548996},"fuelLevel":0.9600000000000001,"lastAddress":"Heßstraße 110, 80797 München, Germany"}
{"timestamp":"2016-10-13T02:05:00+0200","id":124031,"name":"Heidi","coordinate":{"longitude":11.56669998,"latitude":48.15179825},"fuelLevel":0.6499999999999999,"lastAddress":"Heßstraße 42, 80798 München, Germany"}
{"timestamp":"2016-10-13T02:05:00+0200","id":124047,"name":"Walli","coordinate":{"longitude":11.5703001,"latitude":48.14960098},"fuelLevel":0.71,"lastAddress":"Theresienstraße, 80333 München, Germany"}
{"timestamp":"2016-10-13T02:05:00+0200","id":124002,"name":"Ferdl","coordinate":{"longitude":11.56270027,"latitude":48.15499878},"fuelLevel":0.9444444444444444,"lastAddress":"Zentnerstraße 7, 80798 München, Germany"}
{"timestamp":"2016-10-13T02:05:00+0200","id":124048,"name":"Wiggerl","coordinate":{"longitude":11.58059978,"latitude":48.16289902},"fuelLevel":0.66,"lastAddress":"Herzogstraße 40, 80803 München, Germany"}
{"timestamp":"2016-10-13T02:05:00+0200","id":124028,"name":"Gitte","coordinate":{"longitude":11.57719994,"latitude":48.16009903},"fuelLevel":0.76,"lastAddress":"Hohenzollernstraße 41, 80801 München, Germany"}
{"timestamp":"2016-10-13T02:05:00+0200","id":124027,"name":"Fanni","coordinate":{"longitude":11.58450031,"latitude":48.16059875},"fuelLevel":0.7899999999999999,"lastAddress":"Kaiserstraße 9, 80801 München, Germany"}
{"timestamp":"2016-10-13T02:05:00+0200","id":124005,"name":"Georg","coordinate":{"longitude":11.57549953,"latitude":48.16199875},"fuelLevel":0.56,"lastAddress":"Viktor-Scheffel-Straße 19-21, 80803 München, Germany"}
{"timestamp":"2016-10-13T02:05:00+0200","id":124032,"name":"Irmi","coordinate":{"longitude":11.57369995,"latitude":48.1595993},"fuelLevel":0.64,"lastAddress":"Nordendstraße 61, 80801 München, Germany"}
{"timestamp":"2016-10-13T02:05:00+0200","id":124037,"name":"Luise","coordinate":{"longitude":11.57019997,"latitude":48.15719986},"fuelLevel":0.52,"lastAddress":"Daimlerstraße 12, 80798 München, Germany"}
{"timestamp":"2016-10-13T02:05:00+0200","id":124017,"name":"Siggi","coordinate":{"longitude":11.57260036,"latitude":48.16030121},"fuelLevel":0.56,"lastAddress":"Hohenzollernstraße 67, 80796 München, Germany"}
{"timestamp":"2016-10-13T02:05:00+0200","id":124029,"name":"Hannah","coordinate":{"longitude":11.51019955,"latitude":48.04550171},"fuelLevel":0.7,"lastAddress":"Gistlstraße 159, 82049 Pullach im Isartal, Germany"}
{"timestamp":"2016-10-13T02:05:00+0200","id":124009,"name":"Ludwig","coordinate":{"longitude":11.58370018,"latitude":48.16230011},"fuelLevel":0.71,"lastAddress":"Herzogstraße 11, 80803 München, Germany"}
{"timestamp":"2016-10-13T02:05:00+0200","id":124007,"name":"Jakob","coordinate":{"longitude":11.57689953,"latitude":48.16659927},"fuelLevel":0.9400000000000001,"lastAddress":"Karl-Theodor-Straße 63, 80803 München, Germany"}