{"timestamp":"2016-10-01T15:00:00+0200","id":124041,"name":"Sophie","coordinate":{"longitude":11.5777998,"latitude":48.14989853},"fuelLevel":0.93,"lastAddress":"Schellingstraße 16, 80799 München, Germany"}
{"timestamp":"2016-10-01T15:00:00+0200","id":124026,"name":"Eva","coordinate":{"longitude":11.57820034,"latitude":48.15359879},"fuelLevel":0.61,"lastAddress":"Türkenstraße 95, 80799 München, Germany"}
{"timestamp":"2016-10-01T15:00:00+0200","id":124025,"name":"Elli","coordinate":{"longitude":11.57629967,"latitude":48.15539932},"fuelLevel":0.77,"lastAddress":"Kurfürstenstraße 14, 80801 München, Germany"}
{"timestamp":"2016-10-01T15:00:00+0200","id":124033,"name":"Johanna","coordinate":{"longitude":11.58100033,"latitude":48.15209961},"fuelLevel":0.88,"lastAddress":"Akademiestraße 3, 80799 München, Germany"}
{"timestamp":"2016-10-01T15:00:00+0200","id":124036,"name":"Liesel","coordinate":{"longitude":11.57509995,"latitude":48.15629959},"fuelLevel":0.6699999999999999,"lastAddress":"Nordendstraße 29, 80801 München, Germany"}
{"timestamp":"2016-10-01T15:00:00+0200","id":124024,"name":"Christl","coordinate":{"longitude":11.57919979,"latitude":48.13389969},"fuelLevel":0.8,"lastAddress":"Rumfordstraße 11, 80469 München, Germany"}
{"timestamp":"2016-10-01T15:00:00+0200","id":124021,"name":"Xaver","coordinate":{"longitude":11.58080006,"latitude":48.13180161},"fuelLevel":0.52,"lastAddress":"Kohlstraße 5, 80469 München, Germany"}
{"timestamp":"2016-10-01T15:00:00+0200","id":124014,"name":"Quirin","coordinate":{"longitude":11.6072998,"latitude":48.13069916},"fuelLevel":0.9099999999999999,"lastAddress":"Orleansstraße 69, 81667 München, Germany"}
{"timestamp":"2016-10-01T15:00:00+0200","id":124034,"name":"Kathi","coordinate":{"longitude":11.60470009,"latitude":48.13249969},"fuelLevel":0.67,"lastAddress":"Elsässer Str. 6, 81667 München, Germany"}
{"timestamp":"2016-10-01T15:00:00+0200","id":124023,"name":"Babsi","coordinate":{"longitude":11.56359959,"latitude":48.12720108},"fuelLevel":0.93,"lastAddress":"Thalkirchner Str. 54, 80337 München, Germany"}
{"timestamp":"2016-10-01T15:00:00+0200","id":124016,"name":"Sepp","coordinate":{"longitude":11.59819984,"latitude":48.12590027},"fuelLevel":0.9199999999999999,"lastAddress":"Rosenheimer Str. 133, 81667 München, Germany"}
{"timestamp":"2016-10-01T15:00:00+0200","id":124022,"name":"Anne","coordinate":{"longitude":11.59679985,"latitude":48.12659836},"fuelLevel":0.8900000000000001,"lastAddress":"Rosenheimer Str. 90, 81669 München, Germany"}
{"timestamp":"2016-10-01T15:00:00+0200","id":124013,"name":"Poldi","coordinate":{"longitude":11.59500027,"latitude":48.12789917},"fuelLevel":0.79,"lastAddress":"Metzstraße 1, 81667 München, Germany"}
{"timestamp":"2016-10-01T15:00:00+0200","id":124011,"name":"Maxl","coordinate":{"longitude":11.59259987,"latitude":48.12609863},"fuelLevel":0.8099999999999999,"lastAddress":"Sieboldstraße 2, 81669 München, Germany"}
{"timestamp":"2016-10-01T15:00:00+0200","id":124003,"name":"Franzl","coordinate":{"longitude":11.59290028,"latitude":48.12749863},"fuelLevel":0.79,"lastAddress":"Franziskanerstraße 8, 81669 München, Germany"}
{"timestamp":"2016-10-01T15:00:00+0200","id":124010,"name":"Luitpold","coordinate":{"longitude":11.58600044,"latitude":48.12609863},"fuelLevel":0.88,"lastAddress":"Quellenstraße 44, 81669 München, Germany"}
{"timestamp":"2016-10-01T15:00:00+0200","id":124019,"name":"Valentin","coordinate":{"longitude":11.5848999,"latitude":48.12350082},"fuelLevel":0.9199999999999999,"lastAddress":"Hochstraße 49C, 81541 München, Germany"}
{"timestamp":"2016-10-01T15:00:00+0200","id":124035,"name":"Leonie","coordinate":{"longitude":11.58570004,"latitude":48.12919998},"fuelLevel":0.7899999999999999,"lastAddress":"Schwarzstraße 2, 81669 München, Germany"}
{"timestamp":"2016-10-01T15:00:00+0200","id":124006,"name":"Gustl","coordinate":{"longitude":11.57750034,"latitude":48.12099838},"fuelLevel":0.9400000000000001,"lastAddress":"Falkenstraße 44, 81541 München, Germany"}
{"timestamp":"2016-10-01T15:00:00+0200","id":124020,"name":"Vinzenz","coordinate":{"longitude":11.57900047,"latitude":48.12360001},"fuelLevel":0.9099999999999999,"lastAddress":"Entenbachstrasse 15, Entenbachstraße, 81541 München, Germany"}
{"timestamp":"2016-10-01T15:00:00+0200","id":124049,"name":"Marei","coordinate":{"longitude":11.57419968,"latitude":48.11989975},"fuelLevel":0.7200000000000001,"lastAddress":"Humboldtstraße 24, 81543 München, Germany"}
{"timestamp":"2016-10-01T15:00:00+0200","id":124045,"name":"Vroni","coordinate":{"longitude":11.56750011,"latitude":48.12739944},"fuelLevel":0.9199999999999999,"lastAddress":"Holzstraße 45, 80469 München, Germany"}
{"timestamp":"2016-10-01T15:00:00+0200","id":124018,"name":"Toni","coordinate":{"longitude":11.57269955,"latitude":48.12979889},"fuelLevel":0.9299999999999999,"lastAddress":"Klenzestraße 46A, 80469 München, Germany"}
{"timestamp":"2016-10-01T15:00:00+0200","id":124012,"name":"Peter","coordinate":{"longitude":11.57229996,"latitude":48.14979935},"fuelLevel":1,"lastAddress":"Barer Str. 29, 80799 München, Germany"}
{"timestamp":"2016-10-01T15:00:00+0200","id":124004,"name":"Fridl","coordinate":{"longitude":11.56639957,"latitude":48.15620041},"fuelLevel":0.55,"lastAddress":"Josephspl. 6, 80798 München, Germany"}
{"timestamp":"2016-10-01T15:00:00+0200","id":124031,"name":"Heidi","coordinate":{"longitude":11.56659985,"latitude":48.15000153},"fuelLevel":0.8,"lastAddress":"Luisenstraße 55, 80333 München, Germany"}
{"timestamp":"2016-10-01T15:00:00+0200","id":124002,"name":"Ferdl","coordinate":{"longitude":11.5642004,"latitude":48.15100098},"fuelLevel":0.9500000000000001,"lastAddress":"Augustenstraße 84, 80333 München, Germany"}
{"timestamp":"2016-10-01T15:00:00+0200","id":124048,"name":"Wiggerl","coordinate":{"longitude":11.57719994,"latitude":48.15930176},"fuelLevel":0.7200000000000001,"lastAddress":"Römerstraße 9, 80801 München, Germany"}
{"timestamp":"2016-10-01T15:00:00+0200","id":124028,"name":"Gitte","coordinate":{"longitude":11.57999992,"latitude":48.15999985},"fuelLevel":0.77,"lastAddress":"Hohenzollernstraße 44, 80801 München, Germany"}
{"timestamp":"2016-10-01T15:00:00+0200","id":124027,"name":"Fanni","coordinate":{"longitude":11.57750034,"latitude":48.1595993},"fuelLevel":0.8099999999999999,"lastAddress":"Römerstraße 14, 80801 München, Germany"}
{"timestamp":"2016-10-01T15:00:00+0200","id":124005,"name":"Georg","coordinate":{"longitude":11.58119965,"latitude":48.15890121},"fuelLevel":0.69,"lastAddress":"Ainmillerstraße 20, 80801 München, Germany"}
{"timestamp":"2016-10-01T15:00:00+0200","id":124001,"name":"Edmund","coordinate":{"longitude":11.57830048,"latitude":48.15769958},"fuelLevel":0.62,"lastAddress":"Franz-Joseph-Straße 33, 80801 München, Germany"}
{"timestamp":"2016-10-01T15:00:00+0200","id":124032,"name":"Irmi","coordinate":{"longitude":11.57320023,"latitude":48.16040039},"fuelLevel":0.64,"lastAddress":"Isabellastraße 49, 80796 München, Germany"}
{"timestamp":"2016-10-01T15:00:00+0200","id":124017,"name":"Siggi","coordinate":{"longitude":11.57139969,"latitude":48.16049957},"fuelLevel":0.56,"lastAddress":"Hohenzollernstraße 77, 80796 München, Germany"}
{"timestamp":"2016-10-01T15:00:00+0200","id":124029,"name":"Hannah","coordinate":{"longitude":11.51010036,"latitude":48.04510117},"fuelLevel":0.71,"lastAddress":"Seitnerstraße 70, 82049 Pullach im Isartal, Germany"}
{"timestamp":"2016-10-01T15:00:00+0200","id":124042,"name":"Tilli","coordinate":{"longitude":11.50979996,"latitude":48.04529953},"fuelLevel":0.77,"lastAddress":"Seitnerstraße 70, 82049 Pullach im Isartal, Germany"}
{"timestamp":"2016-10-01T15:00:00+0200","id":124008,"name":"Johann","coordinate":{"longitude":11.50959969,"latitude":48.04539871},"fuelLevel":0.87,"lastAddress":"Seitnerstraße 70, 82049 Pullach im Isartal, Germany"}
{"timestamp":"2016-10-01T15:00:00+0200","id":124009,"name":"Ludwig","coordinate":{"longitude":11.58500004,"latitude":48.16220093},"fuelLevel":0.8999999999999999,"lastAddress":"Herzogstraße 2, 80803 München, Germany"}
{"timestamp":"2016-10-01T15:00:00+0200","id":124007,"name":"Jakob","coordinate":{"longitude":11.5862999,"latitude":48.16379929},"fuelLevel":0.9500000000000001,"lastAddress":"Leopoldstraße 85, 80802 München, Germany"}