{"timestamp":"2016-09-27T11:20:00+0200","id":124041,"name":"Sophie","coordinate":{"longitude":11.5777998,"latitude":48.14979935},"fuelLevel":0.93,"lastAddress":"Schellingstraße 16, 80799 München, Germany"}
{"timestamp":"2016-09-27T11:20:00+0200","id":124026,"name":"Eva","coordinate":{"longitude":11.57839966,"latitude":48.15380096},"fuelLevel":0.61,"lastAddress":"Türkenstraße 104, 80799 München, Germany"}
{"timestamp":"2016-09-27T11:20:00+0200","id":124025,"name":"Elli","coordinate":{"longitude":11.5781002,"latitude":48.15309906},"fuelLevel":0.85,"lastAddress":"Akademiestraße 4-25, 80799 München, Germany"}
{"timestamp":"2016-09-27T11:20:00+0200","id":124033,"name":"Johanna","coordinate":{"longitude":11.5781002,"latitude":48.15370178},"fuelLevel":0.89,"lastAddress":"Rambergstraße 3, 80799 München, Germany"}
{"timestamp":"2016-09-27T11:20:00+0200","id":124036,"name":"Liesel","coordinate":{"longitude":11.57509995,"latitude":48.15639877},"fuelLevel":0.6699999999999999,"lastAddress":"Nordendstraße 29, 80801 München, Germany"}
{"timestamp":"2016-09-27T11:20:00+0200","id":124044,"name":"Uschi","coordinate":{"longitude":11.57579994,"latitude":48.13010025},"fuelLevel":0.51,"lastAddress":"Reichenbachstraße 24, 80469 München, Germany"}
{"timestamp":"2016-09-27T11:20:00+0200","id":124024,"name":"Christl","coordinate":{"longitude":11.58040047,"latitude":48.13230133},"fuelLevel":0.83,"lastAddress":"Baaderstraße 9C, 80469 München, Germany"}
{"timestamp":"2016-09-27T11:20:00+0200","id":124014,"name":"Quirin","coordinate":{"longitude":11.60350037,"latitude":48.13349915},"fuelLevel":0.62,"lastAddress":"Kirchenstraße 37, 81675 München, Germany"}
{"timestamp":"2016-09-27T11:20:00+0200","id":124034,"name":"Kathi","coordinate":{"longitude":11.60490036,"latitude":48.13240051},"fuelLevel":0.67,"lastAddress":"Elsässer Str. 6, 81667 München, Germany"}
{"timestamp":"2016-09-27T11:20:00+0200","id":124030,"name":"Hedwig","coordinate":{"longitude":11.56289959,"latitude":48.12680054},"fuelLevel":0.9099999999999999,"lastAddress":"Thalkirchner Str. 66-68, 80337 München, Germany"}
{"timestamp":"2016-09-27T11:20:00+0200","id":124000,"name":"Bertl","coordinate":{"longitude":11.59449959,"latitude":48.12950134},"fuelLevel":0.8500000000000001,"lastAddress":"Steinstraße 70, 81667 München, Germany"}
{"timestamp":"2016-09-27T11:20:00+0200","id":124013,"name":"Poldi","coordinate":{"longitude":11.5948,"latitude":48.12689972},"fuelLevel":0.83,"lastAddress":"Balanstraße 14, 81669 München, Germany"}
{"timestamp":"2016-09-27T11:20:00+0200","id":124011,"name":"Maxl","coordinate":{"longitude":11.59280014,"latitude":48.12559891},"fuelLevel":0.8099999999999999,"lastAddress":"Sieboldstraße 2, 81669 München, Germany"}
{"timestamp":"2016-09-27T11:20:00+0200","id":124003,"name":"Franzl","coordinate":{"longitude":11.58950043,"latitude":48.12519836},"fuelLevel":0.88,"lastAddress":"Franziskanerstraße 36, 81669 München, Germany"}
{"timestamp":"2016-09-27T11:20:00+0200","id":124010,"name":"Luitpold","coordinate":{"longitude":11.58600044,"latitude":48.12580109},"fuelLevel":0.88,"lastAddress":"Gebsattelstraße 2, 81541 München, Germany"}
{"timestamp":"2016-09-27T11:20:00+0200","id":124019,"name":"Valentin","coordinate":{"longitude":11.58500004,"latitude":48.12360001},"fuelLevel":0.9199999999999999,"lastAddress":"Hochstraße 49C, 81541 München, Germany"}
{"timestamp":"2016-09-27T11:20:00+0200","id":124035,"name":"Leonie","coordinate":{"longitude":11.5848999,"latitude":48.12889862},"fuelLevel":0.7899999999999999,"lastAddress":"Zeppelinstraße 57, 81669 München, Germany"}
{"timestamp":"2016-09-27T11:20:00+0200","id":124006,"name":"Gustl","coordinate":{"longitude":11.57740021,"latitude":48.12080002},"fuelLevel":0.93,"lastAddress":"Falkenstraße 46, 81541 München, Germany"}
{"timestamp":"2016-09-27T11:20:00+0200","id":124049,"name":"Marei","coordinate":{"longitude":11.57400036,"latitude":48.12020111},"fuelLevel":0.7200000000000001,"lastAddress":"Oefelestraße 12, 81543 München, Germany"}
{"timestamp":"2016-09-27T11:20:00+0200","id":124045,"name":"Vroni","coordinate":{"longitude":11.56729984,"latitude":48.12779999},"fuelLevel":0.9199999999999999,"lastAddress":"Pestalozzistraße 54, 80469 München, Germany"}
{"timestamp":"2016-09-27T11:20:00+0200","id":124018,"name":"Toni","coordinate":{"longitude":11.56900024,"latitude":48.12630081},"fuelLevel":0.9500000000000001,"lastAddress":"Baumstraße 21, 80469 München, Germany"}
{"timestamp":"2016-09-27T11:20:00+0200","id":124012,"name":"Peter","coordinate":{"longitude":11.57229996,"latitude":48.14979935},"fuelLevel":1,"lastAddress":"Barer Str. 29, 80799 München, Germany"}
{"timestamp":"2016-09-27T11:20:00+0200","id":124031,"name":"Heidi","coordinate":{"longitude":11.56639957,"latitude":48.14839935},"fuelLevel":0.8500000000000001,"lastAddress":"Gabelsbergerstraße 51, 80333 München, Germany"}
{"timestamp":"2016-09-27T11:20:00+0200","id":124002,"name":"Ferdl","coordinate":{"longitude":11.5642004,"latitude":48.15029907},"fuelLevel":0.61,"lastAddress":"Augustenstraße 76, 80333 München, Germany"}
{"timestamp":"2016-09-27T11:20:00+0200","id":124048,"name":"Wiggerl","coordinate":{"longitude":11.57719994,"latitude":48.15909958},"fuelLevel":0.7200000000000001,"lastAddress":"Römerstraße 10, 80801 München, Germany"}
{"timestamp":"2016-09-27T11:20:00+0200","id":124028,"name":"Gitte","coordinate":{"longitude":11.58049965,"latitude":48.15810013},"fuelLevel":0.81,"lastAddress":"Habsburgerpl. 2, 80801 München, Germany"}
{"timestamp":"2016-09-27T11:20:00+0200","id":124027,"name":"Fanni","coordinate":{"longitude":11.57719994,"latitude":48.1590004},"fuelLevel":0.85,"lastAddress":"Römerstraße 6, 80801 München, Germany"}
{"timestamp":"2016-09-27T11:20:00+0200","id":124005,"name":"Georg","coordinate":{"longitude":11.58119965,"latitude":48.15919876},"fuelLevel":0.69,"lastAddress":"Ainmillerstraße 22, 80801 München, Germany"}
{"timestamp":"2016-09-27T11:20:00+0200","id":124032,"name":"Irmi","coordinate":{"longitude":11.57310009,"latitude":48.16019821},"fuelLevel":0.64,"lastAddress":"Isabellastraße 49, 80796 München, Germany"}
{"timestamp":"2016-09-27T11:20:00+0200","id":124017,"name":"Siggi","coordinate":{"longitude":11.57079983,"latitude":48.16070175},"fuelLevel":0.56,"lastAddress":"Hohenzollernstraße 81, 80796 München, Germany"}
{"timestamp":"2016-09-27T11:20:00+0200","id":124029,"name":"Hannah","coordinate":{"longitude":11.51010036,"latitude":48.04529953},"fuelLevel":0.7,"lastAddress":"Gistlstraße 159, 82049 Pullach im Isartal, Germany"}
{"timestamp":"2016-09-27T11:20:00+0200","id":124042,"name":"Tilli","coordinate":{"longitude":11.50930023,"latitude":48.04570007},"fuelLevel":0.84,"lastAddress":"Franz-Höllriegel-Straße, 82049 Pullach im Isartal, Germany"}
{"timestamp":"2016-09-27T11:20:00+0200","id":124039,"name":"Marie","coordinate":{"longitude":11.50969982,"latitude":48.04560089},"fuelLevel":0.89,"lastAddress":"Seitnerstraße 70, 82049 Pullach im Isartal, Germany"}
{"timestamp":"2016-09-27T11:20:00+0200","id":124009,"name":"Ludwig","coordinate":{"longitude":11.57800007,"latitude":48.16419983},"fuelLevel":0.9400000000000001,"lastAddress":"Cherubinistraße 3, 80803 München, Germany"}
{"timestamp":"2016-09-27T11:20:00+0200","id":124007,"name":"Jakob","coordinate":{"longitude":11.58640003,"latitude":48.16400146},"fuelLevel":0.9500000000000001,"lastAddress":"Leopoldstraße 87, 80802 München, Germany"}