{"timestamp":"2016-10-01T15:40:00+0200","id":124041,"name":"Sophie","coordinate":{"longitude":11.57750034,"latitude":48.14970016},"fuelLevel":0.93,"lastAddress":"Schellingstraße 11, 80799 München, Germany"}
{"timestamp":"2016-10-01T15:40:00+0200","id":124026,"name":"Eva","coordinate":{"longitude":11.5781002,"latitude":48.15359879},"fuelLevel":0.61,"lastAddress":"Türkenstraße 95, 80799 München, Germany"}
{"timestamp":"2016-10-01T15:40:00+0200","id":124025,"name":"Elli","coordinate":{"longitude":11.57610035,"latitude":48.15520096},"fuelLevel":0.77,"lastAddress":"Kurfürstenstraße 21, 80801 München, Germany"}
{"timestamp":"2016-10-01T15:40:00+0200","id":124033,"name":"Johanna","coordinate":{"longitude":11.58110046,"latitude":48.15250015},"fuelLevel":0.88,"lastAddress":"Akademiestraße 5, 80799 München, Germany"}
{"timestamp":"2016-10-01T15:40:00+0200","id":124036,"name":"Liesel","coordinate":{"longitude":11.57559967,"latitude":48.15639877},"fuelLevel":0.6699999999999999,"lastAddress":"Kurfürstenstraße 33, 80801 München, Germany"}
{"timestamp":"2016-10-01T15:40:00+0200","id":124024,"name":"Christl","coordinate":{"longitude":11.57929993,"latitude":48.13389969},"fuelLevel":0.8,"lastAddress":"Rumfordstraße 30, 80469 München, Germany"}
{"timestamp":"2016-10-01T15:40:00+0200","id":124021,"name":"Xaver","coordinate":{"longitude":11.58090019,"latitude":48.13180161},"fuelLevel":0.52,"lastAddress":"Kohlstraße 5, 80469 München, Germany"}
{"timestamp":"2016-10-01T15:40:00+0200","id":124014,"name":"Quirin","coordinate":{"longitude":11.6072998,"latitude":48.13079834},"fuelLevel":0.9099999999999999,"lastAddress":"Spicherenstraße 14, 81667 München, Germany"}
{"timestamp":"2016-10-01T15:40:00+0200","id":124034,"name":"Kathi","coordinate":{"longitude":11.60470009,"latitude":48.13249969},"fuelLevel":0.67,"lastAddress":"Elsässer Str. 6, 81667 München, Germany"}
{"timestamp":"2016-10-01T15:40:00+0200","id":124023,"name":"Babsi","coordinate":{"longitude":11.56359959,"latitude":48.12720108},"fuelLevel":0.93,"lastAddress":"Thalkirchner Str. 54, 80337 München, Germany"}
{"timestamp":"2016-10-01T15:40:00+0200","id":124016,"name":"Sepp","coordinate":{"longitude":11.59799957,"latitude":48.1257019},"fuelLevel":0.9199999999999999,"lastAddress":"Bazeillesstraße 3, 81669 München, Germany"}
{"timestamp":"2016-10-01T15:40:00+0200","id":124022,"name":"Anne","coordinate":{"longitude":11.59669971,"latitude":48.12680054},"fuelLevel":0.8900000000000001,"lastAddress":"Rosenheimer Str. 88, 81669 München, Germany"}
{"timestamp":"2016-10-01T15:40:00+0200","id":124000,"name":"Bertl","coordinate":{"longitude":11.59689999,"latitude":48.12969971},"fuelLevel":0.82,"lastAddress":"Kellerstraße 39, 81667 München, Germany"}
{"timestamp":"2016-10-01T15:40:00+0200","id":124013,"name":"Poldi","coordinate":{"longitude":11.59500027,"latitude":48.12789917},"fuelLevel":0.79,"lastAddress":"Metzstraße 1, 81667 München, Germany"}
{"timestamp":"2016-10-01T15:40:00+0200","id":124011,"name":"Maxl","coordinate":{"longitude":11.59309959,"latitude":48.12590027},"fuelLevel":0.8099999999999999,"lastAddress":"Sieboldstraße 5, 81669 München, Germany"}
{"timestamp":"2016-10-01T15:40:00+0200","id":124003,"name":"Franzl","coordinate":{"longitude":11.59319973,"latitude":48.12749863},"fuelLevel":0.79,"lastAddress":"Franziskanerstraße 13, 81669 München, Germany"}
{"timestamp":"2016-10-01T15:40:00+0200","id":124010,"name":"Luitpold","coordinate":{"longitude":11.58570004,"latitude":48.12580109},"fuelLevel":0.88,"lastAddress":"Gebsattelstraße 2, 81541 München, Germany"}
{"timestamp":"2016-10-01T15:40:00+0200","id":124019,"name":"Valentin","coordinate":{"longitude":11.58510017,"latitude":48.12350082},"fuelLevel":0.9199999999999999,"lastAddress":"Hochstraße 49C, 81541 München, Germany"}
{"timestamp":"2016-10-01T15:40:00+0200","id":124035,"name":"Leonie","coordinate":{"longitude":11.58570004,"latitude":48.12919998},"fuelLevel":0.7899999999999999,"lastAddress":"Schwarzstraße 2, 81669 München, Germany"}
{"timestamp":"2016-10-01T15:40:00+0200","id":124006,"name":"Gustl","coordinate":{"longitude":11.57789993,"latitude":48.12099838},"fuelLevel":0.9400000000000001,"lastAddress":"Falkenstraße 43, 81541 München, Germany"}
{"timestamp":"2016-10-01T15:40:00+0200","id":124020,"name":"Vinzenz","coordinate":{"longitude":11.57900047,"latitude":48.12360001},"fuelLevel":0.9099999999999999,"lastAddress":"Entenbachstrasse 15, Entenbachstraße, 81541 München, Germany"}
{"timestamp":"2016-10-01T15:40:00+0200","id":124049,"name":"Marei","coordinate":{"longitude":11.57369995,"latitude":48.12009811},"fuelLevel":0.7200000000000001,"lastAddress":"Humboldtstraße 20, 81543 München, Germany"}
{"timestamp":"2016-10-01T15:40:00+0200","id":124045,"name":"Vroni","coordinate":{"longitude":11.56739998,"latitude":48.12749863},"fuelLevel":0.9199999999999999,"lastAddress":"Holzstraße 45, 80469 München, Germany"}
{"timestamp":"2016-10-01T15:40:00+0200","id":124018,"name":"Toni","coordinate":{"longitude":11.57279968,"latitude":48.12960052},"fuelLevel":0.9299999999999999,"lastAddress":"Klenzestraße 55, 80469 München, Germany"}
{"timestamp":"2016-10-01T15:40:00+0200","id":124012,"name":"Peter","coordinate":{"longitude":11.57229996,"latitude":48.14979935},"fuelLevel":1,"lastAddress":"Barer Str. 29, 80799 München, Germany"}
{"timestamp":"2016-10-01T15:40:00+0200","id":124004,"name":"Fridl","coordinate":{"longitude":11.56599998,"latitude":48.15650177},"fuelLevel":0.55,"lastAddress":"Hiltenspergerstraße 6, 80798 München, Germany"}
{"timestamp":"2016-10-01T15:40:00+0200","id":124031,"name":"Heidi","coordinate":{"longitude":11.56659985,"latitude":48.15029907},"fuelLevel":0.8,"lastAddress":"Theresienstraße 43, 80333 München, Germany"}
{"timestamp":"2016-10-01T15:40:00+0200","id":124002,"name":"Ferdl","coordinate":{"longitude":11.56400013,"latitude":48.1507988},"fuelLevel":0.9500000000000001,"lastAddress":"Augustenstraße 83, 80333 München, Germany"}
{"timestamp":"2016-10-01T15:40:00+0200","id":124048,"name":"Wiggerl","coordinate":{"longitude":11.5770998,"latitude":48.15909958},"fuelLevel":0.7200000000000001,"lastAddress":"Ainmillerstraße 44, 80801 München, Germany"}
{"timestamp":"2016-10-01T15:40:00+0200","id":124028,"name":"Gitte","coordinate":{"longitude":11.57999992,"latitude":48.15999985},"fuelLevel":0.77,"lastAddress":"Hohenzollernstraße 44, 80801 München, Germany"}
{"timestamp":"2016-10-01T15:40:00+0200","id":124027,"name":"Fanni","coordinate":{"longitude":11.57719994,"latitude":48.15980148},"fuelLevel":0.8099999999999999,"lastAddress":"Römerstraße 17, 80801 München, Germany"}
{"timestamp":"2016-10-01T15:40:00+0200","id":124005,"name":"Georg","coordinate":{"longitude":11.58119965,"latitude":48.15890121},"fuelLevel":0.69,"lastAddress":"Ainmillerstraße 20, 80801 München, Germany"}
{"timestamp":"2016-10-01T15:40:00+0200","id":124001,"name":"Edmund","coordinate":{"longitude":11.57830048,"latitude":48.15769958},"fuelLevel":0.62,"lastAddress":"Franz-Joseph-Straße 33, 80801 München, Germany"}
{"timestamp":"2016-10-01T15:40:00+0200","id":124032,"name":"Irmi","coordinate":{"longitude":11.57320023,"latitude":48.16040039},"fuelLevel":0.64,"lastAddress":"Isabellastraße 49, 80796 München, Germany"}
{"timestamp":"2016-10-01T15:40:00+0200","id":124017,"name":"Siggi","coordinate":{"longitude":11.57110023,"latitude":48.1609993},"fuelLevel":0.56,"lastAddress":"Hohenzollernstraße 112, 80796 München, Germany"}
{"timestamp":"2016-10-01T15:40:00+0200","id":124029,"name":"Hannah","coordinate":{"longitude":11.51010036,"latitude":48.04510117},"fuelLevel":0.71,"lastAddress":"Seitnerstraße 70, 82049 Pullach im Isartal, Germany"}
{"timestamp":"2016-10-01T15:40:00+0200","id":124042,"name":"Tilli","coordinate":{"longitude":11.50979996,"latitude":48.04529953},"fuelLevel":0.77,"lastAddress":"Seitnerstraße 70, 82049 Pullach im Isartal, Germany"}
{"timestamp":"2016-10-01T15:40:00+0200","id":124008,"name":"Johann","coordinate":{"longitude":11.50979996,"latitude":48.04539871},"fuelLevel":0.87,"lastAddress":"Seitnerstraße 70, 82049 Pullach im Isartal, Germany"}
{"timestamp":"2016-10-01T15:40:00+0200","id":124009,"name":"Ludwig","coordinate":{"longitude":11.58500004,"latitude":48.16230011},"fuelLevel":0.8999999999999999,"lastAddress":"Herzogstraße 2, 80803 München, Germany"}
{"timestamp":"2016-10-01T15:40:00+0200","id":124007,"name":"Jakob","coordinate":{"longitude":11.58650017,"latitude":48.16379929},"fuelLevel":0.9500000000000001,"lastAddress":"Leopoldstraße 85, 80802 München, Germany"}