{"timestamp":"2016-09-27T04:40:00+0200","id":124041,"name":"Sophie","coordinate":{"longitude":11.57830048,"latitude":48.14970016},"fuelLevel":0.93,"lastAddress":"Schellingstraße 14, 80799 München, Germany"}
{"timestamp":"2016-09-27T04:40:00+0200","id":124026,"name":"Eva","coordinate":{"longitude":11.5781002,"latitude":48.15380096},"fuelLevel":0.61,"lastAddress":"Rambergstraße 4, 80799 München, Germany"}
{"timestamp":"2016-09-27T04:40:00+0200","id":124025,"name":"Elli","coordinate":{"longitude":11.57800007,"latitude":48.15319824},"fuelLevel":0.85,"lastAddress":"Türkenstraße 93, 80799 München, Germany"}
{"timestamp":"2016-09-27T04:40:00+0200","id":124033,"name":"Johanna","coordinate":{"longitude":11.5781002,"latitude":48.15370178},"fuelLevel":0.89,"lastAddress":"Rambergstraße 3, 80799 München, Germany"}
{"timestamp":"2016-09-27T04:40:00+0200","id":124036,"name":"Liesel","coordinate":{"longitude":11.57520008,"latitude":48.15639877},"fuelLevel":0.6699999999999999,"lastAddress":"Nordendstraße 38, 80801 München, Germany"}
{"timestamp":"2016-09-27T04:40:00+0200","id":124044,"name":"Uschi","coordinate":{"longitude":11.57559967,"latitude":48.13010025},"fuelLevel":0.51,"lastAddress":"Reichenbachstraße 24, 80469 München, Germany"}
{"timestamp":"2016-09-27T04:40:00+0200","id":124024,"name":"Christl","coordinate":{"longitude":11.58040047,"latitude":48.13209915},"fuelLevel":0.83,"lastAddress":"Baaderpl. 2, 80469 München, Germany"}
{"timestamp":"2016-09-27T04:40:00+0200","id":124021,"name":"Xaver","coordinate":{"longitude":11.58049965,"latitude":48.13190079},"fuelLevel":0.52,"lastAddress":"Kohlstraße 4, 80469 München, Germany"}
{"timestamp":"2016-09-27T04:40:00+0200","id":124014,"name":"Quirin","coordinate":{"longitude":11.60350037,"latitude":48.13339996},"fuelLevel":0.63,"lastAddress":"Kirchenstraße 37, 81675 München, Germany"}
{"timestamp":"2016-09-27T04:40:00+0200","id":124034,"name":"Kathi","coordinate":{"longitude":11.60509968,"latitude":48.13240051},"fuelLevel":0.67,"lastAddress":"Elsässer Str. 4, 81667 München, Germany"}
{"timestamp":"2016-09-27T04:40:00+0200","id":124030,"name":"Hedwig","coordinate":{"longitude":11.56280041,"latitude":48.12680054},"fuelLevel":0.9099999999999999,"lastAddress":"Thalkirchner Str. 66-68, 80337 München, Germany"}
{"timestamp":"2016-09-27T04:40:00+0200","id":124023,"name":"Babsi","coordinate":{"longitude":11.5635004,"latitude":48.12720108},"fuelLevel":0.93,"lastAddress":"Thalkirchner Str. 54, 80337 München, Germany"}
{"timestamp":"2016-09-27T04:40:00+0200","id":124016,"name":"Sepp","coordinate":{"longitude":11.59829998,"latitude":48.12580109},"fuelLevel":0.9199999999999999,"lastAddress":"Rosenheimer Str. 100, 81669 München, Germany"}
{"timestamp":"2016-09-27T04:40:00+0200","id":124038,"name":"Magda","coordinate":{"longitude":11.6001997,"latitude":48.12860107},"fuelLevel":0.76,"lastAddress":"Sedanstraße 39, 81667 München, Germany"}
{"timestamp":"2016-09-27T04:40:00+0200","id":124022,"name":"Anne","coordinate":{"longitude":11.59700012,"latitude":48.12659836},"fuelLevel":0.8900000000000001,"lastAddress":"Rosenheimer Str. 90, 81669 München, Germany"}
{"timestamp":"2016-09-27T04:40:00+0200","id":124000,"name":"Bertl","coordinate":{"longitude":11.5948,"latitude":48.12939835},"fuelLevel":0.8500000000000001,"lastAddress":"Steinstraße 79A, 81667 München, Germany"}
{"timestamp":"2016-09-27T04:40:00+0200","id":124013,"name":"Poldi","coordinate":{"longitude":11.5948,"latitude":48.12680054},"fuelLevel":0.83,"lastAddress":"Balanstraße 16, 81669 München, Germany"}
{"timestamp":"2016-09-27T04:40:00+0200","id":124011,"name":"Maxl","coordinate":{"longitude":11.59210014,"latitude":48.12580109},"fuelLevel":0.8099999999999999,"lastAddress":"Franziskanerstraße 16, 81669 München, Germany"}
{"timestamp":"2016-09-27T04:40:00+0200","id":124003,"name":"Franzl","coordinate":{"longitude":11.58959961,"latitude":48.12519836},"fuelLevel":0.88,"lastAddress":"Franziskanerstraße 34, 81669 München, Germany"}
{"timestamp":"2016-09-27T04:40:00+0200","id":124010,"name":"Luitpold","coordinate":{"longitude":11.5862999,"latitude":48.12590027},"fuelLevel":0.88,"lastAddress":"Hochstraße 33, 81541 München, Germany"}
{"timestamp":"2016-09-27T04:40:00+0200","id":124019,"name":"Valentin","coordinate":{"longitude":11.58500004,"latitude":48.12350082},"fuelLevel":0.9199999999999999,"lastAddress":"Hochstraße 49C, 81541 München, Germany"}
{"timestamp":"2016-09-27T04:40:00+0200","id":124035,"name":"Leonie","coordinate":{"longitude":11.58580017,"latitude":48.1291008},"fuelLevel":0.7899999999999999,"lastAddress":"Schwarzstraße 4, 81669 München, Germany"}
{"timestamp":"2016-09-27T04:40:00+0200","id":124006,"name":"Gustl","coordinate":{"longitude":11.57800007,"latitude":48.12110138},"fuelLevel":0.93,"lastAddress":"Falkenstraße 43, 81541 München, Germany"}
{"timestamp":"2016-09-27T04:40:00+0200","id":124020,"name":"Vinzenz","coordinate":{"longitude":11.57960033,"latitude":48.1230011},"fuelLevel":0.9299999999999999,"lastAddress":"Falkenstraße 18, 81541 München, Germany"}
{"timestamp":"2016-09-27T04:40:00+0200","id":124049,"name":"Marei","coordinate":{"longitude":11.57400036,"latitude":48.11999893},"fuelLevel":0.7200000000000001,"lastAddress":"Humboldtstraße 22, 81543 München, Germany"}
{"timestamp":"2016-09-27T04:40:00+0200","id":124045,"name":"Vroni","coordinate":{"longitude":11.56760025,"latitude":48.12760162},"fuelLevel":0.9199999999999999,"lastAddress":"Holzstraße 43, 80469 München, Germany"}
{"timestamp":"2016-09-27T04:40:00+0200","id":124043,"name":"Traudl","coordinate":{"longitude":11.57450008,"latitude":48.12820053},"fuelLevel":0.71,"lastAddress":"Baaderstraße 86, 80469 München, Germany"}
{"timestamp":"2016-09-27T04:40:00+0200","id":124018,"name":"Toni","coordinate":{"longitude":11.56910038,"latitude":48.12649918},"fuelLevel":0.9500000000000001,"lastAddress":"Baumstraße 18, 80469 München, Germany"}
{"timestamp":"2016-09-27T04:40:00+0200","id":124012,"name":"Peter","coordinate":{"longitude":11.57229996,"latitude":48.15000153},"fuelLevel":1,"lastAddress":"Heßstraße 2, 80799 München, Germany"}
{"timestamp":"2016-09-27T04:40:00+0200","id":124004,"name":"Fridl","coordinate":{"longitude":11.56579971,"latitude":48.15599823},"fuelLevel":0.7799999999999999,"lastAddress":"Josephspl. 5, 80798 München, Germany"}
{"timestamp":"2016-09-27T04:40:00+0200","id":124031,"name":"Heidi","coordinate":{"longitude":11.56610012,"latitude":48.14810181},"fuelLevel":0.8500000000000001,"lastAddress":"Gabelsbergerstraße 53, 80333 München, Germany"}
{"timestamp":"2016-09-27T04:40:00+0200","id":124047,"name":"Walli","coordinate":{"longitude":11.57120037,"latitude":48.15639877},"fuelLevel":0.8999999999999999,"lastAddress":"Georgenstraße 82, 80799 München, Germany"}
{"timestamp":"2016-09-27T04:40:00+0200","id":124002,"name":"Ferdl","coordinate":{"longitude":11.56410027,"latitude":48.15060043},"fuelLevel":0.61,"lastAddress":"Augustenstraße 80, 80333 München, Germany"}
{"timestamp":"2016-09-27T04:40:00+0200","id":124048,"name":"Wiggerl","coordinate":{"longitude":11.57699966,"latitude":48.15930176},"fuelLevel":0.7200000000000001,"lastAddress":"Römerstraße 9, 80801 München, Germany"}
{"timestamp":"2016-09-27T04:40:00+0200","id":124028,"name":"Gitte","coordinate":{"longitude":11.58090019,"latitude":48.15790176},"fuelLevel":0.81,"lastAddress":"Franz-Joseph-Straße 18, 80801 München, Germany"}
{"timestamp":"2016-09-27T04:40:00+0200","id":124027,"name":"Fanni","coordinate":{"longitude":11.57719994,"latitude":48.15919876},"fuelLevel":0.85,"lastAddress":"Römerstraße 9, 80801 München, Germany"}
{"timestamp":"2016-09-27T04:40:00+0200","id":124005,"name":"Georg","coordinate":{"longitude":11.58139992,"latitude":48.15869904},"fuelLevel":0.69,"lastAddress":"Ainmillerstraße 15, 80801 München, Germany"}
{"timestamp":"2016-09-27T04:40:00+0200","id":124032,"name":"Irmi","coordinate":{"longitude":11.57260036,"latitude":48.16019821},"fuelLevel":0.64,"lastAddress":"Hohenzollernstraße 67, 80796 München, Germany"}
{"timestamp":"2016-09-27T04:40:00+0200","id":124017,"name":"Siggi","coordinate":{"longitude":11.57089996,"latitude":48.16080093},"fuelLevel":0.56,"lastAddress":"Hohenzollernstraße 79-81, 80796 München, Germany"}
{"timestamp":"2016-09-27T04:40:00+0200","id":124029,"name":"Hannah","coordinate":{"longitude":11.51019955,"latitude":48.04539871},"fuelLevel":0.7,"lastAddress":"Gistlstraße 159, 82049 Pullach im Isartal, Germany"}
{"timestamp":"2016-09-27T04:40:00+0200","id":124042,"name":"Tilli","coordinate":{"longitude":11.50949955,"latitude":48.04550171},"fuelLevel":0.84,"lastAddress":"Seitnerstraße 70, 82049 Pullach im Isartal, Germany"}
{"timestamp":"2016-09-27T04:40:00+0200","id":124039,"name":"Marie","coordinate":{"longitude":11.50959969,"latitude":48.04539871},"fuelLevel":0.89,"lastAddress":"Seitnerstraße 70, 82049 Pullach im Isartal, Germany"}
{"timestamp":"2016-09-27T04:40:00+0200","id":124009,"name":"Ludwig","coordinate":{"longitude":11.57769966,"latitude":48.16379929},"fuelLevel":0.9400000000000001,"lastAddress":"Clemensstraße 48, 80803 München, Germany"}
{"timestamp":"2016-09-27T04:40:00+0200","id":124007,"name":"Jakob","coordinate":{"longitude":11.58689976,"latitude":48.1637001},"fuelLevel":0.9500000000000001,"lastAddress":"Leopoldstraße 85, 80802 München, Germany"}