{"timestamp":"2016-10-02T21:15:00+0200","id":124041,"name":"Sophie","coordinate":{"longitude":11.57769966,"latitude":48.14960098},"fuelLevel":0.93,"lastAddress":"Amalienstraße 55, 80799 München, Germany"}
{"timestamp":"2016-10-02T21:15:00+0200","id":124026,"name":"Eva","coordinate":{"longitude":11.5781002,"latitude":48.15380096},"fuelLevel":0.61,"lastAddress":"Rambergstraße 4, 80799 München, Germany"}
{"timestamp":"2016-10-02T21:15:00+0200","id":124025,"name":"Elli","coordinate":{"longitude":11.57579994,"latitude":48.15219879},"fuelLevel":0.9500000000000001,"lastAddress":"Nordendstraße 1A, 80799 München, Germany"}
{"timestamp":"2016-10-02T21:15:00+0200","id":124033,"name":"Johanna","coordinate":{"longitude":11.58199978,"latitude":48.15119934},"fuelLevel":0.84,"lastAddress":"Professor-Huber-Platz 2, 80539 München, Germany"}
{"timestamp":"2016-10-02T21:15:00+0200","id":124036,"name":"Liesel","coordinate":{"longitude":11.57520008,"latitude":48.15620041},"fuelLevel":0.6699999999999999,"lastAddress":"Nordendstraße 34, 80801 München, Germany"}
{"timestamp":"2016-10-02T21:15:00+0200","id":124024,"name":"Christl","coordinate":{"longitude":11.57909966,"latitude":48.13370132},"fuelLevel":0.8,"lastAddress":"Rumfordstraße 30, 80469 München, Germany"}
{"timestamp":"2016-10-02T21:15:00+0200","id":124040,"name":"Reserl","coordinate":{"longitude":11.57180023,"latitude":48.13159943},"fuelLevel":0.89,"lastAddress":"Müllerstraße 26, 80469 München, Germany"}
{"timestamp":"2016-10-02T21:15:00+0200","id":124021,"name":"Xaver","coordinate":{"longitude":11.58040047,"latitude":48.13169861},"fuelLevel":0.52,"lastAddress":"Kohlstraße 4, 80469 München, Germany"}
{"timestamp":"2016-10-02T21:15:00+0200","id":124014,"name":"Quirin","coordinate":{"longitude":11.60820007,"latitude":48.13290024},"fuelLevel":0.6499999999999999,"lastAddress":"Kirchenstraße 78-88, 81675 München, Germany"}
{"timestamp":"2016-10-02T21:15:00+0200","id":124034,"name":"Kathi","coordinate":{"longitude":11.60509968,"latitude":48.13230133},"fuelLevel":0.67,"lastAddress":"Elsässer Str. 6, 81667 München, Germany"}
{"timestamp":"2016-10-02T21:15:00+0200","id":124030,"name":"Hedwig","coordinate":{"longitude":11.56359959,"latitude":48.1271019},"fuelLevel":0.9199999999999999,"lastAddress":"Thalkirchner Str. 54, 80337 München, Germany"}
{"timestamp":"2016-10-02T21:15:00+0200","id":124023,"name":"Babsi","coordinate":{"longitude":11.5635004,"latitude":48.12739944},"fuelLevel":0.93,"lastAddress":"Thalkirchner Str. 54, 80337 München, Germany"}
{"timestamp":"2016-10-02T21:15:00+0200","id":124016,"name":"Sepp","coordinate":{"longitude":11.59850025,"latitude":48.12590027},"fuelLevel":0.9199999999999999,"lastAddress":"Rosenheimer Str. 125, 81667 München, Germany"}
{"timestamp":"2016-10-02T21:15:00+0200","id":124038,"name":"Magda","coordinate":{"longitude":11.6001997,"latitude":48.13010025},"fuelLevel":0.67,"lastAddress":"Wörthstraße 24, 81667 München, Germany"}
{"timestamp":"2016-10-02T21:15:00+0200","id":124022,"name":"Anne","coordinate":{"longitude":11.5965004,"latitude":48.1271019},"fuelLevel":0.87,"lastAddress":"Rosenheimer Str. 103, 81667 München, Germany"}
{"timestamp":"2016-10-02T21:15:00+0200","id":124000,"name":"Bertl","coordinate":{"longitude":11.59679985,"latitude":48.12950134},"fuelLevel":0.82,"lastAddress":"Kellerstraße 34, 81667 München, Germany"}
{"timestamp":"2016-10-02T21:15:00+0200","id":124013,"name":"Poldi","coordinate":{"longitude":11.59399986,"latitude":48.12749863},"fuelLevel":0.79,"lastAddress":"Balanstraße 8, 81669 München, Germany"}
{"timestamp":"2016-10-02T21:15:00+0200","id":124011,"name":"Maxl","coordinate":{"longitude":11.5923996,"latitude":48.12580109},"fuelLevel":0.8099999999999999,"lastAddress":"Simon-Knoll-Platz 3, 81669 München, Germany"}
{"timestamp":"2016-10-02T21:15:00+0200","id":124003,"name":"Franzl","coordinate":{"longitude":11.59290028,"latitude":48.1271019},"fuelLevel":0.79,"lastAddress":"Rablstraße 37, 81669 München, Germany"}
{"timestamp":"2016-10-02T21:15:00+0200","id":124010,"name":"Luitpold","coordinate":{"longitude":11.58600044,"latitude":48.12590027},"fuelLevel":0.88,"lastAddress":"Gebsattelstraße 2, 81541 München, Germany"}
{"timestamp":"2016-10-02T21:15:00+0200","id":124019,"name":"Valentin","coordinate":{"longitude":11.58520031,"latitude":48.12400055},"fuelLevel":0.9199999999999999,"lastAddress":"Hochstraße 47A, 81541 München, Germany"}
{"timestamp":"2016-10-02T21:15:00+0200","id":124035,"name":"Leonie","coordinate":{"longitude":11.58570004,"latitude":48.12939835},"fuelLevel":0.7899999999999999,"lastAddress":"Zeppelinstraße 63, 81669 München, Germany"}
{"timestamp":"2016-10-02T21:15:00+0200","id":124006,"name":"Gustl","coordinate":{"longitude":11.57740021,"latitude":48.12110138},"fuelLevel":0.9400000000000001,"lastAddress":"Falkenstraße 44, 81541 München, Germany"}
{"timestamp":"2016-10-02T21:15:00+0200","id":124020,"name":"Vinzenz","coordinate":{"longitude":11.57900047,"latitude":48.12340164},"fuelLevel":0.9099999999999999,"lastAddress":"Albanistraße 17, 81541 München, Germany"}
{"timestamp":"2016-10-02T21:15:00+0200","id":124049,"name":"Marei","coordinate":{"longitude":11.57429981,"latitude":48.12009811},"fuelLevel":0.7200000000000001,"lastAddress":"Oefelestraße 5, 81543 München, Germany"}
{"timestamp":"2016-10-02T21:15:00+0200","id":124045,"name":"Vroni","coordinate":{"longitude":11.56739998,"latitude":48.12789917},"fuelLevel":0.9199999999999999,"lastAddress":"Pestalozzistraße 52A, 80469 München, Germany"}
{"timestamp":"2016-10-02T21:15:00+0200","id":124018,"name":"Toni","coordinate":{"longitude":11.57019997,"latitude":48.13079834},"fuelLevel":0.9099999999999999,"lastAddress":"Hans-Sachs-Straße 2, 80469 München, Germany"}
{"timestamp":"2016-10-02T21:15:00+0200","id":124012,"name":"Peter","coordinate":{"longitude":11.57269955,"latitude":48.1495018},"fuelLevel":1,"lastAddress":"Barer Str. 46, 80799 München, Germany"}
{"timestamp":"2016-10-02T21:15:00+0200","id":124004,"name":"Fridl","coordinate":{"longitude":11.56599998,"latitude":48.15639877},"fuelLevel":0.55,"lastAddress":"Hiltenspergerstraße 6, 80798 München, Germany"}
{"timestamp":"2016-10-02T21:15:00+0200","id":124031,"name":"Heidi","coordinate":{"longitude":11.56649971,"latitude":48.15029907},"fuelLevel":0.8,"lastAddress":"Theresienstraße 43, 80333 München, Germany"}
{"timestamp":"2016-10-02T21:15:00+0200","id":124002,"name":"Ferdl","coordinate":{"longitude":11.56470013,"latitude":48.15190125},"fuelLevel":0.9500000000000001,"lastAddress":"Augustenstraße 93, 80798 München, Germany"}
{"timestamp":"2016-10-02T21:15:00+0200","id":124048,"name":"Wiggerl","coordinate":{"longitude":11.57890034,"latitude":48.16139984},"fuelLevel":0.68,"lastAddress":"Kaiserstraße 36, 80801 München, Germany"}
{"timestamp":"2016-10-02T21:15:00+0200","id":124028,"name":"Gitte","coordinate":{"longitude":11.57740021,"latitude":48.16009903},"fuelLevel":0.75,"lastAddress":"Römerstraße 16A, 80801 München, Germany"}
{"timestamp":"2016-10-02T21:15:00+0200","id":124027,"name":"Fanni","coordinate":{"longitude":11.57789993,"latitude":48.15890121},"fuelLevel":0.7899999999999999,"lastAddress":"Ainmillerstraße 31-33, 80801 München, Germany"}
{"timestamp":"2016-10-02T21:15:00+0200","id":124005,"name":"Georg","coordinate":{"longitude":11.58139992,"latitude":48.1590004},"fuelLevel":0.66,"lastAddress":"Ainmillerstraße 20, 80801 München, Germany"}
{"timestamp":"2016-10-02T21:15:00+0200","id":124032,"name":"Irmi","coordinate":{"longitude":11.57279968,"latitude":48.16040039},"fuelLevel":0.64,"lastAddress":"Hohenzollernstraße 65, 80796 München, Germany"}
{"timestamp":"2016-10-02T21:15:00+0200","id":124037,"name":"Luise","coordinate":{"longitude":11.56630039,"latitude":48.15790176},"fuelLevel":0.58,"lastAddress":"Agnesstraße 38, 80798 München, Germany"}
{"timestamp":"2016-10-02T21:15:00+0200","id":124017,"name":"Siggi","coordinate":{"longitude":11.57129955,"latitude":48.16070175},"fuelLevel":0.56,"lastAddress":"Hohenzollernstraße 79, 80796 München, Germany"}
{"timestamp":"2016-10-02T21:15:00+0200","id":124029,"name":"Hannah","coordinate":{"longitude":11.51029968,"latitude":48.04539871},"fuelLevel":0.71,"lastAddress":"Gistlstraße 159, 82049 Pullach im Isartal, Germany"}
{"timestamp":"2016-10-02T21:15:00+0200","id":124042,"name":"Tilli","coordinate":{"longitude":11.50969982,"latitude":48.04570007},"fuelLevel":0.77,"lastAddress":"Seitnerstraße 70, 82049 Pullach im Isartal, Germany"}
{"timestamp":"2016-10-02T21:15:00+0200","id":124039,"name":"Marie","coordinate":{"longitude":11.75329971,"latitude":46.55680084},"fuelLevel":0.5555555555555556,"lastAddress":"Str. Rainell, 65, 39048 Selva di Val Gardena BZ, Italy"}
{"timestamp":"2016-10-02T21:15:00+0200","id":124009,"name":"Ludwig","coordinate":{"longitude":11.58460045,"latitude":48.16220093},"fuelLevel":0.8999999999999999,"lastAddress":"Herzogstraße 6, 80803 München, Germany"}
{"timestamp":"2016-10-02T21:15:00+0200","id":124007,"name":"Jakob","coordinate":{"longitude":11.5855999,"latitude":48.16479874},"fuelLevel":0.9500000000000001,"lastAddress":"Morawitzkystraße 6, 80803 München, Germany"}