{"timestamp":"2016-10-19T12:15:00+0200","id":124041,"name":"Sophie","coordinate":{"longitude":11.57839966,"latitude":48.15370178},"fuelLevel":0.8300000000000001,"lastAddress":"Türkenstraße 104, 80799 München, Germany"}
{"timestamp":"2016-10-19T12:15:00+0200","id":124026,"name":"Eva","coordinate":{"longitude":11.58100033,"latitude":48.14979935},"fuelLevel":0.9199999999999999,"lastAddress":"Ludwigstraße 24, 80539 München, Germany"}
{"timestamp":"2016-10-19T12:15:00+0200","id":124025,"name":"Elli","coordinate":{"longitude":11.57919979,"latitude":48.1556015},"fuelLevel":0.8300000000000001,"lastAddress":"Friedrichstraße 3, 80801 München, Germany"}
{"timestamp":"2016-10-19T12:15:00+0200","id":124044,"name":"Uschi","coordinate":{"longitude":11.57219982,"latitude":48.13169861},"fuelLevel":0.8,"lastAddress":"Müllerstraße 11-13, 80469 München, Germany"}
{"timestamp":"2016-10-19T12:15:00+0200","id":124014,"name":"Quirin","coordinate":{"longitude":11.58479977,"latitude":48.14139938},"fuelLevel":0.57,"lastAddress":"Seitzstraße 15, 80538 München, Germany"}
{"timestamp":"2016-10-19T12:15:00+0200","id":124034,"name":"Kathi","coordinate":{"longitude":11.60890007,"latitude":48.13299942},"fuelLevel":0.57,"lastAddress":"Kirchenstraße 89, 81675 München, Germany"}
{"timestamp":"2016-10-19T12:15:00+0200","id":124016,"name":"Sepp","coordinate":{"longitude":11.59850025,"latitude":48.12630081},"fuelLevel":0.88,"lastAddress":"Rosenheimer Str. 123, 81667 München, Germany"}
{"timestamp":"2016-10-19T12:15:00+0200","id":124038,"name":"Magda","coordinate":{"longitude":11.6001997,"latitude":48.1283989},"fuelLevel":0.67,"lastAddress":"Pariser Pl., 81667 München, Germany"}
{"timestamp":"2016-10-19T12:15:00+0200","id":124022,"name":"Anne","coordinate":{"longitude":11.50590038,"latitude":48.09140015},"fuelLevel":0.7999999999999999,"lastAddress":"Meglingerstraße 40, 81477 München, Germany"}
{"timestamp":"2016-10-19T12:15:00+0200","id":124013,"name":"Poldi","coordinate":{"longitude":11.5941,"latitude":48.12810135},"fuelLevel":0.61,"lastAddress":"Rosenheimer Pl. 1, 81669 München, Germany"}
{"timestamp":"2016-10-19T12:15:00+0200","id":124011,"name":"Maxl","coordinate":{"longitude":11.59490013,"latitude":48.12789917},"fuelLevel":0.6699999999999999,"lastAddress":"Metzstraße 1, 81667 München, Germany"}
{"timestamp":"2016-10-19T12:15:00+0200","id":124003,"name":"Franzl","coordinate":{"longitude":11.59309959,"latitude":48.12689972},"fuelLevel":0.7799999999999999,"lastAddress":"Franziskanerstraße 19, 81669 München, Germany"}
{"timestamp":"2016-10-19T12:15:00+0200","id":124010,"name":"Luitpold","coordinate":{"longitude":11.58769989,"latitude":48.12770081},"fuelLevel":0.87,"lastAddress":"Hochstraße 19, 81669 München, Germany"}
{"timestamp":"2016-10-19T12:15:00+0200","id":124019,"name":"Valentin","coordinate":{"longitude":11.50559998,"latitude":48.0909996},"fuelLevel":0.8680555555555556,"lastAddress":"Meglingerstraße 30-32, 81477 München, Germany"}
{"timestamp":"2016-10-19T12:15:00+0200","id":124020,"name":"Vinzenz","coordinate":{"longitude":11.57800007,"latitude":48.12530136},"fuelLevel":0.75,"lastAddress":"Boosstraße 4-8, 81541 München, Germany"}
{"timestamp":"2016-10-19T12:15:00+0200","id":124049,"name":"Marei","coordinate":{"longitude":11.57429981,"latitude":48.12260056},"fuelLevel":0.9400000000000001,"lastAddress":"Eduard-Schmid-Straße 34, 81541 München, Germany"}
{"timestamp":"2016-10-19T12:15:00+0200","id":124045,"name":"Vroni","coordinate":{"longitude":11.56499958,"latitude":48.12400055},"fuelLevel":0.64,"lastAddress":"Kapuzinerstraße 46, 80469 München, Germany"}
{"timestamp":"2016-10-19T12:15:00+0200","id":124018,"name":"Toni","coordinate":{"longitude":11.56980038,"latitude":48.12939835},"fuelLevel":0.6499999999999999,"lastAddress":"Hans-Sachs-Straße 11-13, 80469 München, Germany"}
{"timestamp":"2016-10-19T12:15:00+0200","id":124012,"name":"Peter","coordinate":{"longitude":11.56040001,"latitude":48.15520096},"fuelLevel":0.9600000000000001,"lastAddress":"Winzererstraße 32, 80797 München, Germany"}
{"timestamp":"2016-10-19T12:15:00+0200","id":124004,"name":"Fridl","coordinate":{"longitude":11.55580044,"latitude":48.15510178},"fuelLevel":0.58,"lastAddress":"Lothstraße 64, 80335 München, Germany"}
{"timestamp":"2016-10-19T12:15:00+0200","id":124031,"name":"Heidi","coordinate":{"longitude":11.5635004,"latitude":48.14979935},"fuelLevel":0.62,"lastAddress":"Augustenstraße 72, 80333 München, Germany"}
{"timestamp":"2016-10-19T12:15:00+0200","id":124047,"name":"Walli","coordinate":{"longitude":11.57229996,"latitude":48.1493988},"fuelLevel":0.6499999999999999,"lastAddress":"Barer Str. 42, 80799 München, Germany"}
{"timestamp":"2016-10-19T12:15:00+0200","id":124048,"name":"Wiggerl","coordinate":{"longitude":11.58069992,"latitude":48.16279984},"fuelLevel":0.67,"lastAddress":"Herzogstraße 36, 80803 München, Germany"}
{"timestamp":"2016-10-19T12:15:00+0200","id":124028,"name":"Gitte","coordinate":{"longitude":11.57590008,"latitude":48.16040039},"fuelLevel":0.7200000000000001,"lastAddress":"Hohenzollernstraße 74, 80801 München, Germany"}
{"timestamp":"2016-10-19T12:15:00+0200","id":124032,"name":"Irmi","coordinate":{"longitude":11.57089996,"latitude":48.1590004},"fuelLevel":0.9400000000000001,"lastAddress":"Jakob-Klar-Straße 4, 80796 München, Germany"}
{"timestamp":"2016-10-19T12:15:00+0200","id":124017,"name":"Siggi","coordinate":{"longitude":11.57240009,"latitude":48.16049957},"fuelLevel":0.56,"lastAddress":"Hohenzollernstraße 69, 80796 München, Germany"}
{"timestamp":"2016-10-19T12:15:00+0200","id":124029,"name":"Hannah","coordinate":{"longitude":11.51010036,"latitude":48.04550171},"fuelLevel":0.59,"lastAddress":"Gistlstraße 159, 82049 Pullach im Isartal, Germany"}
{"timestamp":"2016-10-19T12:15:00+0200","id":124009,"name":"Ludwig","coordinate":{"longitude":11.5862999,"latitude":48.16500092},"fuelLevel":0.59,"lastAddress":"Leopoldstraße 102, 80802 München, Germany"}
{"timestamp":"2016-10-19T12:15:00+0200","id":124007,"name":"Jakob","coordinate":{"longitude":11.57460022,"latitude":48.16659927},"fuelLevel":0.9500000000000001,"lastAddress":"Belgradstraße 54, 80796 München, Germany"}