{"timestamp":"2016-10-16T20:40:00+0200","id":124041,"name":"Sophie","coordinate":{"longitude":11.5781002,"latitude":48.15380096},"fuelLevel":0.8300000000000001,"lastAddress":"Rambergstraße 4, 80799 München, Germany"}
{"timestamp":"2016-10-16T20:40:00+0200","id":124026,"name":"Eva","coordinate":{"longitude":11.58069992,"latitude":48.14989853},"fuelLevel":0.9199999999999999,"lastAddress":"Hauptgebäude, Geschwister-Scholl-Platz 1, 80539 München, Germany"}
{"timestamp":"2016-10-16T20:40:00+0200","id":124025,"name":"Elli","coordinate":{"longitude":11.57940006,"latitude":48.15570068},"fuelLevel":0.8300000000000001,"lastAddress":"Konradstraße 16, 80801 München, Germany"}
{"timestamp":"2016-10-16T20:40:00+0200","id":124044,"name":"Uschi","coordinate":{"longitude":11.57199955,"latitude":48.13190079},"fuelLevel":0.8,"lastAddress":"Müllerstraße 24, 80469 München, Germany"}
{"timestamp":"2016-10-16T20:40:00+0200","id":124040,"name":"Reserl","coordinate":{"longitude":11.57279968,"latitude":48.13190079},"fuelLevel":0.79,"lastAddress":"Müllerstraße 7, 80469 München, Germany"}
{"timestamp":"2016-10-16T20:40:00+0200","id":124021,"name":"Xaver","coordinate":{"longitude":11.58030033,"latitude":48.13019943},"fuelLevel":0.9199999999999999,"lastAddress":"Erhardtstraße 27, 80469 München, Germany"}
{"timestamp":"2016-10-16T20:40:00+0200","id":124014,"name":"Quirin","coordinate":{"longitude":11.59729958,"latitude":48.13499832},"fuelLevel":0.57,"lastAddress":"Innere Wiener Straße 61, 81667 München, Germany"}
{"timestamp":"2016-10-16T20:40:00+0200","id":124034,"name":"Kathi","coordinate":{"longitude":11.60890007,"latitude":48.13249969},"fuelLevel":0.57,"lastAddress":"Kirchenstraße 90, 81675 München, Germany"}
{"timestamp":"2016-10-16T20:40:00+0200","id":124016,"name":"Sepp","coordinate":{"longitude":11.59819984,"latitude":48.12630081},"fuelLevel":0.88,"lastAddress":"Rosenheimer Str. 119, 81667 München, Germany"}
{"timestamp":"2016-10-16T20:40:00+0200","id":124038,"name":"Magda","coordinate":{"longitude":11.60029984,"latitude":48.12820053},"fuelLevel":0.67,"lastAddress":"Pariser Pl., 81667 München, Germany"}
{"timestamp":"2016-10-16T20:40:00+0200","id":124013,"name":"Poldi","coordinate":{"longitude":11.59440041,"latitude":48.12779999},"fuelLevel":0.61,"lastAddress":"Balanstraße 4, 81669 München, Germany"}
{"timestamp":"2016-10-16T20:40:00+0200","id":124011,"name":"Maxl","coordinate":{"longitude":11.59490013,"latitude":48.12789917},"fuelLevel":0.6699999999999999,"lastAddress":"Metzstraße 1, 81667 München, Germany"}
{"timestamp":"2016-10-16T20:40:00+0200","id":124003,"name":"Franzl","coordinate":{"longitude":11.59329987,"latitude":48.12749863},"fuelLevel":0.8,"lastAddress":"Franziskanerstraße 13, 81669 München, Germany"}
{"timestamp":"2016-10-16T20:40:00+0200","id":124010,"name":"Luitpold","coordinate":{"longitude":11.58759975,"latitude":48.12760162},"fuelLevel":0.87,"lastAddress":"Hochstraße 19, 81669 München, Germany"}
{"timestamp":"2016-10-16T20:40:00+0200","id":124020,"name":"Vinzenz","coordinate":{"longitude":11.57800007,"latitude":48.1228981},"fuelLevel":0.81,"lastAddress":"Entenbachstraße 26, 81541 München, Germany"}
{"timestamp":"2016-10-16T20:40:00+0200","id":124049,"name":"Marei","coordinate":{"longitude":11.57439995,"latitude":48.12210083},"fuelLevel":0.9400000000000001,"lastAddress":"Sommerstraße 9, 81543 München, Germany"}
{"timestamp":"2016-10-16T20:40:00+0200","id":124045,"name":"Vroni","coordinate":{"longitude":11.5649004,"latitude":48.12419891},"fuelLevel":0.64,"lastAddress":"Kapuzinerstraße 37, 80469 München, Germany"}
{"timestamp":"2016-10-16T20:40:00+0200","id":124018,"name":"Toni","coordinate":{"longitude":11.56890011,"latitude":48.12990189},"fuelLevel":0.6499999999999999,"lastAddress":"Holzstraße 13B, 80469 München, Germany"}
{"timestamp":"2016-10-16T20:40:00+0200","id":124012,"name":"Peter","coordinate":{"longitude":11.56130028,"latitude":48.15480042},"fuelLevel":0.9600000000000001,"lastAddress":"Schleißheimer Str. 51, 80797 München, Germany"}
{"timestamp":"2016-10-16T20:40:00+0200","id":124004,"name":"Fridl","coordinate":{"longitude":11.55580044,"latitude":48.15520096},"fuelLevel":0.58,"lastAddress":"Lothstraße 64, 80335 München, Germany"}
{"timestamp":"2016-10-16T20:40:00+0200","id":124031,"name":"Heidi","coordinate":{"longitude":11.56700039,"latitude":48.15230179},"fuelLevel":0.63,"lastAddress":"Schellingstraße 103A, 80798 München, Germany"}
{"timestamp":"2016-10-16T20:40:00+0200","id":124047,"name":"Walli","coordinate":{"longitude":11.57009983,"latitude":48.1493988},"fuelLevel":0.71,"lastAddress":"Theresienstraße, 80333 München, Germany"}
{"timestamp":"2016-10-16T20:40:00+0200","id":124048,"name":"Wiggerl","coordinate":{"longitude":11.58100033,"latitude":48.16289902},"fuelLevel":0.67,"lastAddress":"Herzogstraße 36, 80803 München, Germany"}
{"timestamp":"2016-10-16T20:40:00+0200","id":124028,"name":"Gitte","coordinate":{"longitude":11.57579994,"latitude":48.16059875},"fuelLevel":0.7200000000000001,"lastAddress":"Hohenzollernstraße 78, 80801 München, Germany"}
{"timestamp":"2016-10-16T20:40:00+0200","id":124032,"name":"Irmi","coordinate":{"longitude":11.57089996,"latitude":48.16090012},"fuelLevel":0.44,"lastAddress":"Hohenzollernstraße 112, 80796 München, Germany"}
{"timestamp":"2016-10-16T20:40:00+0200","id":124037,"name":"Luise","coordinate":{"longitude":11.5703001,"latitude":48.15719986},"fuelLevel":0.52,"lastAddress":"Agnesstraße 13, 80798 München, Germany"}
{"timestamp":"2016-10-16T20:40:00+0200","id":124017,"name":"Siggi","coordinate":{"longitude":11.57250023,"latitude":48.16049957},"fuelLevel":0.56,"lastAddress":"Hohenzollernstraße 67, 80796 München, Germany"}
{"timestamp":"2016-10-16T20:40:00+0200","id":124029,"name":"Hannah","coordinate":{"longitude":11.50990009,"latitude":48.04550171},"fuelLevel":0.59,"lastAddress":"Gistlstraße 159, 82049 Pullach im Isartal, Germany"}
{"timestamp":"2016-10-16T20:40:00+0200","id":124039,"name":"Marie","coordinate":{"longitude":11.50940037,"latitude":48.04529953},"fuelLevel":0.63,"lastAddress":"Seitnerstraße 70, 82049 Pullach im Isartal, Germany"}
{"timestamp":"2016-10-16T20:40:00+0200","id":124009,"name":"Ludwig","coordinate":{"longitude":11.58320045,"latitude":48.16139984},"fuelLevel":0.6499999999999999,"lastAddress":"Wilhelmstraße 29, 80801 München, Germany"}