{"timestamp":"2016-11-29T09:55:00+0100","id":124026,"name":"Eva","coordinate":{"longitude":11.58128357,"latitude":48.15229797},"fuelLevel":0.7200000000000001,"lastAddress":"Akademiestraße 3, 80799 München, Germany"}
{"timestamp":"2016-11-29T09:55:00+0100","id":124025,"name":"Elli","coordinate":{"longitude":11.58119202,"latitude":48.15248108},"fuelLevel":0.8200000000000001,"lastAddress":"Akademiestraße 5, 80799 München, Germany"}
{"timestamp":"2016-11-29T09:55:00+0100","id":124033,"name":"Johanna","coordinate":{"longitude":11.57919312,"latitude":48.15190125},"fuelLevel":0.69,"lastAddress":"Amalienstraße 95, 80799 München, Germany"}
{"timestamp":"2016-11-29T09:55:00+0100","id":124036,"name":"Liesel","coordinate":{"longitude":11.57859802,"latitude":48.15310669},"fuelLevel":0.5499999999999999,"lastAddress":"Akademiestraße 4, 80799 München, Germany"}
{"timestamp":"2016-11-29T09:55:00+0100","id":124040,"name":"Reserl","coordinate":{"longitude":11.57235718,"latitude":48.13067627},"fuelLevel":0.61,"lastAddress":"Fraunhoferstraße 8, 80469 München, Germany"}
{"timestamp":"2016-11-29T09:55:00+0100","id":124021,"name":"Xaver","coordinate":{"longitude":11.58200073,"latitude":48.13110352},"fuelLevel":0.79,"lastAddress":"Kohlstraße 11, 80469 München, Germany"}
{"timestamp":"2016-11-29T09:55:00+0100","id":124034,"name":"Kathi","coordinate":{"longitude":11.60551453,"latitude":48.13220215},"fuelLevel":0.62,"lastAddress":"Spicherenstraße 3, 81667 München, Germany"}
{"timestamp":"2016-11-29T09:55:00+0100","id":124023,"name":"Babsi","coordinate":{"longitude":11.56739807,"latitude":48.13079834},"fuelLevel":0.8800000000000001,"lastAddress":"Pestalozzistraße 13, 80469 München, Germany"}
{"timestamp":"2016-11-29T09:55:00+0100","id":124022,"name":"Anne","coordinate":{"longitude":11.60018921,"latitude":48.12817383},"fuelLevel":0.76,"lastAddress":"Pariser Pl., 81667 München, Germany"}
{"timestamp":"2016-11-29T09:55:00+0100","id":124000,"name":"Bertl","coordinate":{"longitude":11.603302,"latitude":48.1282959},"fuelLevel":0.77,"lastAddress":"Orleansstraße 51, 81667 München, Germany"}
{"timestamp":"2016-11-29T09:55:00+0100","id":124013,"name":"Poldi","coordinate":{"longitude":11.58961487,"latitude":48.12501526},"fuelLevel":0.79,"lastAddress":"Franziskanerstraße 47, 81669 München, Germany"}
{"timestamp":"2016-11-29T09:55:00+0100","id":124011,"name":"Maxl","coordinate":{"longitude":11.59259033,"latitude":48.12670898},"fuelLevel":0.5599999999999999,"lastAddress":"Franziskanerstraße 14, 81669 München, Germany"}
{"timestamp":"2016-11-29T09:55:00+0100","id":124003,"name":"Franzl","coordinate":{"longitude":11.58410645,"latitude":48.13287354},"fuelLevel":0.5555555555555556,"lastAddress":"Zweibrückenstraße 15, 80331 München, Germany"}
{"timestamp":"2016-11-29T09:55:00+0100","id":124010,"name":"Luitpold","coordinate":{"longitude":11.58457947,"latitude":48.12870789},"fuelLevel":0.59,"lastAddress":"Zeppelinstraße 53, 81669 München, Germany"}
{"timestamp":"2016-11-29T09:55:00+0100","id":124019,"name":"Valentin","coordinate":{"longitude":11.58340454,"latitude":48.12249756},"fuelLevel":0.52,"lastAddress":"Hochstraße 73, 81541 München, Germany"}
{"timestamp":"2016-11-29T09:55:00+0100","id":124035,"name":"Leonie","coordinate":{"longitude":11.58460999,"latitude":48.12770081},"fuelLevel":0.7899999999999999,"lastAddress":"Lilienstraße 62-64, 81669 München, Germany"}
{"timestamp":"2016-11-29T09:55:00+0100","id":124020,"name":"Vinzenz","coordinate":{"longitude":11.57949829,"latitude":48.12409973},"fuelLevel":0.73,"lastAddress":"Entenbachstraße 7, 81541 München, Germany"}
{"timestamp":"2016-11-29T09:55:00+0100","id":124049,"name":"Marei","coordinate":{"longitude":11.5776062,"latitude":48.12039185},"fuelLevel":0.8999999999999999,"lastAddress":"Dollmannstraße 4, 81541 München, Germany"}
{"timestamp":"2016-11-29T09:55:00+0100","id":124018,"name":"Toni","coordinate":{"longitude":11.56559753,"latitude":48.12640381},"fuelLevel":0.81,"lastAddress":"Pestalozzistraße 60, 80469 München, Germany"}
{"timestamp":"2016-11-29T09:55:00+0100","id":124012,"name":"Peter","coordinate":{"longitude":11.56111145,"latitude":48.15739441},"fuelLevel":0.5599999999999999,"lastAddress":"Georgenstraße 121-123, 80797 München, Germany"}
{"timestamp":"2016-11-29T09:55:00+0100","id":124004,"name":"Fridl","coordinate":{"longitude":11.55639648,"latitude":48.15498352},"fuelLevel":0.7799999999999999,"lastAddress":"Heßstraße 110, 80797 München, Germany"}
{"timestamp":"2016-11-29T09:55:00+0100","id":124031,"name":"Heidi","coordinate":{"longitude":11.57200623,"latitude":48.15090942},"fuelLevel":0.875,"lastAddress":"Schraudolphstraße 4, 80799 München, Germany"}
{"timestamp":"2016-11-29T09:55:00+0100","id":124002,"name":"Ferdl","coordinate":{"longitude":11.56399536,"latitude":48.15031433},"fuelLevel":0.8999999999999999,"lastAddress":"Augustenstraße 76, 80333 München, Germany"}
{"timestamp":"2016-11-29T09:55:00+0100","id":124048,"name":"Wiggerl","coordinate":{"longitude":11.57739258,"latitude":48.15910339},"fuelLevel":0.7799999999999999,"lastAddress":"Ainmillerstraße 42, 80801 München, Germany"}
{"timestamp":"2016-11-29T09:55:00+0100","id":124028,"name":"Gitte","coordinate":{"longitude":11.5796051,"latitude":48.15782166},"fuelLevel":0.9099999999999999,"lastAddress":"Franz-Joseph-Straße 26, 80801 München, Germany"}
{"timestamp":"2016-11-29T09:55:00+0100","id":124027,"name":"Fanni","coordinate":{"longitude":11.58099365,"latitude":48.16149902},"fuelLevel":0.8300000000000001,"lastAddress":"Kaiserpl. 1, 80803 München, Germany"}
{"timestamp":"2016-11-29T09:55:00+0100","id":124005,"name":"Georg","coordinate":{"longitude":11.57951355,"latitude":48.15910339},"fuelLevel":0.75,"lastAddress":"Ainmillerstraße 30, 80801 München, Germany"}
{"timestamp":"2016-11-29T09:55:00+0100","id":124001,"name":"Edmund","coordinate":{"longitude":11.57870483,"latitude":48.15899658},"fuelLevel":0.51,"lastAddress":"Ainmillerstraße 34, 80801 München, Germany"}
{"timestamp":"2016-11-29T09:55:00+0100","id":124032,"name":"Irmi","coordinate":{"longitude":11.57499695,"latitude":48.15969849},"fuelLevel":0.61,"lastAddress":"Kurfürstenpl. 2, 80796 München, Germany"}
{"timestamp":"2016-11-29T09:55:00+0100","id":124037,"name":"Luise","coordinate":{"longitude":11.57098389,"latitude":48.15869141},"fuelLevel":0.55,"lastAddress":"Elisabethstraße 22, 80796 München, Germany"}
{"timestamp":"2016-11-29T09:55:00+0100","id":124017,"name":"Siggi","coordinate":{"longitude":11.57350159,"latitude":48.1566925},"fuelLevel":0.8,"lastAddress":"Arcisstraße 65, 80801 München, Germany"}
{"timestamp":"2016-11-29T09:55:00+0100","id":124029,"name":"Hannah","coordinate":{"longitude":11.50970459,"latitude":48.04541016},"fuelLevel":0.6000000000000001,"lastAddress":"Seitnerstraße 70, 82049 Pullach im Isartal, Germany"}
{"timestamp":"2016-11-29T09:55:00+0100","id":124039,"name":"Marie","coordinate":{"longitude":11.50629997,"latitude":48.04370117},"fuelLevel":0.71,"lastAddress":"Wolfratshauser Str. 138, 82049 Pullach im Isartal, Germany"}
{"timestamp":"2016-11-29T09:55:00+0100","id":124009,"name":"Ludwig","coordinate":{"longitude":11.58229065,"latitude":48.16560364},"fuelLevel":0.71,"lastAddress":"Muffatstraße 5-7, 80803 München, Germany"}
{"timestamp":"2016-11-29T09:55:00+0100","id":124007,"name":"Jakob","coordinate":{"longitude":11.57751465,"latitude":48.16668701},"fuelLevel":0.6499999999999999,"lastAddress":"Karl-Theodor-Straße 55, 80803 München, Germany"}