{"timestamp":"2016-10-14T23:25:00+0200","id":124041,"name":"Sophie","coordinate":{"longitude":11.5781002,"latitude":48.15010071},"fuelLevel":0.87,"lastAddress":"Amalienstraße 61, 80799 München, Germany"}
{"timestamp":"2016-10-14T23:25:00+0200","id":124026,"name":"Eva","coordinate":{"longitude":11.58180046,"latitude":48.15380096},"fuelLevel":0.61,"lastAddress":"Leopoldstraße 3, 80802 München, Germany"}
{"timestamp":"2016-10-14T23:25:00+0200","id":124025,"name":"Elli","coordinate":{"longitude":11.57590008,"latitude":48.15829849},"fuelLevel":0.87,"lastAddress":"Kurfürstenstraße 24, 80801 München, Germany"}
{"timestamp":"2016-10-14T23:25:00+0200","id":124033,"name":"Johanna","coordinate":{"longitude":11.57680035,"latitude":48.14979935},"fuelLevel":0.73,"lastAddress":"Schellingstraße 21, 80799 München, Germany"}
{"timestamp":"2016-10-14T23:25:00+0200","id":124044,"name":"Uschi","coordinate":{"longitude":11.57219982,"latitude":48.13190079},"fuelLevel":0.9199999999999999,"lastAddress":"Müllerstraße 20, 80469 München, Germany"}
{"timestamp":"2016-10-14T23:25:00+0200","id":124040,"name":"Reserl","coordinate":{"longitude":11.57269955,"latitude":48.13190079},"fuelLevel":0.79,"lastAddress":"Müllerstraße 7, 80469 München, Germany"}
{"timestamp":"2016-10-14T23:25:00+0200","id":124021,"name":"Xaver","coordinate":{"longitude":11.58059978,"latitude":48.12990189},"fuelLevel":0.9199999999999999,"lastAddress":"Erhardtstraße 27, 80469 München, Germany"}
{"timestamp":"2016-10-14T23:25:00+0200","id":124014,"name":"Quirin","coordinate":{"longitude":11.59770012,"latitude":48.13430023},"fuelLevel":0.57,"lastAddress":"Johannispl. 21, 81667 München, Germany"}
{"timestamp":"2016-10-14T23:25:00+0200","id":124034,"name":"Kathi","coordinate":{"longitude":11.60499954,"latitude":48.13370132},"fuelLevel":0.73,"lastAddress":"Flurstraße 2-4, 81675 München, Germany"}
{"timestamp":"2016-10-14T23:25:00+0200","id":124016,"name":"Sepp","coordinate":{"longitude":11.59799957,"latitude":48.12609863},"fuelLevel":0.88,"lastAddress":"Rosenheimer Str. 98, 81669 München, Germany"}
{"timestamp":"2016-10-14T23:25:00+0200","id":124038,"name":"Magda","coordinate":{"longitude":11.6001997,"latitude":48.1283989},"fuelLevel":0.67,"lastAddress":"Pariser Pl., 81667 München, Germany"}
{"timestamp":"2016-10-14T23:25:00+0200","id":124022,"name":"Anne","coordinate":{"longitude":11.60000038,"latitude":48.12599945},"fuelLevel":0.7999999999999999,"lastAddress":"Lothringer Str., 81667 München, Germany"}
{"timestamp":"2016-10-14T23:25:00+0200","id":124013,"name":"Poldi","coordinate":{"longitude":11.59440041,"latitude":48.12779999},"fuelLevel":0.61,"lastAddress":"Balanstraße 4, 81669 München, Germany"}
{"timestamp":"2016-10-14T23:25:00+0200","id":124011,"name":"Maxl","coordinate":{"longitude":11.59490013,"latitude":48.12749863},"fuelLevel":0.6699999999999999,"lastAddress":"Balanstraße 9, 81669 München, Germany"}
{"timestamp":"2016-10-14T23:25:00+0200","id":124003,"name":"Franzl","coordinate":{"longitude":11.5934,"latitude":48.12730026},"fuelLevel":0.8,"lastAddress":"Franziskanerstraße 15, 81669 München, Germany"}
{"timestamp":"2016-10-14T23:25:00+0200","id":124010,"name":"Luitpold","coordinate":{"longitude":11.58450031,"latitude":48.12749863},"fuelLevel":0.9400000000000001,"lastAddress":"Lilienstraße 75, 81669 München, Germany"}
{"timestamp":"2016-10-14T23:25:00+0200","id":124006,"name":"Gustl","coordinate":{"longitude":11.57470036,"latitude":48.12030029},"fuelLevel":0.9400000000000001,"lastAddress":"Oefelestraße 8, 81543 München, Germany"}
{"timestamp":"2016-10-14T23:25:00+0200","id":124020,"name":"Vinzenz","coordinate":{"longitude":11.57820034,"latitude":48.12279892},"fuelLevel":0.81,"lastAddress":"Entenbachstraße 27, 81541 München, Germany"}
{"timestamp":"2016-10-14T23:25:00+0200","id":124049,"name":"Marei","coordinate":{"longitude":11.57419968,"latitude":48.12220001},"fuelLevel":0.9400000000000001,"lastAddress":"Sommerstraße 13, 81543 München, Germany"}
{"timestamp":"2016-10-14T23:25:00+0200","id":124045,"name":"Vroni","coordinate":{"longitude":11.56509972,"latitude":48.12400055},"fuelLevel":0.64,"lastAddress":"Kapuzinerstraße 39, 80469 München, Germany"}
{"timestamp":"2016-10-14T23:25:00+0200","id":124012,"name":"Peter","coordinate":{"longitude":11.56110001,"latitude":48.15480042},"fuelLevel":0.9600000000000001,"lastAddress":"Schleißheimer Str. 51, 80797 München, Germany"}
{"timestamp":"2016-10-14T23:25:00+0200","id":124004,"name":"Fridl","coordinate":{"longitude":11.55869961,"latitude":48.15380096},"fuelLevel":0.66,"lastAddress":"Heßstraße 79, 80797 München, Germany"}
{"timestamp":"2016-10-14T23:25:00+0200","id":124031,"name":"Heidi","coordinate":{"longitude":11.56669998,"latitude":48.15190125},"fuelLevel":0.63,"lastAddress":"Heßstraße 42, 80798 München, Germany"}
{"timestamp":"2016-10-14T23:25:00+0200","id":124047,"name":"Walli","coordinate":{"longitude":11.57019997,"latitude":48.1493988},"fuelLevel":0.71,"lastAddress":"Theresienstraße, 80333 München, Germany"}
{"timestamp":"2016-10-14T23:25:00+0200","id":124048,"name":"Wiggerl","coordinate":{"longitude":11.58069992,"latitude":48.16289902},"fuelLevel":0.67,"lastAddress":"Herzogstraße 40, 80803 München, Germany"}
{"timestamp":"2016-10-14T23:25:00+0200","id":124028,"name":"Gitte","coordinate":{"longitude":11.57559967,"latitude":48.16040039},"fuelLevel":0.7200000000000001,"lastAddress":"Hohenzollernstraße 78, 80801 München, Germany"}
{"timestamp":"2016-10-14T23:25:00+0200","id":124027,"name":"Fanni","coordinate":{"longitude":11.58440018,"latitude":48.16049957},"fuelLevel":0.7899999999999999,"lastAddress":"Kaiserstraße 9, 80801 München, Germany"}
{"timestamp":"2016-10-14T23:25:00+0200","id":124005,"name":"Georg","coordinate":{"longitude":11.57559967,"latitude":48.16149902},"fuelLevel":0.56,"lastAddress":"Kaiserstraße 56, 80801 München, Germany"}
{"timestamp":"2016-10-14T23:25:00+0200","id":124032,"name":"Irmi","coordinate":{"longitude":11.57320023,"latitude":48.16049957},"fuelLevel":0.64,"lastAddress":"Hohenzollernstraße 65, 80796 München, Germany"}
{"timestamp":"2016-10-14T23:25:00+0200","id":124037,"name":"Luise","coordinate":{"longitude":11.57040024,"latitude":48.15769958},"fuelLevel":0.52,"lastAddress":"Agnesstraße 14, 80798 München, Germany"}
{"timestamp":"2016-10-14T23:25:00+0200","id":124017,"name":"Siggi","coordinate":{"longitude":11.57250023,"latitude":48.16059875},"fuelLevel":0.56,"lastAddress":"Hohenzollernstraße 102, 80796 München, Germany"}
{"timestamp":"2016-10-14T23:25:00+0200","id":124039,"name":"Marie","coordinate":{"longitude":11.50469971,"latitude":48.03710175},"fuelLevel":0.9099999999999999,"lastAddress":"Zugspitzstraße 15, 82049 Pullach im Isartal, Germany"}
{"timestamp":"2016-10-14T23:25:00+0200","id":124009,"name":"Ludwig","coordinate":{"longitude":11.58370018,"latitude":48.16220093},"fuelLevel":0.69,"lastAddress":"Wilhelmstraße 28, 80801 München, Germany"}