{"timestamp":"2016-10-05T20:25:00+0200","id":124041,"name":"Sophie","coordinate":{"longitude":11.57759953,"latitude":48.14989853},"fuelLevel":0.93,"lastAddress":"Schellingstraße 18, 80799 München, Germany"}
{"timestamp":"2016-10-05T20:25:00+0200","id":124026,"name":"Eva","coordinate":{"longitude":11.57820034,"latitude":48.1534996},"fuelLevel":0.61,"lastAddress":"Türkenstraße 93, 80799 München, Germany"}
{"timestamp":"2016-10-05T20:25:00+0200","id":124033,"name":"Johanna","coordinate":{"longitude":11.58180046,"latitude":48.15190125},"fuelLevel":0.84,"lastAddress":"Leopoldstraße 4, 80802 München, Germany"}
{"timestamp":"2016-10-05T20:25:00+0200","id":124036,"name":"Liesel","coordinate":{"longitude":11.57489967,"latitude":48.15629959},"fuelLevel":0.6699999999999999,"lastAddress":"Nordendstraße 29, 80801 München, Germany"}
{"timestamp":"2016-10-05T20:25:00+0200","id":124044,"name":"Uschi","coordinate":{"longitude":11.57219982,"latitude":48.13150024},"fuelLevel":0.9199999999999999,"lastAddress":"Müllerstraße 13, 80469 München, Germany"}
{"timestamp":"2016-10-05T20:25:00+0200","id":124024,"name":"Christl","coordinate":{"longitude":11.57940006,"latitude":48.13380051},"fuelLevel":0.8,"lastAddress":"Klenzestraße 2, 80469 München, Germany"}
{"timestamp":"2016-10-05T20:25:00+0200","id":124040,"name":"Reserl","coordinate":{"longitude":11.57330036,"latitude":48.13190079},"fuelLevel":0.8999999999999999,"lastAddress":"Müllerstraße 7, 80469 München, Germany"}
{"timestamp":"2016-10-05T20:25:00+0200","id":124021,"name":"Xaver","coordinate":{"longitude":11.58160019,"latitude":48.13069916},"fuelLevel":0.9500000000000001,"lastAddress":"Erhardtstraße 27, 80469 München, Germany"}
{"timestamp":"2016-10-05T20:25:00+0200","id":124014,"name":"Quirin","coordinate":{"longitude":11.60840034,"latitude":48.13290024},"fuelLevel":0.63,"lastAddress":"Kirchenstraße 87, 81675 München, Germany"}
{"timestamp":"2016-10-05T20:25:00+0200","id":124030,"name":"Hedwig","coordinate":{"longitude":11.56369972,"latitude":48.12749863},"fuelLevel":0.9199999999999999,"lastAddress":"Thalkirchner Str. 52, 80337 München, Germany"}
{"timestamp":"2016-10-05T20:25:00+0200","id":124038,"name":"Magda","coordinate":{"longitude":11.60029984,"latitude":48.1283989},"fuelLevel":0.67,"lastAddress":"Pariser Pl., 81667 München, Germany"}
{"timestamp":"2016-10-05T20:25:00+0200","id":124022,"name":"Anne","coordinate":{"longitude":11.59630013,"latitude":48.12730026},"fuelLevel":0.8800000000000001,"lastAddress":"Rosenheimer Str. 85, 81667 München, Germany"}
{"timestamp":"2016-10-05T20:25:00+0200","id":124000,"name":"Bertl","coordinate":{"longitude":11.59689999,"latitude":48.12950134},"fuelLevel":0.82,"lastAddress":"Kellerstraße 34, 81667 München, Germany"}
{"timestamp":"2016-10-05T20:25:00+0200","id":124013,"name":"Poldi","coordinate":{"longitude":11.59440041,"latitude":48.12810135},"fuelLevel":0.79,"lastAddress":"Balanstraße 2, 81669 München, Germany"}
{"timestamp":"2016-10-05T20:25:00+0200","id":124011,"name":"Maxl","coordinate":{"longitude":11.59290028,"latitude":48.12519836},"fuelLevel":0.7899999999999999,"lastAddress":"Sieboldstraße 11, 81669 München, Germany"}
{"timestamp":"2016-10-05T20:25:00+0200","id":124003,"name":"Franzl","coordinate":{"longitude":11.59300041,"latitude":48.12749863},"fuelLevel":0.8,"lastAddress":"Franziskanerstraße 8, 81669 München, Germany"}
{"timestamp":"2016-10-05T20:25:00+0200","id":124010,"name":"Luitpold","coordinate":{"longitude":11.58450031,"latitude":48.12760162},"fuelLevel":0.9500000000000001,"lastAddress":"Lilienstraße 66, 81669 München, Germany"}
{"timestamp":"2016-10-05T20:25:00+0200","id":124006,"name":"Gustl","coordinate":{"longitude":11.57740021,"latitude":48.12120056},"fuelLevel":0.9400000000000001,"lastAddress":"Falkenstraße 44, 81541 München, Germany"}
{"timestamp":"2016-10-05T20:25:00+0200","id":124020,"name":"Vinzenz","coordinate":{"longitude":11.57619953,"latitude":48.12400055},"fuelLevel":0.8999999999999999,"lastAddress":"Asamstraße 20, 81541 München, Germany"}
{"timestamp":"2016-10-05T20:25:00+0200","id":124049,"name":"Marei","coordinate":{"longitude":11.57470036,"latitude":48.11989975},"fuelLevel":0.69,"lastAddress":"Humboldtstraße 25, 81543 München, Germany"}
{"timestamp":"2016-10-05T20:25:00+0200","id":124045,"name":"Vroni","coordinate":{"longitude":11.56739998,"latitude":48.12749863},"fuelLevel":0.9199999999999999,"lastAddress":"Holzstraße 45, 80469 München, Germany"}
{"timestamp":"2016-10-05T20:25:00+0200","id":124018,"name":"Toni","coordinate":{"longitude":11.5703001,"latitude":48.13119888},"fuelLevel":0.9199999999999999,"lastAddress":"Angertorstraße 5, 80469 München, Germany"}
{"timestamp":"2016-10-05T20:25:00+0200","id":124012,"name":"Peter","coordinate":{"longitude":11.57260036,"latitude":48.14979935},"fuelLevel":1,"lastAddress":"Barer Str. 48-50, 80799 München, Germany"}
{"timestamp":"2016-10-05T20:25:00+0200","id":124004,"name":"Fridl","coordinate":{"longitude":11.56599998,"latitude":48.15620041},"fuelLevel":0.55,"lastAddress":"Josephspl. 5, 80798 München, Germany"}
{"timestamp":"2016-10-05T20:25:00+0200","id":124031,"name":"Heidi","coordinate":{"longitude":11.56659985,"latitude":48.15010071},"fuelLevel":0.8,"lastAddress":"Luisenstraße 55, 80333 München, Germany"}
{"timestamp":"2016-10-05T20:25:00+0200","id":124002,"name":"Ferdl","coordinate":{"longitude":11.5649004,"latitude":48.15219879},"fuelLevel":0.9500000000000001,"lastAddress":"Heßstraße 39, 80798 München, Germany"}
{"timestamp":"2016-10-05T20:25:00+0200","id":124048,"name":"Wiggerl","coordinate":{"longitude":11.5788002,"latitude":48.1609993},"fuelLevel":0.68,"lastAddress":"Kaiserstraße 45, 80801 München, Germany"}
{"timestamp":"2016-10-05T20:25:00+0200","id":124028,"name":"Gitte","coordinate":{"longitude":11.5770998,"latitude":48.16030121},"fuelLevel":0.75,"lastAddress":"Römerstraße 21, 80801 München, Germany"}
{"timestamp":"2016-10-05T20:25:00+0200","id":124027,"name":"Fanni","coordinate":{"longitude":11.57740021,"latitude":48.15850067},"fuelLevel":0.7899999999999999,"lastAddress":"Römerstraße 6, 80801 München, Germany"}
{"timestamp":"2016-10-05T20:25:00+0200","id":124005,"name":"Georg","coordinate":{"longitude":11.58160019,"latitude":48.15879822},"fuelLevel":0.66,"lastAddress":"Ainmillerstraße 18, 80801 München, Germany"}
{"timestamp":"2016-10-05T20:25:00+0200","id":124032,"name":"Irmi","coordinate":{"longitude":11.57299995,"latitude":48.15999985},"fuelLevel":0.64,"lastAddress":"Isabellastraße 45-47, 80796 München, Germany"}
{"timestamp":"2016-10-05T20:25:00+0200","id":124037,"name":"Luise","coordinate":{"longitude":11.56620026,"latitude":48.15790176},"fuelLevel":0.58,"lastAddress":"Hiltenspergerstraße 18, 80798 München, Germany"}
{"timestamp":"2016-10-05T20:25:00+0200","id":124017,"name":"Siggi","coordinate":{"longitude":11.57129955,"latitude":48.16080093},"fuelLevel":0.56,"lastAddress":"Hohenzollernstraße 110, 80796 München, Germany"}
{"timestamp":"2016-10-05T20:25:00+0200","id":124029,"name":"Hannah","coordinate":{"longitude":11.50990009,"latitude":48.04550171},"fuelLevel":0.7,"lastAddress":"Gistlstraße 159, 82049 Pullach im Isartal, Germany"}
{"timestamp":"2016-10-05T20:25:00+0200","id":124008,"name":"Johann","coordinate":{"longitude":11.50990009,"latitude":48.04539871},"fuelLevel":0.87,"lastAddress":"Gistlstraße 159, 82049 Pullach im Isartal, Germany"}
{"timestamp":"2016-10-05T20:25:00+0200","id":124039,"name":"Marie","coordinate":{"longitude":11.50949955,"latitude":48.04560089},"fuelLevel":0.58,"lastAddress":"Seitnerstraße 70, 82049 Pullach im Isartal, Germany"}
{"timestamp":"2016-10-05T20:25:00+0200","id":124009,"name":"Ludwig","coordinate":{"longitude":11.58479977,"latitude":48.16220093},"fuelLevel":0.8999999999999999,"lastAddress":"Herzogstraße 4, 80803 München, Germany"}
{"timestamp":"2016-10-05T20:25:00+0200","id":124007,"name":"Jakob","coordinate":{"longitude":11.57489967,"latitude":48.16719818},"fuelLevel":0.9400000000000001,"lastAddress":"Karl-Theodor-Straße 80, 80803 München, Germany"}