{"timestamp":"2016-11-13T17:50:00+0100","id":124041,"name":"Sophie","coordinate":{"longitude":11.58059692,"latitude":48.15161133},"fuelLevel":0.63,"lastAddress":"Adalbertstraße 8, 80799 München, Germany"}
{"timestamp":"2016-11-13T17:50:00+0100","id":124026,"name":"Eva","coordinate":{"longitude":11.57980347,"latitude":48.1526947},"fuelLevel":0.89,"lastAddress":"Akademiestraße 11, 80799 München, Germany"}
{"timestamp":"2016-11-13T17:50:00+0100","id":124025,"name":"Elli","coordinate":{"longitude":11.57791138,"latitude":48.14978027},"fuelLevel":0.5599999999999999,"lastAddress":"Schellingstraße 16, 80799 München, Germany"}
{"timestamp":"2016-11-13T17:50:00+0100","id":124014,"name":"Quirin","coordinate":{"longitude":11.59919739,"latitude":48.13598633},"fuelLevel":0.9583333333333334,"lastAddress":"Einsteinstraße 3, 81675 München, Germany"}
{"timestamp":"2016-11-13T17:50:00+0100","id":124034,"name":"Kathi","coordinate":{"longitude":11.6051178,"latitude":48.13011169},"fuelLevel":0.81,"lastAddress":"Elsässer Str. 27-29, 81667 München, Germany"}
{"timestamp":"2016-11-13T17:50:00+0100","id":124030,"name":"Hedwig","coordinate":{"longitude":11.56370544,"latitude":48.12818909},"fuelLevel":0.63,"lastAddress":"Waltherstraße 5, 80337 München, Germany"}
{"timestamp":"2016-11-13T17:50:00+0100","id":124016,"name":"Sepp","coordinate":{"longitude":11.59918213,"latitude":48.13040161},"fuelLevel":0.59,"lastAddress":"Metzstraße 32, 81667 München, Germany"}
{"timestamp":"2016-11-13T17:50:00+0100","id":124022,"name":"Anne","coordinate":{"longitude":11.59809875,"latitude":48.12701416},"fuelLevel":0.9,"lastAddress":"Pariser Str. 26, 81667 München, Germany"}
{"timestamp":"2016-11-13T17:50:00+0100","id":124000,"name":"Bertl","coordinate":{"longitude":11.59700012,"latitude":48.12799072},"fuelLevel":0.58,"lastAddress":"Lothringer Str. 4-6, 81667 München, Germany"}
{"timestamp":"2016-11-13T17:50:00+0100","id":124003,"name":"Franzl","coordinate":{"longitude":11.58988953,"latitude":48.12518311},"fuelLevel":0.79,"lastAddress":"Franziskanerstraße 43, 81669 München, Germany"}
{"timestamp":"2016-11-13T17:50:00+0100","id":124019,"name":"Valentin","coordinate":{"longitude":11.58189392,"latitude":48.12098694},"fuelLevel":0.6499999999999999,"lastAddress":"Hochstraße 81, 81541 München, Germany"}
{"timestamp":"2016-11-13T17:50:00+0100","id":124035,"name":"Leonie","coordinate":{"longitude":11.58360291,"latitude":48.12789917},"fuelLevel":0.47000000000000003,"lastAddress":"Zeppelinstraße 43, 81669 München, Germany"}
{"timestamp":"2016-11-13T17:50:00+0100","id":124004,"name":"Fridl","coordinate":{"longitude":11.5592041,"latitude":48.15391541},"fuelLevel":0.88,"lastAddress":"Heßstraße 100, 80797 München, Germany"}
{"timestamp":"2016-11-13T17:50:00+0100","id":124047,"name":"Walli","coordinate":{"longitude":11.56648254,"latitude":48.14927673},"fuelLevel":0.8,"lastAddress":"Luisenstraße 47A, 80333 München, Germany"}
{"timestamp":"2016-11-13T17:50:00+0100","id":124002,"name":"Ferdl","coordinate":{"longitude":11.56344604,"latitude":48.14967346},"fuelLevel":0.59,"lastAddress":"Augustenstraße 70, 80333 München, Germany"}
{"timestamp":"2016-11-13T17:50:00+0100","id":124048,"name":"Wiggerl","coordinate":{"longitude":11.5776825,"latitude":48.15788269},"fuelLevel":0.88,"lastAddress":"Franz-Joseph-Straße 38, 80801 München, Germany"}
{"timestamp":"2016-11-13T17:50:00+0100","id":124028,"name":"Gitte","coordinate":{"longitude":11.57809448,"latitude":48.15771484},"fuelLevel":0.58,"lastAddress":"Franz-Joseph-Straße 35, 80801 München, Germany"}
{"timestamp":"2016-11-13T17:50:00+0100","id":124027,"name":"Fanni","coordinate":{"longitude":11.58337402,"latitude":48.1608429},"fuelLevel":0.9,"lastAddress":"Kaiserstraße 19, 80801 München, Germany"}
{"timestamp":"2016-11-13T17:50:00+0100","id":124005,"name":"Georg","coordinate":{"longitude":11.57710266,"latitude":48.15820312},"fuelLevel":0.8,"lastAddress":"Römerstraße 4, 80801 München, Germany"}
{"timestamp":"2016-11-13T17:50:00+0100","id":124001,"name":"Edmund","coordinate":{"longitude":11.57669067,"latitude":48.1612854},"fuelLevel":0.63,"lastAddress":"Kaiserstraße 59-61, 80801 München, Germany"}
{"timestamp":"2016-11-13T17:50:00+0100","id":124032,"name":"Irmi","coordinate":{"longitude":11.57481384,"latitude":48.15951538},"fuelLevel":0.58,"lastAddress":"Nordendstraße 64, 80801 München, Germany"}
{"timestamp":"2016-11-13T17:50:00+0100","id":124037,"name":"Luise","coordinate":{"longitude":11.56811523,"latitude":48.15679932},"fuelLevel":0.63,"lastAddress":"Georgenstraße 104, 80798 München, Germany"}
{"timestamp":"2016-11-13T17:50:00+0100","id":124017,"name":"Siggi","coordinate":{"longitude":11.5690155,"latitude":48.1592865},"fuelLevel":0.67,"lastAddress":"Tengstraße 31, 80796 München, Germany"}
{"timestamp":"2016-11-13T17:50:00+0100","id":124029,"name":"Hannah","coordinate":{"longitude":11.50950623,"latitude":48.04550171},"fuelLevel":0.89,"lastAddress":"Seitnerstraße 70, 82049 Pullach im Isartal, Germany"}
{"timestamp":"2016-11-13T17:50:00+0100","id":124008,"name":"Johann","coordinate":{"longitude":11.5098877,"latitude":48.04530334},"fuelLevel":0.88,"lastAddress":"Seitnerstraße 70, 82049 Pullach im Isartal, Germany"}
{"timestamp":"2016-11-13T17:50:00+0100","id":124039,"name":"Marie","coordinate":{"longitude":11.5098877,"latitude":48.045578},"fuelLevel":0.84,"lastAddress":"Gistlstraße 159, 82049 Pullach im Isartal, Germany"}
{"timestamp":"2016-11-13T17:50:00+0100","id":124007,"name":"Jakob","coordinate":{"longitude":11.57409668,"latitude":48.16430664},"fuelLevel":0.84,"lastAddress":"Belgradstraße 37, 80796 München, Germany"}