{"timestamp":"2016-11-08T06:10:00+0100","id":124041,"name":"Sophie","coordinate":{"longitude":11.58039856,"latitude":48.15150452},"fuelLevel":0.64,"lastAddress":"Hauptgebäude, Geschwister-Scholl-Platz 1, 80539 München, Germany"}
{"timestamp":"2016-11-08T06:10:00+0100","id":124026,"name":"Eva","coordinate":{"longitude":11.57980347,"latitude":48.1526947},"fuelLevel":0.89,"lastAddress":"Akademiestraße 11, 80799 München, Germany"}
{"timestamp":"2016-11-08T06:10:00+0100","id":124025,"name":"Elli","coordinate":{"longitude":11.57780457,"latitude":48.14990234},"fuelLevel":0.5700000000000001,"lastAddress":"Schellingstraße 16, 80799 München, Germany"}
{"timestamp":"2016-11-08T06:10:00+0100","id":124033,"name":"Johanna","coordinate":{"longitude":11.57839966,"latitude":48.15310669},"fuelLevel":0.55,"lastAddress":"Akademiestraße 4, 80799 München, Germany"}
{"timestamp":"2016-11-08T06:10:00+0100","id":124044,"name":"Uschi","coordinate":{"longitude":11.57168579,"latitude":48.13253784},"fuelLevel":0.52,"lastAddress":"Blumenstraße 28, 80331 München, Germany"}
{"timestamp":"2016-11-08T06:10:00+0100","id":124040,"name":"Reserl","coordinate":{"longitude":11.58158875,"latitude":48.13357544},"fuelLevel":0.86,"lastAddress":"Baaderstraße 2-4, 80469 München, Germany"}
{"timestamp":"2016-11-08T06:10:00+0100","id":124021,"name":"Xaver","coordinate":{"longitude":11.57200623,"latitude":48.13090515},"fuelLevel":0.88,"lastAddress":"Fraunhoferstraße 6, 80469 München, Germany"}
{"timestamp":"2016-11-08T06:10:00+0100","id":124014,"name":"Quirin","coordinate":{"longitude":11.60020447,"latitude":48.13420105},"fuelLevel":0.35,"lastAddress":"Kirchenstraße 15, 81675 München, Germany"}
{"timestamp":"2016-11-08T06:10:00+0100","id":124034,"name":"Kathi","coordinate":{"longitude":11.6053009,"latitude":48.12971497},"fuelLevel":0.9099999999999999,"lastAddress":"Elsässer Str. 31, 81667 München, Germany"}
{"timestamp":"2016-11-08T06:10:00+0100","id":124023,"name":"Babsi","coordinate":{"longitude":11.56741333,"latitude":48.13108826},"fuelLevel":0.72,"lastAddress":"Pestalozzistraße 9-11, 80469 München, Germany"}
{"timestamp":"2016-11-08T06:10:00+0100","id":124016,"name":"Sepp","coordinate":{"longitude":11.59916687,"latitude":48.13040161},"fuelLevel":0.59,"lastAddress":"Metzstraße 30, 81667 München, Germany"}
{"timestamp":"2016-11-08T06:10:00+0100","id":124000,"name":"Bertl","coordinate":{"longitude":11.59695435,"latitude":48.12794495},"fuelLevel":0.58,"lastAddress":"Lothringer Str. 4, 81667 München, Germany"}
{"timestamp":"2016-11-08T06:10:00+0100","id":124013,"name":"Poldi","coordinate":{"longitude":11.59030151,"latitude":48.12539673},"fuelLevel":0.86,"lastAddress":"Franziskanerstraße 43, 81669 München, Germany"}
{"timestamp":"2016-11-08T06:10:00+0100","id":124011,"name":"Maxl","coordinate":{"longitude":11.5974884,"latitude":48.12420654},"fuelLevel":0.62,"lastAddress":"Orleansstraße 1, 81669 München, Germany"}
{"timestamp":"2016-11-08T06:10:00+0100","id":124003,"name":"Franzl","coordinate":{"longitude":11.58988953,"latitude":48.12518311},"fuelLevel":0.79,"lastAddress":"Franziskanerstraße 43, 81669 München, Germany"}
{"timestamp":"2016-11-08T06:10:00+0100","id":124019,"name":"Valentin","coordinate":{"longitude":11.58187866,"latitude":48.12101746},"fuelLevel":0.6499999999999999,"lastAddress":"Zacherlweg, 81541 München, Germany"}
{"timestamp":"2016-11-08T06:10:00+0100","id":124035,"name":"Leonie","coordinate":{"longitude":11.58129883,"latitude":48.12750244},"fuelLevel":0.64,"lastAddress":"Schweigerstraße 4, 81541 München, Germany"}
{"timestamp":"2016-11-08T06:10:00+0100","id":124006,"name":"Gustl","coordinate":{"longitude":11.57789612,"latitude":48.12290955},"fuelLevel":0.5900000000000001,"lastAddress":"Entenbachstraße 26, 81541 München, Germany"}
{"timestamp":"2016-11-08T06:10:00+0100","id":124049,"name":"Marei","coordinate":{"longitude":11.57919979,"latitude":48.12459946},"fuelLevel":0.62,"lastAddress":"Boosstraße 17, 81541 München, Germany"}
{"timestamp":"2016-11-08T06:10:00+0100","id":124045,"name":"Vroni","coordinate":{"longitude":11.56849957,"latitude":48.1310997},"fuelLevel":0.8500000000000001,"lastAddress":"Müllerstraße 43, 80469 München, Germany"}
{"timestamp":"2016-11-08T06:10:00+0100","id":124012,"name":"Peter","coordinate":{"longitude":11.56219482,"latitude":48.15689087},"fuelLevel":0.8099999999999999,"lastAddress":"Schleißheimer Str. 104, 80797 München, Germany"}
{"timestamp":"2016-11-08T06:10:00+0100","id":124031,"name":"Heidi","coordinate":{"longitude":11.56390381,"latitude":48.15060425},"fuelLevel":0.55,"lastAddress":"Augustenstraße 77-79, 80333 München, Germany"}
{"timestamp":"2016-11-08T06:10:00+0100","id":124047,"name":"Walli","coordinate":{"longitude":11.5664978,"latitude":48.14929199},"fuelLevel":0.8,"lastAddress":"Luisenstraße 47A, 80333 München, Germany"}
{"timestamp":"2016-11-08T06:10:00+0100","id":124002,"name":"Ferdl","coordinate":{"longitude":11.56352234,"latitude":48.14971924},"fuelLevel":0.7799999999999999,"lastAddress":"Augustenstraße 72, 80333 München, Germany"}
{"timestamp":"2016-11-08T06:10:00+0100","id":124048,"name":"Wiggerl","coordinate":{"longitude":11.57539368,"latitude":48.15869141},"fuelLevel":0.54,"lastAddress":"Kurfürstenstraße 55, 80801 München, Germany"}
{"timestamp":"2016-11-08T06:10:00+0100","id":124028,"name":"Gitte","coordinate":{"longitude":11.57720947,"latitude":48.15789795},"fuelLevel":0.62,"lastAddress":"Römerstraße 4, 80801 München, Germany"}
{"timestamp":"2016-11-08T06:10:00+0100","id":124027,"name":"Fanni","coordinate":{"longitude":11.58450031,"latitude":48.16220093},"fuelLevel":0.48000000000000004,"lastAddress":"Herzogstraße 8, 80803 München, Germany"}
{"timestamp":"2016-11-08T06:10:00+0100","id":124005,"name":"Georg","coordinate":{"longitude":11.57680035,"latitude":48.15800095},"fuelLevel":0.8500000000000001,"lastAddress":"Römerstraße 1, 80801 München, Germany"}
{"timestamp":"2016-11-08T06:10:00+0100","id":124001,"name":"Edmund","coordinate":{"longitude":11.57670593,"latitude":48.16130066},"fuelLevel":0.63,"lastAddress":"Kaiserstraße 59-61, 80801 München, Germany"}
{"timestamp":"2016-11-08T06:10:00+0100","id":124032,"name":"Irmi","coordinate":{"longitude":11.57498169,"latitude":48.15888977},"fuelLevel":0.57,"lastAddress":"Nordendstraße 62-64, 80801 München, Germany"}
{"timestamp":"2016-11-08T06:10:00+0100","id":124029,"name":"Hannah","coordinate":{"longitude":11.50959778,"latitude":48.04550171},"fuelLevel":0.71,"lastAddress":"Seitnerstraße 70, 82049 Pullach im Isartal, Germany"}
{"timestamp":"2016-11-08T06:10:00+0100","id":124008,"name":"Johann","coordinate":{"longitude":11.50970459,"latitude":48.04537964},"fuelLevel":0.51,"lastAddress":"Seitnerstraße 70, 82049 Pullach im Isartal, Germany"}
{"timestamp":"2016-11-08T06:10:00+0100","id":124039,"name":"Marie","coordinate":{"longitude":11.50959778,"latitude":48.0453949},"fuelLevel":0.63,"lastAddress":"Seitnerstraße 70, 82049 Pullach im Isartal, Germany"}
{"timestamp":"2016-11-08T06:10:00+0100","id":124009,"name":"Ludwig","coordinate":{"longitude":11.58268738,"latitude":48.16531372},"fuelLevel":0.66,"lastAddress":"Muffatstraße 3, 80803 München, Germany"}
{"timestamp":"2016-11-08T06:10:00+0100","id":124007,"name":"Jakob","coordinate":{"longitude":11.57409668,"latitude":48.16430664},"fuelLevel":0.84,"lastAddress":"Belgradstraße 37, 80796 München, Germany"}