{"timestamp":"2016-10-19T22:15:00+0200","id":124041,"name":"Sophie","coordinate":{"longitude":11.58100033,"latitude":48.1515007},"fuelLevel":0.78,"lastAddress":"Adalbertstraße 8A, 80799 München, Germany"}
{"timestamp":"2016-10-19T22:15:00+0200","id":124026,"name":"Eva","coordinate":{"longitude":11.58059978,"latitude":48.14989853},"fuelLevel":0.9199999999999999,"lastAddress":"Hauptgebäude, Geschwister-Scholl-Platz 1, 80539 München, Germany"}
{"timestamp":"2016-10-19T22:15:00+0200","id":124025,"name":"Elli","coordinate":{"longitude":11.57929993,"latitude":48.15570068},"fuelLevel":0.8300000000000001,"lastAddress":"Konradstraße 16, 80801 München, Germany"}
{"timestamp":"2016-10-19T22:15:00+0200","id":124044,"name":"Uschi","coordinate":{"longitude":11.57240009,"latitude":48.13190079},"fuelLevel":0.71,"lastAddress":"Müllerstraße 20, 80469 München, Germany"}
{"timestamp":"2016-10-19T22:15:00+0200","id":124040,"name":"Reserl","coordinate":{"longitude":11.57260036,"latitude":48.13270187},"fuelLevel":0.77,"lastAddress":"Theklastraße 1, 80469 München, Germany"}
{"timestamp":"2016-10-19T22:15:00+0200","id":124014,"name":"Quirin","coordinate":{"longitude":11.59659958,"latitude":48.13499832},"fuelLevel":0.57,"lastAddress":"An der Kreppe 1, 81667 München, Germany"}
{"timestamp":"2016-10-19T22:15:00+0200","id":124034,"name":"Kathi","coordinate":{"longitude":11.60879993,"latitude":48.13270187},"fuelLevel":0.57,"lastAddress":"Kirchenstraße 88, 81675 München, Germany"}
{"timestamp":"2016-10-19T22:15:00+0200","id":124013,"name":"Poldi","coordinate":{"longitude":11.59440041,"latitude":48.12760162},"fuelLevel":0.61,"lastAddress":"Balanstraße 6A, 81669 München, Germany"}
{"timestamp":"2016-10-19T22:15:00+0200","id":124011,"name":"Maxl","coordinate":{"longitude":11.59500027,"latitude":48.12760162},"fuelLevel":0.6699999999999999,"lastAddress":"Rosenheimer Str. 66, 81669 München, Germany"}
{"timestamp":"2016-10-19T22:15:00+0200","id":124003,"name":"Franzl","coordinate":{"longitude":11.59319973,"latitude":48.1269989},"fuelLevel":0.7799999999999999,"lastAddress":"Rablstraße 36, 81669 München, Germany"}
{"timestamp":"2016-10-19T22:15:00+0200","id":124010,"name":"Luitpold","coordinate":{"longitude":11.58759975,"latitude":48.12760162},"fuelLevel":0.87,"lastAddress":"Hochstraße 19, 81669 München, Germany"}
{"timestamp":"2016-10-19T22:15:00+0200","id":124020,"name":"Vinzenz","coordinate":{"longitude":11.57789993,"latitude":48.12590027},"fuelLevel":0.75,"lastAddress":"Boosstraße 3, 81541 München, Germany"}
{"timestamp":"2016-10-19T22:15:00+0200","id":124049,"name":"Marei","coordinate":{"longitude":11.57429981,"latitude":48.12239838},"fuelLevel":0.9400000000000001,"lastAddress":"Sommerstraße 8, 81543 München, Germany"}
{"timestamp":"2016-10-19T22:15:00+0200","id":124045,"name":"Vroni","coordinate":{"longitude":11.56499958,"latitude":48.12409973},"fuelLevel":0.64,"lastAddress":"Kapuzinerstraße 37, 80469 München, Germany"}
{"timestamp":"2016-10-19T22:15:00+0200","id":124018,"name":"Toni","coordinate":{"longitude":11.56999969,"latitude":48.12950134},"fuelLevel":0.6499999999999999,"lastAddress":"Hans-Sachs-Straße 11, 80469 München, Germany"}
{"timestamp":"2016-10-19T22:15:00+0200","id":124004,"name":"Fridl","coordinate":{"longitude":11.55580044,"latitude":48.15510178},"fuelLevel":0.58,"lastAddress":"Lothstraße 64, 80335 München, Germany"}
{"timestamp":"2016-10-19T22:15:00+0200","id":124031,"name":"Heidi","coordinate":{"longitude":11.56369972,"latitude":48.15000153},"fuelLevel":0.62,"lastAddress":"Augustenstraße 74, 80333 München, Germany"}
{"timestamp":"2016-10-19T22:15:00+0200","id":124047,"name":"Walli","coordinate":{"longitude":11.57260036,"latitude":48.1493988},"fuelLevel":0.6499999999999999,"lastAddress":"Barer Str. 42, 80799 München, Germany"}
{"timestamp":"2016-10-19T22:15:00+0200","id":124028,"name":"Gitte","coordinate":{"longitude":11.57590008,"latitude":48.16019821},"fuelLevel":0.7200000000000001,"lastAddress":"Hohenzollernstraße 49, 80801 München, Germany"}
{"timestamp":"2016-10-19T22:15:00+0200","id":124032,"name":"Irmi","coordinate":{"longitude":11.57050037,"latitude":48.15919876},"fuelLevel":0.9400000000000001,"lastAddress":"Jakob-Klar-Straße 1, 80796 München, Germany"}
{"timestamp":"2016-10-19T22:15:00+0200","id":124037,"name":"Luise","coordinate":{"longitude":11.57190037,"latitude":48.15729904},"fuelLevel":0.9500000000000001,"lastAddress":"Agnesstraße 6, 80801 München, Germany"}
{"timestamp":"2016-10-19T22:15:00+0200","id":124017,"name":"Siggi","coordinate":{"longitude":11.57320023,"latitude":48.16030121},"fuelLevel":0.56,"lastAddress":"Isabellastraße 46-48, 80796 München, Germany"}
{"timestamp":"2016-10-19T22:15:00+0200","id":124029,"name":"Hannah","coordinate":{"longitude":11.51000023,"latitude":48.04560089},"fuelLevel":0.59,"lastAddress":"Gistlstraße 159, 82049 Pullach im Isartal, Germany"}
{"timestamp":"2016-10-19T22:15:00+0200","id":124009,"name":"Ludwig","coordinate":{"longitude":11.58650017,"latitude":48.16500092},"fuelLevel":0.59,"lastAddress":"Leopoldstraße 102, 80802 München, Germany"}
{"timestamp":"2016-10-19T22:15:00+0200","id":124007,"name":"Jakob","coordinate":{"longitude":11.57439995,"latitude":48.16699982},"fuelLevel":0.9500000000000001,"lastAddress":"Karl-Theodor-Straße 79, 80803 München, Germany"}