{"timestamp":"2016-09-30T12:30:00+0200","id":124041,"name":"Sophie","coordinate":{"longitude":11.57759953,"latitude":48.15000153},"fuelLevel":0.93,"lastAddress":"Schellingstraße 18, 80799 München, Germany"}
{"timestamp":"2016-09-30T12:30:00+0200","id":124026,"name":"Eva","coordinate":{"longitude":11.5781002,"latitude":48.15390015},"fuelLevel":0.61,"lastAddress":"Türkenstraße 97, 80799 München, Germany"}
{"timestamp":"2016-09-30T12:30:00+0200","id":124025,"name":"Elli","coordinate":{"longitude":11.57610035,"latitude":48.1554985},"fuelLevel":0.77,"lastAddress":"Kurfürstenstraße 21, 80801 München, Germany"}
{"timestamp":"2016-09-30T12:30:00+0200","id":124033,"name":"Johanna","coordinate":{"longitude":11.58110046,"latitude":48.15250015},"fuelLevel":0.88,"lastAddress":"Akademiestraße 5, 80799 München, Germany"}
{"timestamp":"2016-09-30T12:30:00+0200","id":124036,"name":"Liesel","coordinate":{"longitude":11.57520008,"latitude":48.15620041},"fuelLevel":0.6699999999999999,"lastAddress":"Nordendstraße 34, 80801 München, Germany"}
{"timestamp":"2016-09-30T12:30:00+0200","id":124024,"name":"Christl","coordinate":{"longitude":11.57960033,"latitude":48.13389969},"fuelLevel":0.8,"lastAddress":"Klenzestraße 1A, 80469 München, Germany"}
{"timestamp":"2016-09-30T12:30:00+0200","id":124040,"name":"Reserl","coordinate":{"longitude":11.57890034,"latitude":48.13140106},"fuelLevel":0.79,"lastAddress":"Baaderstraße 34, 80469 München, Germany"}
{"timestamp":"2016-09-30T12:30:00+0200","id":124021,"name":"Xaver","coordinate":{"longitude":11.58069992,"latitude":48.13270187},"fuelLevel":0.52,"lastAddress":"Baaderstraße 7-9, 80469 München, Germany"}
{"timestamp":"2016-09-30T12:30:00+0200","id":124034,"name":"Kathi","coordinate":{"longitude":11.60499954,"latitude":48.13230133},"fuelLevel":0.67,"lastAddress":"Elsässer Str. 6, 81667 München, Germany"}
{"timestamp":"2016-09-30T12:30:00+0200","id":124030,"name":"Hedwig","coordinate":{"longitude":11.56760025,"latitude":48.13130188},"fuelLevel":0.89,"lastAddress":"Pestalozzistraße 7, 80469 München, Germany"}
{"timestamp":"2016-09-30T12:30:00+0200","id":124023,"name":"Babsi","coordinate":{"longitude":11.56369972,"latitude":48.12720108},"fuelLevel":0.93,"lastAddress":"Thalkirchner Str. 54, 80337 München, Germany"}
{"timestamp":"2016-09-30T12:30:00+0200","id":124038,"name":"Magda","coordinate":{"longitude":11.60009956,"latitude":48.12829971},"fuelLevel":0.76,"lastAddress":"Pariser Pl., 81667 München, Germany"}
{"timestamp":"2016-09-30T12:30:00+0200","id":124022,"name":"Anne","coordinate":{"longitude":11.59679985,"latitude":48.12670135},"fuelLevel":0.8900000000000001,"lastAddress":"Rosenheimer Str. 88, 81669 München, Germany"}
{"timestamp":"2016-09-30T12:30:00+0200","id":124000,"name":"Bertl","coordinate":{"longitude":11.59490013,"latitude":48.12960052},"fuelLevel":0.84,"lastAddress":"Steinstraße 77, 81667 München, Germany"}
{"timestamp":"2016-09-30T12:30:00+0200","id":124013,"name":"Poldi","coordinate":{"longitude":11.5958004,"latitude":48.12799835},"fuelLevel":0.79,"lastAddress":"Metzstraße 2, 81667 München, Germany"}
{"timestamp":"2016-09-30T12:30:00+0200","id":124011,"name":"Maxl","coordinate":{"longitude":11.59259987,"latitude":48.12599945},"fuelLevel":0.8099999999999999,"lastAddress":"Sieboldstraße 2, 81669 München, Germany"}
{"timestamp":"2016-09-30T12:30:00+0200","id":124003,"name":"Franzl","coordinate":{"longitude":11.59319973,"latitude":48.12739944},"fuelLevel":0.79,"lastAddress":"Franziskanerstraße 15, 81669 München, Germany"}
{"timestamp":"2016-09-30T12:30:00+0200","id":124010,"name":"Luitpold","coordinate":{"longitude":11.58609962,"latitude":48.1257019},"fuelLevel":0.88,"lastAddress":"Gebsattelstraße 2, 81541 München, Germany"}
{"timestamp":"2016-09-30T12:30:00+0200","id":124019,"name":"Valentin","coordinate":{"longitude":11.58510017,"latitude":48.12369919},"fuelLevel":0.9199999999999999,"lastAddress":"Hochstraße 49C, 81541 München, Germany"}
{"timestamp":"2016-09-30T12:30:00+0200","id":124035,"name":"Leonie","coordinate":{"longitude":11.5855999,"latitude":48.12900162},"fuelLevel":0.7899999999999999,"lastAddress":"Schwarzstraße 4, 81669 München, Germany"}
{"timestamp":"2016-09-30T12:30:00+0200","id":124006,"name":"Gustl","coordinate":{"longitude":11.57759953,"latitude":48.12129974},"fuelLevel":0.93,"lastAddress":"Falkenstraße 42A, 81541 München, Germany"}
{"timestamp":"2016-09-30T12:30:00+0200","id":124020,"name":"Vinzenz","coordinate":{"longitude":11.57890034,"latitude":48.12350082},"fuelLevel":0.9099999999999999,"lastAddress":"Albanistraße 17, 81541 München, Germany"}
{"timestamp":"2016-09-30T12:30:00+0200","id":124049,"name":"Marei","coordinate":{"longitude":11.57390022,"latitude":48.12030029},"fuelLevel":0.7200000000000001,"lastAddress":"Humboldtstraße 21, 81543 München, Germany"}
{"timestamp":"2016-09-30T12:30:00+0200","id":124045,"name":"Vroni","coordinate":{"longitude":11.56719971,"latitude":48.12779999},"fuelLevel":0.9199999999999999,"lastAddress":"Pestalozzistraße 54, 80469 München, Germany"}
{"timestamp":"2016-09-30T12:30:00+0200","id":124012,"name":"Peter","coordinate":{"longitude":11.57260036,"latitude":48.14979935},"fuelLevel":1,"lastAddress":"Barer Str. 48-50, 80799 München, Germany"}
{"timestamp":"2016-09-30T12:30:00+0200","id":124004,"name":"Fridl","coordinate":{"longitude":11.56529999,"latitude":48.15670013},"fuelLevel":0.55,"lastAddress":"Georgenstraße 97, 80798 München, Germany"}
{"timestamp":"2016-09-30T12:30:00+0200","id":124031,"name":"Heidi","coordinate":{"longitude":11.56649971,"latitude":48.15019989},"fuelLevel":0.8,"lastAddress":"Theresienstraße 43, 80333 München, Germany"}
{"timestamp":"2016-09-30T12:30:00+0200","id":124002,"name":"Ferdl","coordinate":{"longitude":11.56369972,"latitude":48.15100098},"fuelLevel":0.9500000000000001,"lastAddress":"Augustenstraße 81, 80333 München, Germany"}
{"timestamp":"2016-09-30T12:30:00+0200","id":124048,"name":"Wiggerl","coordinate":{"longitude":11.57730007,"latitude":48.15919876},"fuelLevel":0.7200000000000001,"lastAddress":"Römerstraße 10, 80801 München, Germany"}
{"timestamp":"2016-09-30T12:30:00+0200","id":124028,"name":"Gitte","coordinate":{"longitude":11.58059978,"latitude":48.16159821},"fuelLevel":0.77,"lastAddress":"Kaiserpl. 1, 80803 München, Germany"}
{"timestamp":"2016-09-30T12:30:00+0200","id":124027,"name":"Fanni","coordinate":{"longitude":11.57730007,"latitude":48.15969849},"fuelLevel":0.8099999999999999,"lastAddress":"Römerstraße 15, 80801 München, Germany"}
{"timestamp":"2016-09-30T12:30:00+0200","id":124005,"name":"Georg","coordinate":{"longitude":11.58119965,"latitude":48.15869904},"fuelLevel":0.69,"lastAddress":"Ainmillerstraße 17, 80801 München, Germany"}
{"timestamp":"2016-09-30T12:30:00+0200","id":124001,"name":"Edmund","coordinate":{"longitude":11.57789993,"latitude":48.15829849},"fuelLevel":0.62,"lastAddress":"Ainmillerstraße 31, 80801 München, Germany"}
{"timestamp":"2016-09-30T12:30:00+0200","id":124032,"name":"Irmi","coordinate":{"longitude":11.57390022,"latitude":48.16049957},"fuelLevel":0.64,"lastAddress":"Hohenzollernstraße 88-90, 80796 München, Germany"}
{"timestamp":"2016-09-30T12:30:00+0200","id":124037,"name":"Luise","coordinate":{"longitude":11.56630039,"latitude":48.15800095},"fuelLevel":0.9027777777777778,"lastAddress":"Hiltenspergerstraße 18, 80798 München, Germany"}
{"timestamp":"2016-09-30T12:30:00+0200","id":124017,"name":"Siggi","coordinate":{"longitude":11.5710001,"latitude":48.16070175},"fuelLevel":0.56,"lastAddress":"Hohenzollernstraße 79, 80796 München, Germany"}
{"timestamp":"2016-09-30T12:30:00+0200","id":124029,"name":"Hannah","coordinate":{"longitude":11.51010036,"latitude":48.04529953},"fuelLevel":0.7,"lastAddress":"Gistlstraße 159, 82049 Pullach im Isartal, Germany"}
{"timestamp":"2016-09-30T12:30:00+0200","id":124042,"name":"Tilli","coordinate":{"longitude":11.50969982,"latitude":48.04529953},"fuelLevel":0.77,"lastAddress":"Seitnerstraße 70, 82049 Pullach im Isartal, Germany"}
{"timestamp":"2016-09-30T12:30:00+0200","id":124009,"name":"Ludwig","coordinate":{"longitude":11.58479977,"latitude":48.16220093},"fuelLevel":0.89,"lastAddress":"Herzogstraße 4, 80803 München, Germany"}
{"timestamp":"2016-09-30T12:30:00+0200","id":124007,"name":"Jakob","coordinate":{"longitude":11.58640003,"latitude":48.16389847},"fuelLevel":0.9500000000000001,"lastAddress":"Leopoldstraße 85, 80802 München, Germany"}