{"timestamp":"2016-11-05T03:20:00+0100","id":124041,"name":"Sophie","coordinate":{"longitude":11.58041382,"latitude":48.15161133},"fuelLevel":0.64,"lastAddress":"Adalbertstraße 12, 80799 München, Germany"}
{"timestamp":"2016-11-05T03:20:00+0100","id":124033,"name":"Johanna","coordinate":{"longitude":11.57839966,"latitude":48.15310669},"fuelLevel":0.55,"lastAddress":"Akademiestraße 4, 80799 München, Germany"}
{"timestamp":"2016-11-05T03:20:00+0100","id":124036,"name":"Liesel","coordinate":{"longitude":11.58059692,"latitude":48.15168762},"fuelLevel":0.8099999999999999,"lastAddress":"Adalbertstraße 12, 80799 München, Germany"}
{"timestamp":"2016-11-05T03:20:00+0100","id":124044,"name":"Uschi","coordinate":{"longitude":11.57141113,"latitude":48.13221741},"fuelLevel":0.5902777777777778,"lastAddress":"Blumenstraße 28-30, 80331 München, Germany"}
{"timestamp":"2016-11-05T03:20:00+0100","id":124024,"name":"Christl","coordinate":{"longitude":11.57260132,"latitude":48.13047791},"fuelLevel":0.82,"lastAddress":"Jahnstraße 1, 80469 München, Germany"}
{"timestamp":"2016-11-05T03:20:00+0100","id":124040,"name":"Reserl","coordinate":{"longitude":11.57269287,"latitude":48.13320923},"fuelLevel":0.62,"lastAddress":"Blumenstraße 28, 80331 München, Germany"}
{"timestamp":"2016-11-05T03:20:00+0100","id":124021,"name":"Xaver","coordinate":{"longitude":11.57199955,"latitude":48.13090134},"fuelLevel":0.88,"lastAddress":"Fraunhoferstraße 6, 80469 München, Germany"}
{"timestamp":"2016-11-05T03:20:00+0100","id":124014,"name":"Quirin","coordinate":{"longitude":11.59819984,"latitude":48.13479996},"fuelLevel":0.82,"lastAddress":"Kirchenstraße 2, 81675 München, Germany"}
{"timestamp":"2016-11-05T03:20:00+0100","id":124034,"name":"Kathi","coordinate":{"longitude":11.59809971,"latitude":48.13249969},"fuelLevel":0.86,"lastAddress":"Preysingstraße 53, 81667 München, Germany"}
{"timestamp":"2016-11-05T03:20:00+0100","id":124030,"name":"Hedwig","coordinate":{"longitude":11.56089783,"latitude":48.12557983},"fuelLevel":0.7799999999999999,"lastAddress":"Maistraße 73, 80337 München, Germany"}
{"timestamp":"2016-11-05T03:20:00+0100","id":124023,"name":"Babsi","coordinate":{"longitude":11.56739807,"latitude":48.13110352},"fuelLevel":0.72,"lastAddress":"Pestalozzistraße 9-11, 80469 München, Germany"}
{"timestamp":"2016-11-05T03:20:00+0100","id":124016,"name":"Sepp","coordinate":{"longitude":11.60029602,"latitude":48.12799072},"fuelLevel":0.5902777777777778,"lastAddress":"Gravelottestraße 1, 81667 München, Germany"}
{"timestamp":"2016-11-05T03:20:00+0100","id":124000,"name":"Bertl","coordinate":{"longitude":11.59700012,"latitude":48.12860107},"fuelLevel":0.7200000000000001,"lastAddress":"Weißenburger Str. 11, 81667 München, Germany"}
{"timestamp":"2016-11-05T03:20:00+0100","id":124013,"name":"Poldi","coordinate":{"longitude":11.59030151,"latitude":48.12538147},"fuelLevel":0.86,"lastAddress":"Franziskanerstraße 43, 81669 München, Germany"}
{"timestamp":"2016-11-05T03:20:00+0100","id":124011,"name":"Maxl","coordinate":{"longitude":11.59749985,"latitude":48.12419891},"fuelLevel":0.62,"lastAddress":"Orleansstraße 1, 81669 München, Germany"}
{"timestamp":"2016-11-05T03:20:00+0100","id":124003,"name":"Franzl","coordinate":{"longitude":11.59082031,"latitude":48.13031006},"fuelLevel":0.86,"lastAddress":"Rosenheimer Str. 30, 81669 München, Germany"}
{"timestamp":"2016-11-05T03:20:00+0100","id":124010,"name":"Luitpold","coordinate":{"longitude":11.5814209,"latitude":48.12640381},"fuelLevel":0.8,"lastAddress":"Mariahilfstraße 16, 81541 München, Germany"}
{"timestamp":"2016-11-05T03:20:00+0100","id":124019,"name":"Valentin","coordinate":{"longitude":11.58189392,"latitude":48.1210022},"fuelLevel":0.6499999999999999,"lastAddress":"Hochstraße 81, 81541 München, Germany"}
{"timestamp":"2016-11-05T03:20:00+0100","id":124035,"name":"Leonie","coordinate":{"longitude":11.58575439,"latitude":48.1295929},"fuelLevel":0.33999999999999997,"lastAddress":"Zeppelinstraße 65, 81669 München, Germany"}
{"timestamp":"2016-11-05T03:20:00+0100","id":124006,"name":"Gustl","coordinate":{"longitude":11.5788002,"latitude":48.12360001},"fuelLevel":0.7100000000000001,"lastAddress":"Entenbachstraße 15, 81541 München, Germany"}
{"timestamp":"2016-11-05T03:20:00+0100","id":124049,"name":"Marei","coordinate":{"longitude":11.57919312,"latitude":48.12460327},"fuelLevel":0.62,"lastAddress":"Boosstraße 17, 81541 München, Germany"}
{"timestamp":"2016-11-05T03:20:00+0100","id":124045,"name":"Vroni","coordinate":{"longitude":11.56849957,"latitude":48.1310997},"fuelLevel":0.8500000000000001,"lastAddress":"Müllerstraße 43, 80469 München, Germany"}
{"timestamp":"2016-11-05T03:20:00+0100","id":124004,"name":"Fridl","coordinate":{"longitude":11.56219959,"latitude":48.1570015},"fuelLevel":0.5299999999999999,"lastAddress":"Schleißheimer Str. 77, 80797 München, Germany"}
{"timestamp":"2016-11-05T03:20:00+0100","id":124047,"name":"Walli","coordinate":{"longitude":11.56640625,"latitude":48.14929199},"fuelLevel":0.8,"lastAddress":"Luisenstraße 47A, 80333 München, Germany"}
{"timestamp":"2016-11-05T03:20:00+0100","id":124002,"name":"Ferdl","coordinate":{"longitude":11.56352234,"latitude":48.14971924},"fuelLevel":0.7799999999999999,"lastAddress":"Augustenstraße 72, 80333 München, Germany"}
{"timestamp":"2016-11-05T03:20:00+0100","id":124048,"name":"Wiggerl","coordinate":{"longitude":11.57539368,"latitude":48.15867615},"fuelLevel":0.54,"lastAddress":"Kurfürstenstraße 55, 80801 München, Germany"}
{"timestamp":"2016-11-05T03:20:00+0100","id":124028,"name":"Gitte","coordinate":{"longitude":11.57719994,"latitude":48.15779877},"fuelLevel":0.62,"lastAddress":"Franz-Joseph-Straße 38, 80801 München, Germany"}
{"timestamp":"2016-11-05T03:20:00+0100","id":124027,"name":"Fanni","coordinate":{"longitude":11.58410645,"latitude":48.1625824},"fuelLevel":0.63,"lastAddress":"Wilhelmstraße 30, 80801 München, Germany"}
{"timestamp":"2016-11-05T03:20:00+0100","id":124005,"name":"Georg","coordinate":{"longitude":11.57680035,"latitude":48.15800095},"fuelLevel":0.8500000000000001,"lastAddress":"Römerstraße 1, 80801 München, Germany"}
{"timestamp":"2016-11-05T03:20:00+0100","id":124001,"name":"Edmund","coordinate":{"longitude":11.579422,"latitude":48.15789795},"fuelLevel":0.7899999999999999,"lastAddress":"Franz-Joseph-Straße 26, 80801 München, Germany"}
{"timestamp":"2016-11-05T03:20:00+0100","id":124032,"name":"Irmi","coordinate":{"longitude":11.57499981,"latitude":48.15890121},"fuelLevel":0.57,"lastAddress":"Nordendstraße 62-64, 80801 München, Germany"}
{"timestamp":"2016-11-05T03:20:00+0100","id":124037,"name":"Luise","coordinate":{"longitude":11.57258606,"latitude":48.15429688},"fuelLevel":0.8472222222222222,"lastAddress":"Arcisstraße 58, 80799 München, Germany"}
{"timestamp":"2016-11-05T03:20:00+0100","id":124029,"name":"Hannah","coordinate":{"longitude":11.50959778,"latitude":48.0453949},"fuelLevel":0.75,"lastAddress":"Seitnerstraße 70, 82049 Pullach im Isartal, Germany"}
{"timestamp":"2016-11-05T03:20:00+0100","id":124008,"name":"Johann","coordinate":{"longitude":11.50970459,"latitude":48.04537964},"fuelLevel":0.51,"lastAddress":"Seitnerstraße 70, 82049 Pullach im Isartal, Germany"}
{"timestamp":"2016-11-05T03:20:00+0100","id":124039,"name":"Marie","coordinate":{"longitude":11.50990009,"latitude":48.04529953},"fuelLevel":0.81,"lastAddress":"Gistlstraße 159, 82049 Pullach im Isartal, Germany"}
{"timestamp":"2016-11-05T03:20:00+0100","id":124009,"name":"Ludwig","coordinate":{"longitude":11.57621765,"latitude":48.16680908},"fuelLevel":0.68,"lastAddress":"Karl-Theodor-Straße 63, 80803 München, Germany"}
{"timestamp":"2016-11-05T03:20:00+0100","id":124007,"name":"Jakob","coordinate":{"longitude":11.57411194,"latitude":48.16430664},"fuelLevel":0.84,"lastAddress":"Belgradstraße 37, 80796 München, Germany"}