{"timestamp":"2016-11-24T09:55:00+0100","id":124036,"name":"Liesel","coordinate":{"longitude":11.57850647,"latitude":48.15310669},"fuelLevel":0.5700000000000001,"lastAddress":"Akademiestraße 4, 80799 München, Germany"}
{"timestamp":"2016-11-24T09:55:00+0100","id":124024,"name":"Christl","coordinate":{"longitude":11.57701111,"latitude":48.1328125},"fuelLevel":0.6499999999999999,"lastAddress":"Buttermelcherstraße 4, 80469 München, Germany"}
{"timestamp":"2016-11-24T09:55:00+0100","id":124040,"name":"Reserl","coordinate":{"longitude":11.57479954,"latitude":48.1291008},"fuelLevel":0.83,"lastAddress":"Fraunhoferstraße 31, 80469 München, Germany"}
{"timestamp":"2016-11-24T09:55:00+0100","id":124021,"name":"Xaver","coordinate":{"longitude":11.58200073,"latitude":48.13108826},"fuelLevel":0.77,"lastAddress":"Kohlstraße 11, 80469 München, Germany"}
{"timestamp":"2016-11-24T09:55:00+0100","id":124014,"name":"Quirin","coordinate":{"longitude":11.60038757,"latitude":48.13398743},"fuelLevel":0.87,"lastAddress":"Kirchenstraße 12, 81675 München, Germany"}
{"timestamp":"2016-11-24T09:55:00+0100","id":124034,"name":"Kathi","coordinate":{"longitude":11.60580444,"latitude":48.1308136},"fuelLevel":0.75,"lastAddress":"Breisacher Str. 24, 81667 München, Germany"}
{"timestamp":"2016-11-24T09:55:00+0100","id":124023,"name":"Babsi","coordinate":{"longitude":11.56449986,"latitude":48.13079834},"fuelLevel":0.91,"lastAddress":"Frauenlobstraße 2, 80337 München, Germany"}
{"timestamp":"2016-11-24T09:55:00+0100","id":124022,"name":"Anne","coordinate":{"longitude":11.60101318,"latitude":48.12760925},"fuelLevel":0.87,"lastAddress":"Gravelottestraße 7, 81667 München, Germany"}
{"timestamp":"2016-11-24T09:55:00+0100","id":124000,"name":"Bertl","coordinate":{"longitude":11.59489441,"latitude":48.13098145},"fuelLevel":0.8999999999999999,"lastAddress":"Milchstraße 2, 81667 München, Germany"}
{"timestamp":"2016-11-24T09:55:00+0100","id":124013,"name":"Poldi","coordinate":{"longitude":11.58958435,"latitude":48.125},"fuelLevel":0.79,"lastAddress":"Franziskanerstraße 47, 81669 München, Germany"}
{"timestamp":"2016-11-24T09:55:00+0100","id":124011,"name":"Maxl","coordinate":{"longitude":11.59288025,"latitude":48.126297},"fuelLevel":0.5599999999999999,"lastAddress":"Simon-Knoll-Platz 2, 81669 München, Germany"}
{"timestamp":"2016-11-24T09:55:00+0100","id":124003,"name":"Franzl","coordinate":{"longitude":11.58810425,"latitude":48.12539673},"fuelLevel":0.7200000000000001,"lastAddress":"Gebsattelstraße 16, 81541 München, Germany"}
{"timestamp":"2016-11-24T09:55:00+0100","id":124010,"name":"Luitpold","coordinate":{"longitude":11.58770752,"latitude":48.12791443},"fuelLevel":0.87,"lastAddress":"Hochstraße 19, 81669 München, Germany"}
{"timestamp":"2016-11-24T09:55:00+0100","id":124019,"name":"Valentin","coordinate":{"longitude":11.58200073,"latitude":48.1210022},"fuelLevel":0.64,"lastAddress":"Hochstraße 81, 81541 München, Germany"}
{"timestamp":"2016-11-24T09:55:00+0100","id":124035,"name":"Leonie","coordinate":{"longitude":11.58349609,"latitude":48.12770081},"fuelLevel":0.8800000000000001,"lastAddress":"Zeppelinstraße 39, 81669 München, Germany"}
{"timestamp":"2016-11-24T09:55:00+0100","id":124006,"name":"Gustl","coordinate":{"longitude":11.57600021,"latitude":48.12099838},"fuelLevel":0.86,"lastAddress":"Kolumbusstraße 22, 81543 München, Germany"}
{"timestamp":"2016-11-24T09:55:00+0100","id":124020,"name":"Vinzenz","coordinate":{"longitude":11.57705212,"latitude":48.12322235},"fuelLevel":0.86,"lastAddress":"Schlotthauerstraße 11, 81541 München, Germany"}
{"timestamp":"2016-11-24T09:55:00+0100","id":124049,"name":"Marei","coordinate":{"longitude":11.5776062,"latitude":48.12037659},"fuelLevel":0.8999999999999999,"lastAddress":"Dollmannstraße 4, 81541 München, Germany"}
{"timestamp":"2016-11-24T09:55:00+0100","id":124018,"name":"Toni","coordinate":{"longitude":11.56910706,"latitude":48.12390137},"fuelLevel":0.9099999999999999,"lastAddress":"Wittelsbacherstraße 10-11, 80469 München, Germany"}
{"timestamp":"2016-11-24T09:55:00+0100","id":124012,"name":"Peter","coordinate":{"longitude":11.56001282,"latitude":48.15498352},"fuelLevel":0.6,"lastAddress":"Schellingstraße 134, 80797 München, Germany"}
{"timestamp":"2016-11-24T09:55:00+0100","id":124004,"name":"Fridl","coordinate":{"longitude":11.55909729,"latitude":48.15390015},"fuelLevel":0.86,"lastAddress":"Heßstraße 79, 80797 München, Germany"}
{"timestamp":"2016-11-24T09:55:00+0100","id":124031,"name":"Heidi","coordinate":{"longitude":11.5625,"latitude":48.14870071},"fuelLevel":0.875,"lastAddress":"Augustenstraße 47, 80333 München, Germany"}
{"timestamp":"2016-11-24T09:55:00+0100","id":124047,"name":"Walli","coordinate":{"longitude":11.56719971,"latitude":48.15080261},"fuelLevel":0.75,"lastAddress":"Luisenstraße 63, 80798 München, Germany"}
{"timestamp":"2016-11-24T09:55:00+0100","id":124002,"name":"Ferdl","coordinate":{"longitude":11.56401062,"latitude":48.15029907},"fuelLevel":0.8999999999999999,"lastAddress":"Augustenstraße 76, 80333 München, Germany"}
{"timestamp":"2016-11-24T09:55:00+0100","id":124048,"name":"Wiggerl","coordinate":{"longitude":11.57737732,"latitude":48.15908813},"fuelLevel":0.7799999999999999,"lastAddress":"Ainmillerstraße 42, 80801 München, Germany"}
{"timestamp":"2016-11-24T09:55:00+0100","id":124028,"name":"Gitte","coordinate":{"longitude":11.57962036,"latitude":48.1578064},"fuelLevel":0.9099999999999999,"lastAddress":"Franz-Joseph-Straße 26, 80801 München, Germany"}
{"timestamp":"2016-11-24T09:55:00+0100","id":124027,"name":"Fanni","coordinate":{"longitude":11.58338928,"latitude":48.16088867},"fuelLevel":0.87,"lastAddress":"Kaiserstraße 19, 80801 München, Germany"}
{"timestamp":"2016-11-24T09:55:00+0100","id":124005,"name":"Georg","coordinate":{"longitude":11.57949829,"latitude":48.15910339},"fuelLevel":0.75,"lastAddress":"Ainmillerstraße 30, 80801 München, Germany"}
{"timestamp":"2016-11-24T09:55:00+0100","id":124001,"name":"Edmund","coordinate":{"longitude":11.58058167,"latitude":48.16090393},"fuelLevel":0.5599999999999999,"lastAddress":"Friedrichstraße 36, 80801 München, Germany"}
{"timestamp":"2016-11-24T09:55:00+0100","id":124032,"name":"Irmi","coordinate":{"longitude":11.57499695,"latitude":48.15971375},"fuelLevel":0.61,"lastAddress":"Kurfürstenpl. 1A, 80796 München, Germany"}
{"timestamp":"2016-11-24T09:55:00+0100","id":124037,"name":"Luise","coordinate":{"longitude":11.56227112,"latitude":48.1572876},"fuelLevel":0.55,"lastAddress":"Schleißheimer Str. 79, 80797 München, Germany"}
{"timestamp":"2016-11-24T09:55:00+0100","id":124017,"name":"Siggi","coordinate":{"longitude":11.57290649,"latitude":48.15710449},"fuelLevel":0.55,"lastAddress":"Agnesstraße 2, 80801 München, Germany"}
{"timestamp":"2016-11-24T09:55:00+0100","id":124008,"name":"Johann","coordinate":{"longitude":11.50958252,"latitude":48.04537964},"fuelLevel":0.61,"lastAddress":"Seitnerstraße 70, 82049 Pullach im Isartal, Germany"}
{"timestamp":"2016-11-24T09:55:00+0100","id":124039,"name":"Marie","coordinate":{"longitude":11.50570011,"latitude":48.04430008},"fuelLevel":0.76,"lastAddress":"Wolfratshauser Str. 138, 82049 Pullach im Isartal, Germany"}
{"timestamp":"2016-11-24T09:55:00+0100","id":124009,"name":"Ludwig","coordinate":{"longitude":11.58232117,"latitude":48.16558838},"fuelLevel":0.71,"lastAddress":"Muffatstraße 5-7, 80803 München, Germany"}
{"timestamp":"2016-11-24T09:55:00+0100","id":124007,"name":"Jakob","coordinate":{"longitude":11.57717896,"latitude":48.16670227},"fuelLevel":0.6499999999999999,"lastAddress":"Ansprengerstraße 22, 80803 München, Germany"}