{"timestamp":"2016-10-17T10:50:00+0200","id":124041,"name":"Sophie","coordinate":{"longitude":11.57830048,"latitude":48.15359879},"fuelLevel":0.8300000000000001,"lastAddress":"Türkenstraße 95, 80799 München, Germany"}
{"timestamp":"2016-10-17T10:50:00+0200","id":124026,"name":"Eva","coordinate":{"longitude":11.58100033,"latitude":48.15000153},"fuelLevel":0.9199999999999999,"lastAddress":"Ludwigstraße 24, 80539 München, Germany"}
{"timestamp":"2016-10-17T10:50:00+0200","id":124025,"name":"Elli","coordinate":{"longitude":11.57940006,"latitude":48.15589905},"fuelLevel":0.8300000000000001,"lastAddress":"Friedrichstraße 9, 80801 München, Germany"}
{"timestamp":"2016-10-17T10:50:00+0200","id":124044,"name":"Uschi","coordinate":{"longitude":11.57219982,"latitude":48.13150024},"fuelLevel":0.8,"lastAddress":"Müllerstraße 13, 80469 München, Germany"}
{"timestamp":"2016-10-17T10:50:00+0200","id":124040,"name":"Reserl","coordinate":{"longitude":11.57299995,"latitude":48.13190079},"fuelLevel":0.79,"lastAddress":"Müllerstraße 7, 80469 München, Germany"}
{"timestamp":"2016-10-17T10:50:00+0200","id":124021,"name":"Xaver","coordinate":{"longitude":11.58040047,"latitude":48.13019943},"fuelLevel":0.9199999999999999,"lastAddress":"Erhardtstraße 27, 80469 München, Germany"}
{"timestamp":"2016-10-17T10:50:00+0200","id":124014,"name":"Quirin","coordinate":{"longitude":11.59720039,"latitude":48.13479996},"fuelLevel":0.57,"lastAddress":"Innere Wiener Straße 59, 81667 München, Germany"}
{"timestamp":"2016-10-17T10:50:00+0200","id":124034,"name":"Kathi","coordinate":{"longitude":11.60900021,"latitude":48.13330078},"fuelLevel":0.57,"lastAddress":"Kirchenstraße 89B, 81675 München, Germany"}
{"timestamp":"2016-10-17T10:50:00+0200","id":124016,"name":"Sepp","coordinate":{"longitude":11.59799957,"latitude":48.12599945},"fuelLevel":0.88,"lastAddress":"Rosenheimer Str. 98, 81669 München, Germany"}
{"timestamp":"2016-10-17T10:50:00+0200","id":124038,"name":"Magda","coordinate":{"longitude":11.6001997,"latitude":48.12820053},"fuelLevel":0.67,"lastAddress":"Pariser Pl., 81667 München, Germany"}
{"timestamp":"2016-10-17T10:50:00+0200","id":124013,"name":"Poldi","coordinate":{"longitude":11.59430027,"latitude":48.12799835},"fuelLevel":0.61,"lastAddress":"Rosenheimer Pl. 2, 81669 München, Germany"}
{"timestamp":"2016-10-17T10:50:00+0200","id":124011,"name":"Maxl","coordinate":{"longitude":11.59490013,"latitude":48.12789917},"fuelLevel":0.6699999999999999,"lastAddress":"Metzstraße 1, 81667 München, Germany"}
{"timestamp":"2016-10-17T10:50:00+0200","id":124003,"name":"Franzl","coordinate":{"longitude":11.5927,"latitude":48.1271019},"fuelLevel":0.8,"lastAddress":"Rablstraße 26, 81669 München, Germany"}
{"timestamp":"2016-10-17T10:50:00+0200","id":124010,"name":"Luitpold","coordinate":{"longitude":11.58740044,"latitude":48.12770081},"fuelLevel":0.87,"lastAddress":"Hochstraße 19, 81669 München, Germany"}
{"timestamp":"2016-10-17T10:50:00+0200","id":124020,"name":"Vinzenz","coordinate":{"longitude":11.57839966,"latitude":48.12250137},"fuelLevel":0.81,"lastAddress":"Entenbachstraße 35, 81541 München, Germany"}
{"timestamp":"2016-10-17T10:50:00+0200","id":124049,"name":"Marei","coordinate":{"longitude":11.57429981,"latitude":48.12260056},"fuelLevel":0.9400000000000001,"lastAddress":"Eduard-Schmid-Straße 34, 81541 München, Germany"}
{"timestamp":"2016-10-17T10:50:00+0200","id":124045,"name":"Vroni","coordinate":{"longitude":11.56610012,"latitude":48.1242981},"fuelLevel":0.64,"lastAddress":"Baldestraße 10A, 80469 München, Germany"}
{"timestamp":"2016-10-17T10:50:00+0200","id":124018,"name":"Toni","coordinate":{"longitude":11.56999969,"latitude":48.13000107},"fuelLevel":0.6499999999999999,"lastAddress":"Hans-Sachs-Straße 7, 80469 München, Germany"}
{"timestamp":"2016-10-17T10:50:00+0200","id":124012,"name":"Peter","coordinate":{"longitude":11.56159973,"latitude":48.15439987},"fuelLevel":0.9600000000000001,"lastAddress":"Schellingstraße 128, 80798 München, Germany"}
{"timestamp":"2016-10-17T10:50:00+0200","id":124004,"name":"Fridl","coordinate":{"longitude":11.5557003,"latitude":48.15530014},"fuelLevel":0.58,"lastAddress":"Lothstraße 34, 80335 München, Germany"}
{"timestamp":"2016-10-17T10:50:00+0200","id":124031,"name":"Heidi","coordinate":{"longitude":11.56639957,"latitude":48.15179825},"fuelLevel":0.63,"lastAddress":"Heßstraße 42-44, 80798 München, Germany"}
{"timestamp":"2016-10-17T10:50:00+0200","id":124047,"name":"Walli","coordinate":{"longitude":11.5703001,"latitude":48.14929962},"fuelLevel":0.71,"lastAddress":"Theresienstraße, 80333 München, Germany"}
{"timestamp":"2016-10-17T10:50:00+0200","id":124048,"name":"Wiggerl","coordinate":{"longitude":11.58069992,"latitude":48.16230011},"fuelLevel":0.67,"lastAddress":"Kaiserpl. 6, 80803 München, Germany"}
{"timestamp":"2016-10-17T10:50:00+0200","id":124028,"name":"Gitte","coordinate":{"longitude":11.57559967,"latitude":48.16080093},"fuelLevel":0.7200000000000001,"lastAddress":"Belgradstraße 6, 80796 München, Germany"}
{"timestamp":"2016-10-17T10:50:00+0200","id":124037,"name":"Luise","coordinate":{"longitude":11.5703001,"latitude":48.15769958},"fuelLevel":0.52,"lastAddress":"Agnesstraße 14, 80798 München, Germany"}
{"timestamp":"2016-10-17T10:50:00+0200","id":124017,"name":"Siggi","coordinate":{"longitude":11.57250023,"latitude":48.16040039},"fuelLevel":0.56,"lastAddress":"Hohenzollernstraße 67, 80796 München, Germany"}
{"timestamp":"2016-10-17T10:50:00+0200","id":124029,"name":"Hannah","coordinate":{"longitude":11.51010036,"latitude":48.04560089},"fuelLevel":0.59,"lastAddress":"Gistlstraße 159, 82049 Pullach im Isartal, Germany"}
{"timestamp":"2016-10-17T10:50:00+0200","id":124039,"name":"Marie","coordinate":{"longitude":11.50969982,"latitude":48.04520035},"fuelLevel":0.63,"lastAddress":"Seitnerstraße 70, 82049 Pullach im Isartal, Germany"}
{"timestamp":"2016-10-17T10:50:00+0200","id":124009,"name":"Ludwig","coordinate":{"longitude":11.58329964,"latitude":48.16249847},"fuelLevel":0.6499999999999999,"lastAddress":"Herzogstraße 16, 80803 München, Germany"}