{"timestamp":"2016-11-14T10:20:00+0100","id":124041,"name":"Sophie","coordinate":{"longitude":11.58061218,"latitude":48.15158081},"fuelLevel":0.63,"lastAddress":"Adalbertstraße 8, 80799 München, Germany"}
{"timestamp":"2016-11-14T10:20:00+0100","id":124026,"name":"Eva","coordinate":{"longitude":11.57980347,"latitude":48.1526947},"fuelLevel":0.89,"lastAddress":"Akademiestraße 11, 80799 München, Germany"}
{"timestamp":"2016-11-14T10:20:00+0100","id":124025,"name":"Elli","coordinate":{"longitude":11.57780457,"latitude":48.14981079},"fuelLevel":0.5599999999999999,"lastAddress":"Schellingstraße 16, 80799 München, Germany"}
{"timestamp":"2016-11-14T10:20:00+0100","id":124014,"name":"Quirin","coordinate":{"longitude":11.59919739,"latitude":48.13598633},"fuelLevel":0.9583333333333334,"lastAddress":"Einsteinstraße 3, 81675 München, Germany"}
{"timestamp":"2016-11-14T10:20:00+0100","id":124034,"name":"Kathi","coordinate":{"longitude":11.6051178,"latitude":48.13009644},"fuelLevel":0.81,"lastAddress":"Elsässer Str. 27-29, 81667 München, Germany"}
{"timestamp":"2016-11-14T10:20:00+0100","id":124030,"name":"Hedwig","coordinate":{"longitude":11.56369019,"latitude":48.1282196},"fuelLevel":0.63,"lastAddress":"Waltherstraße 5, 80337 München, Germany"}
{"timestamp":"2016-11-14T10:20:00+0100","id":124016,"name":"Sepp","coordinate":{"longitude":11.59921265,"latitude":48.13040161},"fuelLevel":0.59,"lastAddress":"Metzstraße 32, 81667 München, Germany"}
{"timestamp":"2016-11-14T10:20:00+0100","id":124022,"name":"Anne","coordinate":{"longitude":11.59809875,"latitude":48.12698364},"fuelLevel":0.9,"lastAddress":"Pariser Str. 24, 81667 München, Germany"}
{"timestamp":"2016-11-14T10:20:00+0100","id":124000,"name":"Bertl","coordinate":{"longitude":11.59700012,"latitude":48.12800598},"fuelLevel":0.58,"lastAddress":"Lothringer Str. 3, 81667 München, Germany"}
{"timestamp":"2016-11-14T10:20:00+0100","id":124003,"name":"Franzl","coordinate":{"longitude":11.58988953,"latitude":48.12518311},"fuelLevel":0.79,"lastAddress":"Franziskanerstraße 43, 81669 München, Germany"}
{"timestamp":"2016-11-14T10:20:00+0100","id":124019,"name":"Valentin","coordinate":{"longitude":11.58189392,"latitude":48.12101746},"fuelLevel":0.6499999999999999,"lastAddress":"Hochstraße 81, 81541 München, Germany"}
{"timestamp":"2016-11-14T10:20:00+0100","id":124004,"name":"Fridl","coordinate":{"longitude":11.55909729,"latitude":48.15386963},"fuelLevel":0.88,"lastAddress":"Heßstraße 79, 80797 München, Germany"}
{"timestamp":"2016-11-14T10:20:00+0100","id":124047,"name":"Walli","coordinate":{"longitude":11.5664978,"latitude":48.14929199},"fuelLevel":0.8,"lastAddress":"Luisenstraße 47A, 80333 München, Germany"}
{"timestamp":"2016-11-14T10:20:00+0100","id":124002,"name":"Ferdl","coordinate":{"longitude":11.56340027,"latitude":48.14968872},"fuelLevel":0.59,"lastAddress":"Augustenstraße 70, 80333 München, Germany"}
{"timestamp":"2016-11-14T10:20:00+0100","id":124048,"name":"Wiggerl","coordinate":{"longitude":11.57771301,"latitude":48.15789795},"fuelLevel":0.88,"lastAddress":"Franz-Joseph-Straße 36A, 80801 München, Germany"}
{"timestamp":"2016-11-14T10:20:00+0100","id":124028,"name":"Gitte","coordinate":{"longitude":11.57809448,"latitude":48.15769958},"fuelLevel":0.58,"lastAddress":"Franz-Joseph-Straße 35, 80801 München, Germany"}
{"timestamp":"2016-11-14T10:20:00+0100","id":124027,"name":"Fanni","coordinate":{"longitude":11.58338928,"latitude":48.16079712},"fuelLevel":0.9,"lastAddress":"Kaiserstraße 19, 80801 München, Germany"}
{"timestamp":"2016-11-14T10:20:00+0100","id":124005,"name":"Georg","coordinate":{"longitude":11.57710266,"latitude":48.15820312},"fuelLevel":0.8,"lastAddress":"Römerstraße 4, 80801 München, Germany"}
{"timestamp":"2016-11-14T10:20:00+0100","id":124001,"name":"Edmund","coordinate":{"longitude":11.57669067,"latitude":48.16130066},"fuelLevel":0.63,"lastAddress":"Kaiserstraße 59-61, 80801 München, Germany"}
{"timestamp":"2016-11-14T10:20:00+0100","id":124032,"name":"Irmi","coordinate":{"longitude":11.57479858,"latitude":48.15950012},"fuelLevel":0.58,"lastAddress":"Nordendstraße 57-59, 80801 München, Germany"}
{"timestamp":"2016-11-14T10:20:00+0100","id":124037,"name":"Luise","coordinate":{"longitude":11.56809998,"latitude":48.15678406},"fuelLevel":0.63,"lastAddress":"Georgenstraße 104, 80798 München, Germany"}
{"timestamp":"2016-11-14T10:20:00+0100","id":124017,"name":"Siggi","coordinate":{"longitude":11.56900024,"latitude":48.15930176},"fuelLevel":0.67,"lastAddress":"Tengstraße 31, 80796 München, Germany"}
{"timestamp":"2016-11-14T10:20:00+0100","id":124008,"name":"Johann","coordinate":{"longitude":11.50990295,"latitude":48.04533386},"fuelLevel":0.88,"lastAddress":"Gistlstraße 159, 82049 Pullach im Isartal, Germany"}
{"timestamp":"2016-11-14T10:20:00+0100","id":124039,"name":"Marie","coordinate":{"longitude":11.50991821,"latitude":48.04548645},"fuelLevel":0.84,"lastAddress":"Gistlstraße 159, 82049 Pullach im Isartal, Germany"}
{"timestamp":"2016-11-14T10:20:00+0100","id":124007,"name":"Jakob","coordinate":{"longitude":11.57409668,"latitude":48.16430664},"fuelLevel":0.84,"lastAddress":"Belgradstraße 37, 80796 München, Germany"}