{"timestamp":"2016-11-15T09:40:00+0100","id":124041,"name":"Sophie","coordinate":{"longitude":11.58058167,"latitude":48.15159607},"fuelLevel":0.63,"lastAddress":"Adalbertstraße 8, 80799 München, Germany"}
{"timestamp":"2016-11-15T09:40:00+0100","id":124026,"name":"Eva","coordinate":{"longitude":11.58128262,"latitude":48.15240479},"fuelLevel":0.75,"lastAddress":"Akademiestraße 3, 80799 München, Germany"}
{"timestamp":"2016-11-15T09:40:00+0100","id":124040,"name":"Reserl","coordinate":{"longitude":11.58169556,"latitude":48.13078308},"fuelLevel":0.86,"lastAddress":"Erhardtstraße 27, 80469 München, Germany"}
{"timestamp":"2016-11-15T09:40:00+0100","id":124021,"name":"Xaver","coordinate":{"longitude":11.5730896,"latitude":48.13008118},"fuelLevel":0.89,"lastAddress":"Fraunhoferstraße 14, 80469 München, Germany"}
{"timestamp":"2016-11-15T09:40:00+0100","id":124014,"name":"Quirin","coordinate":{"longitude":11.59919739,"latitude":48.13600159},"fuelLevel":0.9583333333333334,"lastAddress":"Einsteinstraße 3, 81675 München, Germany"}
{"timestamp":"2016-11-15T09:40:00+0100","id":124030,"name":"Hedwig","coordinate":{"longitude":11.56590271,"latitude":48.1322937},"fuelLevel":0.5972222222222222,"lastAddress":"Fliegenstraße 3, 80337 München, Germany"}
{"timestamp":"2016-11-15T09:40:00+0100","id":124016,"name":"Sepp","coordinate":{"longitude":11.59919739,"latitude":48.13038635},"fuelLevel":0.59,"lastAddress":"Metzstraße 30, 81667 München, Germany"}
{"timestamp":"2016-11-15T09:40:00+0100","id":124019,"name":"Valentin","coordinate":{"longitude":11.58190918,"latitude":48.12101746},"fuelLevel":0.6499999999999999,"lastAddress":"Hochstraße 81, 81541 München, Germany"}
{"timestamp":"2016-11-15T09:40:00+0100","id":124006,"name":"Gustl","coordinate":{"longitude":11.57359314,"latitude":48.12030029},"fuelLevel":0.8900000000000001,"lastAddress":"Humboldtstraße 19, 81543 München, Germany"}
{"timestamp":"2016-11-15T09:40:00+0100","id":124045,"name":"Vroni","coordinate":{"longitude":11.56768799,"latitude":48.1269989},"fuelLevel":0.8500000000000001,"lastAddress":"Holzstraße 49-51, 80469 München, Germany"}
{"timestamp":"2016-11-15T09:40:00+0100","id":124012,"name":"Peter","coordinate":{"longitude":11.56110001,"latitude":48.15430069},"fuelLevel":0.72,"lastAddress":"Schleißheimer Str. 47, 80797 München, Germany"}
{"timestamp":"2016-11-15T09:40:00+0100","id":124004,"name":"Fridl","coordinate":{"longitude":11.55909729,"latitude":48.15391541},"fuelLevel":0.88,"lastAddress":"Heßstraße 102, 80797 München, Germany"}
{"timestamp":"2016-11-15T09:40:00+0100","id":124031,"name":"Heidi","coordinate":{"longitude":11.56389999,"latitude":48.15060043},"fuelLevel":0.5299999999999999,"lastAddress":"Augustenstraße 77-79, 80333 München, Germany"}
{"timestamp":"2016-11-15T09:40:00+0100","id":124047,"name":"Walli","coordinate":{"longitude":11.56704712,"latitude":48.15040588},"fuelLevel":0.76,"lastAddress":"Theresienstraße 100-102, 80333 München, Germany"}
{"timestamp":"2016-11-15T09:40:00+0100","id":124002,"name":"Ferdl","coordinate":{"longitude":11.56338501,"latitude":48.14968872},"fuelLevel":0.59,"lastAddress":"Augustenstraße 70, 80333 München, Germany"}
{"timestamp":"2016-11-15T09:40:00+0100","id":124048,"name":"Wiggerl","coordinate":{"longitude":11.57769775,"latitude":48.15789795},"fuelLevel":0.88,"lastAddress":"Franz-Joseph-Straße 36A, 80801 München, Germany"}
{"timestamp":"2016-11-15T09:40:00+0100","id":124028,"name":"Gitte","coordinate":{"longitude":11.57810974,"latitude":48.15769958},"fuelLevel":0.58,"lastAddress":"Franz-Joseph-Straße 35, 80801 München, Germany"}
{"timestamp":"2016-11-15T09:40:00+0100","id":124027,"name":"Fanni","coordinate":{"longitude":11.5834198,"latitude":48.16081238},"fuelLevel":0.9,"lastAddress":"Kaiserstraße 19, 80801 München, Germany"}
{"timestamp":"2016-11-15T09:40:00+0100","id":124005,"name":"Georg","coordinate":{"longitude":11.57710266,"latitude":48.15820312},"fuelLevel":0.8,"lastAddress":"Römerstraße 4, 80801 München, Germany"}
{"timestamp":"2016-11-15T09:40:00+0100","id":124001,"name":"Edmund","coordinate":{"longitude":11.57670593,"latitude":48.1612854},"fuelLevel":0.63,"lastAddress":"Kaiserstraße 59-61, 80801 München, Germany"}
{"timestamp":"2016-11-15T09:40:00+0100","id":124032,"name":"Irmi","coordinate":{"longitude":11.57479858,"latitude":48.15948486},"fuelLevel":0.58,"lastAddress":"Nordendstraße 57-59, 80801 München, Germany"}
{"timestamp":"2016-11-15T09:40:00+0100","id":124037,"name":"Luise","coordinate":{"longitude":11.56808472,"latitude":48.15679932},"fuelLevel":0.63,"lastAddress":"Georgenstraße 104, 80798 München, Germany"}
{"timestamp":"2016-11-15T09:40:00+0100","id":124017,"name":"Siggi","coordinate":{"longitude":11.56900024,"latitude":48.1592865},"fuelLevel":0.67,"lastAddress":"Tengstraße 31, 80796 München, Germany"}
{"timestamp":"2016-11-15T09:40:00+0100","id":124008,"name":"Johann","coordinate":{"longitude":11.50990295,"latitude":48.04533386},"fuelLevel":0.88,"lastAddress":"Gistlstraße 159, 82049 Pullach im Isartal, Germany"}
{"timestamp":"2016-11-15T09:40:00+0100","id":124039,"name":"Marie","coordinate":{"longitude":11.50990295,"latitude":48.04548645},"fuelLevel":0.84,"lastAddress":"Gistlstraße 159, 82049 Pullach im Isartal, Germany"}
{"timestamp":"2016-11-15T09:40:00+0100","id":124009,"name":"Ludwig","coordinate":{"longitude":11.58139038,"latitude":48.16636658},"fuelLevel":0.89,"lastAddress":"Mainzer Str. 4, 80803 München, Germany"}
{"timestamp":"2016-11-15T09:40:00+0100","id":124007,"name":"Jakob","coordinate":{"longitude":11.57409668,"latitude":48.16429138},"fuelLevel":0.84,"lastAddress":"Belgradstraße 37, 80796 München, Germany"}