{"timestamp":"2016-10-23T18:15:32+0200","id":124041,"name":"Sophie","coordinate":{"longitude":11.57962036,"latitude":48.15281677},"fuelLevel":0.72,"lastAddress":"Akademiestraße 11, 80799 München, Germany"}
{"timestamp":"2016-10-23T18:15:32+0200","id":124025,"name":"Elli","coordinate":{"longitude":11.57589722,"latitude":48.1572876},"fuelLevel":0.8300000000000001,"lastAddress":"Kurfürstenstraße 20, 80801 München, Germany"}
{"timestamp":"2016-10-23T18:15:32+0200","id":124033,"name":"Johanna","coordinate":{"longitude":11.57759094,"latitude":48.1499939},"fuelLevel":0.57,"lastAddress":"Schellingstraße 18, 80799 München, Germany"}
{"timestamp":"2016-10-23T18:15:32+0200","id":124014,"name":"Quirin","coordinate":{"longitude":11.59710693,"latitude":48.13450623},"fuelLevel":0.5299999999999999,"lastAddress":"Innere Wiener Straße 57, 81667 München, Germany"}
{"timestamp":"2016-10-23T18:15:32+0200","id":124030,"name":"Hedwig","coordinate":{"longitude":11.61260033,"latitude":48.12179947},"fuelLevel":0.9236111111111112,"lastAddress":"Aschheimer Str. 21, 81671 München, Germany"}
{"timestamp":"2016-10-23T18:15:32+0200","id":124022,"name":"Anne","coordinate":{"longitude":11.59718323,"latitude":48.13240051},"fuelLevel":0.65,"lastAddress":"Preysingstraße 35, 81667 München, Germany"}
{"timestamp":"2016-10-23T18:15:32+0200","id":124013,"name":"Poldi","coordinate":{"longitude":11.59179974,"latitude":48.12799835},"fuelLevel":0.61,"lastAddress":"Gallmayerstraße 8, 81669 München, Germany"}
{"timestamp":"2016-10-23T18:15:32+0200","id":124011,"name":"Maxl","coordinate":{"longitude":11.59757996,"latitude":48.12419128},"fuelLevel":0.61,"lastAddress":"Orleansstraße 1, 81669 München, Germany"}
{"timestamp":"2016-10-23T18:15:32+0200","id":124019,"name":"Valentin","coordinate":{"longitude":11.58189392,"latitude":48.12519836},"fuelLevel":0.76,"lastAddress":"Mariahilfpl. 23, 81541 München, Germany"}
{"timestamp":"2016-10-23T18:15:32+0200","id":124049,"name":"Marei","coordinate":{"longitude":11.57902527,"latitude":48.12478638},"fuelLevel":0.62,"lastAddress":"Boosstraße 15, 81541 München, Germany"}
{"timestamp":"2016-10-23T18:15:32+0200","id":124045,"name":"Vroni","coordinate":{"longitude":11.56639099,"latitude":48.12710571},"fuelLevel":0.59,"lastAddress":"Pestalozzistraße 60, 80469 München, Germany"}
{"timestamp":"2016-10-23T18:15:32+0200","id":124018,"name":"Toni","coordinate":{"longitude":11.5717001,"latitude":48.13230133},"fuelLevel":0.6499999999999999,"lastAddress":"Blumenstraße 21A, 80331 München, Germany"}
{"timestamp":"2016-10-23T18:15:32+0200","id":124004,"name":"Fridl","coordinate":{"longitude":11.55647278,"latitude":48.15632629},"fuelLevel":0.58,"lastAddress":"Lothstraße 21, 80797 München, Germany"}
{"timestamp":"2016-10-23T18:15:32+0200","id":124031,"name":"Heidi","coordinate":{"longitude":11.57040405,"latitude":48.1493988},"fuelLevel":0.82,"lastAddress":"Theresienstraße, 80333 München, Germany"}
{"timestamp":"2016-10-23T18:15:32+0200","id":124048,"name":"Wiggerl","coordinate":{"longitude":11.57530212,"latitude":48.15888977},"fuelLevel":0.6000000000000001,"lastAddress":"Nordendstraße 62, 80801 München, Germany"}
{"timestamp":"2016-10-23T18:15:32+0200","id":124028,"name":"Gitte","coordinate":{"longitude":11.57569981,"latitude":48.15909958},"fuelLevel":0.7200000000000001,"lastAddress":"Ainmillerstraße 41, 80801 München, Germany"}
{"timestamp":"2016-10-23T18:15:32+0200","id":124005,"name":"Georg","coordinate":{"longitude":11.57679749,"latitude":48.15785217},"fuelLevel":0.8500000000000001,"lastAddress":"Franz-Joseph-Straße 44, 80801 München, Germany"}
{"timestamp":"2016-10-23T18:15:32+0200","id":124001,"name":"Edmund","coordinate":{"longitude":11.57901001,"latitude":48.15788269},"fuelLevel":0.7999999999999999,"lastAddress":"Franz-Joseph-Straße 30, 80801 München, Germany"}
{"timestamp":"2016-10-23T18:15:32+0200","id":124032,"name":"Irmi","coordinate":{"longitude":11.56559753,"latitude":48.15939331},"fuelLevel":0.64,"lastAddress":"Zentnerstraße 38, 80798 München, Germany"}
{"timestamp":"2016-10-23T18:15:32+0200","id":124037,"name":"Luise","coordinate":{"longitude":11.57089233,"latitude":48.15678406},"fuelLevel":0.9099999999999999,"lastAddress":"Isabellastraße 17, 80798 München, Germany"}
{"timestamp":"2016-10-23T18:15:32+0200","id":124017,"name":"Siggi","coordinate":{"longitude":11.56800842,"latitude":48.15931702},"fuelLevel":0.54,"lastAddress":"Adelheidstraße 32, 80796 München, Germany"}
{"timestamp":"2016-10-23T18:15:32+0200","id":124029,"name":"Hannah","coordinate":{"longitude":11.51000977,"latitude":48.04550171},"fuelLevel":0.81,"lastAddress":"Gistlstraße 159, 82049 Pullach im Isartal, Germany"}
{"timestamp":"2016-10-23T18:15:32+0200","id":124039,"name":"Marie","coordinate":{"longitude":11.5098877,"latitude":48.04528809},"fuelLevel":0.82,"lastAddress":"Seitnerstraße 70, 82049 Pullach im Isartal, Germany"}
{"timestamp":"2016-10-23T18:15:32+0200","id":124009,"name":"Ludwig","coordinate":{"longitude":11.5855999,"latitude":48.16540146},"fuelLevel":0.87,"lastAddress":"Karl-Theodor-Straße 4, 80803 München, Germany"}