{"timestamp":"2016-10-27T14:40:00+0200","id":124041,"name":"Sophie","coordinate":{"longitude":11.57962036,"latitude":48.15281677},"fuelLevel":0.72,"lastAddress":"Akademiestraße 11, 80799 München, Germany"}
{"timestamp":"2016-10-27T14:40:00+0200","id":124026,"name":"Eva","coordinate":{"longitude":11.57980347,"latitude":48.1526947},"fuelLevel":0.89,"lastAddress":"Akademiestraße 11, 80799 München, Germany"}
{"timestamp":"2016-10-27T14:40:00+0200","id":124033,"name":"Johanna","coordinate":{"longitude":11.57629395,"latitude":48.15029907},"fuelLevel":0.55,"lastAddress":"Schellingstraße 28A, 80799 München, Germany"}
{"timestamp":"2016-10-27T14:40:00+0200","id":124036,"name":"Liesel","coordinate":{"longitude":11.58059692,"latitude":48.15158081},"fuelLevel":0.8200000000000001,"lastAddress":"Adalbertstraße 8, 80799 München, Germany"}
{"timestamp":"2016-10-27T14:40:00+0200","id":124040,"name":"Reserl","coordinate":{"longitude":11.57278442,"latitude":48.13322449},"fuelLevel":0.62,"lastAddress":"Blumenstraße 28, 80331 München, Germany"}
{"timestamp":"2016-10-27T14:40:00+0200","id":124021,"name":"Xaver","coordinate":{"longitude":11.57199097,"latitude":48.1309967},"fuelLevel":0.88,"lastAddress":"Fraunhoferstraße 6, 80469 München, Germany"}
{"timestamp":"2016-10-27T14:40:00+0200","id":124034,"name":"Kathi","coordinate":{"longitude":11.59721375,"latitude":48.13241577},"fuelLevel":0.57,"lastAddress":"Preysingstraße 35, 81667 München, Germany"}
{"timestamp":"2016-10-27T14:40:00+0200","id":124022,"name":"Anne","coordinate":{"longitude":11.59858704,"latitude":48.12579346},"fuelLevel":0.5782312925170068,"lastAddress":"Rosenheimer Str. 100-102, 81667 München, Germany"}
{"timestamp":"2016-10-27T14:40:00+0200","id":124000,"name":"Bertl","coordinate":{"longitude":11.59959984,"latitude":48.12810135},"fuelLevel":0.8,"lastAddress":"Pariser Str. 29A, 81667 München, Germany"}
{"timestamp":"2016-10-27T14:40:00+0200","id":124013,"name":"Poldi","coordinate":{"longitude":11.59030151,"latitude":48.12539673},"fuelLevel":0.86,"lastAddress":"Franziskanerstraße 43, 81669 München, Germany"}
{"timestamp":"2016-10-27T14:40:00+0200","id":124011,"name":"Maxl","coordinate":{"longitude":11.59759998,"latitude":48.12419891},"fuelLevel":0.61,"lastAddress":"Orleansstraße 1, 81669 München, Germany"}
{"timestamp":"2016-10-27T14:40:00+0200","id":124003,"name":"Franzl","coordinate":{"longitude":11.59898376,"latitude":48.1255188},"fuelLevel":0.88,"lastAddress":"Rosenheimer Str. 106, 81669 München, Germany"}
{"timestamp":"2016-10-27T14:40:00+0200","id":124019,"name":"Valentin","coordinate":{"longitude":11.58181763,"latitude":48.12521362},"fuelLevel":0.76,"lastAddress":"Mariahilfpl. 23, 81541 München, Germany"}
{"timestamp":"2016-10-27T14:40:00+0200","id":124035,"name":"Leonie","coordinate":{"longitude":11.58399963,"latitude":48.12850189},"fuelLevel":0.8639455782312925,"lastAddress":"Zeppelinstraße 47, 81669 München, Germany"}
{"timestamp":"2016-10-27T14:40:00+0200","id":124020,"name":"Vinzenz","coordinate":{"longitude":11.5789032,"latitude":48.12380981},"fuelLevel":0.86,"lastAddress":"Entenbachstraße 14, 81541 München, Germany"}
{"timestamp":"2016-10-27T14:40:00+0200","id":124049,"name":"Marei","coordinate":{"longitude":11.57919312,"latitude":48.12460327},"fuelLevel":0.62,"lastAddress":"Boosstraße 17, 81541 München, Germany"}
{"timestamp":"2016-10-27T14:40:00+0200","id":124045,"name":"Vroni","coordinate":{"longitude":11.5684967,"latitude":48.13119507},"fuelLevel":0.5902777777777778,"lastAddress":"Müllerstraße 43, 80469 München, Germany"}
{"timestamp":"2016-10-27T14:40:00+0200","id":124018,"name":"Toni","coordinate":{"longitude":11.5705719,"latitude":48.13038635},"fuelLevel":0.6499999999999999,"lastAddress":"Hans-Sachs-Straße 3, 80469 München, Germany"}
{"timestamp":"2016-10-27T14:40:00+0200","id":124012,"name":"Peter","coordinate":{"longitude":11.55659485,"latitude":48.15480042},"fuelLevel":0.8800000000000001,"lastAddress":"Heßstraße 108, 80797 München, Germany"}
{"timestamp":"2016-10-27T14:40:00+0200","id":124004,"name":"Fridl","coordinate":{"longitude":11.56219482,"latitude":48.15701294},"fuelLevel":0.55,"lastAddress":"Schleißheimer Str. 77, 80797 München, Germany"}
{"timestamp":"2016-10-27T14:40:00+0200","id":124031,"name":"Heidi","coordinate":{"longitude":11.56932068,"latitude":48.14956665},"fuelLevel":0.6388888888888888,"lastAddress":"Arcisstraße 21, 80333 München, Germany"}
{"timestamp":"2016-10-27T14:40:00+0200","id":124048,"name":"Wiggerl","coordinate":{"longitude":11.57528687,"latitude":48.15888977},"fuelLevel":0.6000000000000001,"lastAddress":"Nordendstraße 62, 80801 München, Germany"}
{"timestamp":"2016-10-27T14:40:00+0200","id":124028,"name":"Gitte","coordinate":{"longitude":11.57580566,"latitude":48.16009521},"fuelLevel":0.7200000000000001,"lastAddress":"Hohenzollernstraße 49, 80801 München, Germany"}
{"timestamp":"2016-10-27T14:40:00+0200","id":124027,"name":"Fanni","coordinate":{"longitude":11.5847168,"latitude":48.16210938},"fuelLevel":0.6900000000000001,"lastAddress":"Herzogstraße 5-7, 80803 München, Germany"}
{"timestamp":"2016-10-27T14:40:00+0200","id":124005,"name":"Georg","coordinate":{"longitude":11.57678223,"latitude":48.15800476},"fuelLevel":0.8500000000000001,"lastAddress":"Römerstraße 1, 80801 München, Germany"}
{"timestamp":"2016-10-27T14:40:00+0200","id":124001,"name":"Edmund","coordinate":{"longitude":11.57899475,"latitude":48.15800476},"fuelLevel":0.7999999999999999,"lastAddress":"Franz-Joseph-Straße 30, 80801 München, Germany"}
{"timestamp":"2016-10-27T14:40:00+0200","id":124032,"name":"Irmi","coordinate":{"longitude":11.57489014,"latitude":48.15890503},"fuelLevel":0.57,"lastAddress":"Nordendstraße 62-64, 80801 München, Germany"}
{"timestamp":"2016-10-27T14:40:00+0200","id":124029,"name":"Hannah","coordinate":{"longitude":11.50990295,"latitude":48.04550171},"fuelLevel":0.81,"lastAddress":"Gistlstraße 159, 82049 Pullach im Isartal, Germany"}
{"timestamp":"2016-10-27T14:40:00+0200","id":124008,"name":"Johann","coordinate":{"longitude":11.50953674,"latitude":48.04550171},"fuelLevel":0.6944444444444444,"lastAddress":"Seitnerstraße 70, 82049 Pullach im Isartal, Germany"}
{"timestamp":"2016-10-27T14:40:00+0200","id":124039,"name":"Marie","coordinate":{"longitude":11.50990295,"latitude":48.04530334},"fuelLevel":0.82,"lastAddress":"Gistlstraße 159, 82049 Pullach im Isartal, Germany"}
{"timestamp":"2016-10-27T14:40:00+0200","id":124009,"name":"Ludwig","coordinate":{"longitude":11.57633972,"latitude":48.16697693},"fuelLevel":0.76,"lastAddress":"Karl-Theodor-Straße 72, 80803 München, Germany"}