{"timestamp":"2016-09-28T05:35:00+0200","id":124041,"name":"Sophie","coordinate":{"longitude":11.57769966,"latitude":48.1495018},"fuelLevel":0.93,"lastAddress":"Amalienstraße 55, 80799 München, Germany"}
{"timestamp":"2016-09-28T05:35:00+0200","id":124026,"name":"Eva","coordinate":{"longitude":11.57820034,"latitude":48.15370178},"fuelLevel":0.61,"lastAddress":"Türkenstraße 95, 80799 München, Germany"}
{"timestamp":"2016-09-28T05:35:00+0200","id":124025,"name":"Elli","coordinate":{"longitude":11.57839966,"latitude":48.15340042},"fuelLevel":0.85,"lastAddress":"Türkenstraße 93, 80799 München, Germany"}
{"timestamp":"2016-09-28T05:35:00+0200","id":124033,"name":"Johanna","coordinate":{"longitude":11.57919979,"latitude":48.15660095},"fuelLevel":0.89,"lastAddress":"Hohenstaufenstraße 14, 80801 München, Germany"}
{"timestamp":"2016-09-28T05:35:00+0200","id":124036,"name":"Liesel","coordinate":{"longitude":11.57509995,"latitude":48.15629959},"fuelLevel":0.6699999999999999,"lastAddress":"Nordendstraße 29, 80801 München, Germany"}
{"timestamp":"2016-09-28T05:35:00+0200","id":124044,"name":"Uschi","coordinate":{"longitude":11.57579994,"latitude":48.13000107},"fuelLevel":0.51,"lastAddress":"Reichenbachstraße 26, 80469 München, Germany"}
{"timestamp":"2016-09-28T05:35:00+0200","id":124024,"name":"Christl","coordinate":{"longitude":11.58090019,"latitude":48.13180161},"fuelLevel":0.83,"lastAddress":"Kohlstraße 5, 80469 München, Germany"}
{"timestamp":"2016-09-28T05:35:00+0200","id":124021,"name":"Xaver","coordinate":{"longitude":11.58080006,"latitude":48.13180161},"fuelLevel":0.52,"lastAddress":"Kohlstraße 5, 80469 München, Germany"}
{"timestamp":"2016-09-28T05:35:00+0200","id":124014,"name":"Quirin","coordinate":{"longitude":11.60910034,"latitude":48.12590027},"fuelLevel":0.62,"lastAddress":"Haager Str. 14, 81671 München, Germany"}
{"timestamp":"2016-09-28T05:35:00+0200","id":124034,"name":"Kathi","coordinate":{"longitude":11.60509968,"latitude":48.13240051},"fuelLevel":0.67,"lastAddress":"Elsässer Str. 4, 81667 München, Germany"}
{"timestamp":"2016-09-28T05:35:00+0200","id":124030,"name":"Hedwig","coordinate":{"longitude":11.56289959,"latitude":48.12689972},"fuelLevel":0.9099999999999999,"lastAddress":"Thalkirchner Str. 66-68, 80337 München, Germany"}
{"timestamp":"2016-09-28T05:35:00+0200","id":124023,"name":"Babsi","coordinate":{"longitude":11.56340027,"latitude":48.12730026},"fuelLevel":0.93,"lastAddress":"Thalkirchner Str. 54, 80337 München, Germany"}
{"timestamp":"2016-09-28T05:35:00+0200","id":124016,"name":"Sepp","coordinate":{"longitude":11.59840012,"latitude":48.12590027},"fuelLevel":0.9199999999999999,"lastAddress":"Bazeillesstraße 1, 81669 München, Germany"}
{"timestamp":"2016-09-28T05:35:00+0200","id":124022,"name":"Anne","coordinate":{"longitude":11.59710026,"latitude":48.12680054},"fuelLevel":0.8900000000000001,"lastAddress":"Rosenheimer Str. 111, 81667 München, Germany"}
{"timestamp":"2016-09-28T05:35:00+0200","id":124000,"name":"Bertl","coordinate":{"longitude":11.59459972,"latitude":48.12990189},"fuelLevel":0.8500000000000001,"lastAddress":"Steinstraße 58, 81667 München, Germany"}
{"timestamp":"2016-09-28T05:35:00+0200","id":124013,"name":"Poldi","coordinate":{"longitude":11.59440041,"latitude":48.12680054},"fuelLevel":0.83,"lastAddress":"Rablstraße 47, 81669 München, Germany"}
{"timestamp":"2016-09-28T05:35:00+0200","id":124011,"name":"Maxl","coordinate":{"longitude":11.59290028,"latitude":48.12580109},"fuelLevel":0.8099999999999999,"lastAddress":"Sieboldstraße 5, 81669 München, Germany"}
{"timestamp":"2016-09-28T05:35:00+0200","id":124003,"name":"Franzl","coordinate":{"longitude":11.58959961,"latitude":48.12530136},"fuelLevel":0.88,"lastAddress":"Franziskanerstraße 34, 81669 München, Germany"}
{"timestamp":"2016-09-28T05:35:00+0200","id":124010,"name":"Luitpold","coordinate":{"longitude":11.58600044,"latitude":48.12599945},"fuelLevel":0.88,"lastAddress":"Gebsattelstraße 2, 81541 München, Germany"}
{"timestamp":"2016-09-28T05:35:00+0200","id":124019,"name":"Valentin","coordinate":{"longitude":11.58479977,"latitude":48.12360001},"fuelLevel":0.9199999999999999,"lastAddress":"Hochstraße 49C, 81541 München, Germany"}
{"timestamp":"2016-09-28T05:35:00+0200","id":124035,"name":"Leonie","coordinate":{"longitude":11.58650017,"latitude":48.12889862},"fuelLevel":0.7899999999999999,"lastAddress":"Paulanerpl. 1, 81669 München, Germany"}
{"timestamp":"2016-09-28T05:35:00+0200","id":124006,"name":"Gustl","coordinate":{"longitude":11.57730007,"latitude":48.12129974},"fuelLevel":0.93,"lastAddress":"Entenbachstraße 49, 81541 München, Germany"}
{"timestamp":"2016-09-28T05:35:00+0200","id":124020,"name":"Vinzenz","coordinate":{"longitude":11.57919979,"latitude":48.1230011},"fuelLevel":0.9299999999999999,"lastAddress":"Albanistraße 19, 81541 München, Germany"}
{"timestamp":"2016-09-28T05:35:00+0200","id":124049,"name":"Marei","coordinate":{"longitude":11.57409954,"latitude":48.12020111},"fuelLevel":0.7200000000000001,"lastAddress":"Oefelestraße 12, 81543 München, Germany"}
{"timestamp":"2016-09-28T05:35:00+0200","id":124045,"name":"Vroni","coordinate":{"longitude":11.56779957,"latitude":48.12749863},"fuelLevel":0.9199999999999999,"lastAddress":"Holzstraße 45, 80469 München, Germany"}
{"timestamp":"2016-09-28T05:35:00+0200","id":124018,"name":"Toni","coordinate":{"longitude":11.56919956,"latitude":48.12659836},"fuelLevel":0.9500000000000001,"lastAddress":"Jahnstraße 45, 80469 München, Germany"}
{"timestamp":"2016-09-28T05:35:00+0200","id":124012,"name":"Peter","coordinate":{"longitude":11.57250023,"latitude":48.14979935},"fuelLevel":1,"lastAddress":"Barer Str. 48-50, 80799 München, Germany"}
{"timestamp":"2016-09-28T05:35:00+0200","id":124031,"name":"Heidi","coordinate":{"longitude":11.56639957,"latitude":48.14810181},"fuelLevel":0.8500000000000001,"lastAddress":"Gabelsbergerstraße 49, 80333 München, Germany"}
{"timestamp":"2016-09-28T05:35:00+0200","id":124047,"name":"Walli","coordinate":{"longitude":11.57159996,"latitude":48.15620041},"fuelLevel":0.8999999999999999,"lastAddress":"Georgenstraße 61B, 80799 München, Germany"}
{"timestamp":"2016-09-28T05:35:00+0200","id":124002,"name":"Ferdl","coordinate":{"longitude":11.5635004,"latitude":48.15069962},"fuelLevel":0.48000000000000004,"lastAddress":"Augustenstraße 77, 80333 München, Germany"}
{"timestamp":"2016-09-28T05:35:00+0200","id":124048,"name":"Wiggerl","coordinate":{"longitude":11.57719994,"latitude":48.15919876},"fuelLevel":0.7200000000000001,"lastAddress":"Römerstraße 9, 80801 München, Germany"}
{"timestamp":"2016-09-28T05:35:00+0200","id":124028,"name":"Gitte","coordinate":{"longitude":11.58069992,"latitude":48.15829849},"fuelLevel":0.81,"lastAddress":"Habsburgerpl. 4, 80801 München, Germany"}
{"timestamp":"2016-09-28T05:35:00+0200","id":124027,"name":"Fanni","coordinate":{"longitude":11.57730007,"latitude":48.15909958},"fuelLevel":0.85,"lastAddress":"Römerstraße 10, 80801 München, Germany"}
{"timestamp":"2016-09-28T05:35:00+0200","id":124005,"name":"Georg","coordinate":{"longitude":11.58139992,"latitude":48.15890121},"fuelLevel":0.69,"lastAddress":"Ainmillerstraße 20, 80801 München, Germany"}
{"timestamp":"2016-09-28T05:35:00+0200","id":124032,"name":"Irmi","coordinate":{"longitude":11.57339954,"latitude":48.16040039},"fuelLevel":0.64,"lastAddress":"Isabellastraße 48, 80796 München, Germany"}
{"timestamp":"2016-09-28T05:35:00+0200","id":124037,"name":"Luise","coordinate":{"longitude":11.56519985,"latitude":48.1595993},"fuelLevel":0.9400000000000001,"lastAddress":"Elisabethstraße 52, 80796 München, Germany"}
{"timestamp":"2016-09-28T05:35:00+0200","id":124017,"name":"Siggi","coordinate":{"longitude":11.57069969,"latitude":48.16030121},"fuelLevel":0.56,"lastAddress":"Jakob-Klar-Straße 11, 80796 München, Germany"}
{"timestamp":"2016-09-28T05:35:00+0200","id":124029,"name":"Hannah","coordinate":{"longitude":11.51019955,"latitude":48.04560089},"fuelLevel":0.7,"lastAddress":"Gistlstraße 159, 82049 Pullach im Isartal, Germany"}
{"timestamp":"2016-09-28T05:35:00+0200","id":124039,"name":"Marie","coordinate":{"longitude":11.50949955,"latitude":48.04560089},"fuelLevel":0.89,"lastAddress":"Seitnerstraße 70, 82049 Pullach im Isartal, Germany"}
{"timestamp":"2016-09-28T05:35:00+0200","id":124009,"name":"Ludwig","coordinate":{"longitude":11.57820034,"latitude":48.16410065},"fuelLevel":0.9400000000000001,"lastAddress":"Cherubinistraße 2, 80803 München, Germany"}
{"timestamp":"2016-09-28T05:35:00+0200","id":124007,"name":"Jakob","coordinate":{"longitude":11.58600044,"latitude":48.16389847},"fuelLevel":0.9500000000000001,"lastAddress":"Leopoldstraße 87, 80802 München, Germany"}