{"timestamp":"2016-10-14T19:10:00+0200","id":124041,"name":"Sophie","coordinate":{"longitude":11.57900047,"latitude":48.14989853},"fuelLevel":0.87,"lastAddress":"Schellingstraße 10, 80799 München, Germany"}
{"timestamp":"2016-10-14T19:10:00+0200","id":124026,"name":"Eva","coordinate":{"longitude":11.57820034,"latitude":48.15330124},"fuelLevel":0.61,"lastAddress":"Türkenstraße 93, 80799 München, Germany"}
{"timestamp":"2016-10-14T19:10:00+0200","id":124025,"name":"Elli","coordinate":{"longitude":11.57670021,"latitude":48.15779877},"fuelLevel":0.87,"lastAddress":"Franz-Joseph-Straße 44, 80801 München, Germany"}
{"timestamp":"2016-10-14T19:10:00+0200","id":124033,"name":"Johanna","coordinate":{"longitude":11.57670021,"latitude":48.15019989},"fuelLevel":0.73,"lastAddress":"Schellingstraße 24, 80799 München, Germany"}
{"timestamp":"2016-10-14T19:10:00+0200","id":124044,"name":"Uschi","coordinate":{"longitude":11.57250023,"latitude":48.13199997},"fuelLevel":0.9199999999999999,"lastAddress":"Müllerstraße 20, 80469 München, Germany"}
{"timestamp":"2016-10-14T19:10:00+0200","id":124040,"name":"Reserl","coordinate":{"longitude":11.57299995,"latitude":48.13199997},"fuelLevel":0.79,"lastAddress":"Müllerstraße 7, 80469 München, Germany"}
{"timestamp":"2016-10-14T19:10:00+0200","id":124021,"name":"Xaver","coordinate":{"longitude":11.58030033,"latitude":48.13000107},"fuelLevel":0.9199999999999999,"lastAddress":"Erhardtstraße 27, 80469 München, Germany"}
{"timestamp":"2016-10-14T19:10:00+0200","id":124014,"name":"Quirin","coordinate":{"longitude":11.59739971,"latitude":48.13479996},"fuelLevel":0.57,"lastAddress":"Innere Wiener Straße 59, 81667 München, Germany"}
{"timestamp":"2016-10-14T19:10:00+0200","id":124034,"name":"Kathi","coordinate":{"longitude":11.60470009,"latitude":48.13339996},"fuelLevel":0.73,"lastAddress":"Kirchenstraße 62, 81675 München, Germany"}
{"timestamp":"2016-10-14T19:10:00+0200","id":124016,"name":"Sepp","coordinate":{"longitude":11.59829998,"latitude":48.12580109},"fuelLevel":0.88,"lastAddress":"Rosenheimer Str. 100, 81669 München, Germany"}
{"timestamp":"2016-10-14T19:10:00+0200","id":124038,"name":"Magda","coordinate":{"longitude":11.60039997,"latitude":48.12829971},"fuelLevel":0.67,"lastAddress":"Weißenburger Str. 36, 81667 München, Germany"}
{"timestamp":"2016-10-14T19:10:00+0200","id":124022,"name":"Anne","coordinate":{"longitude":11.59980011,"latitude":48.12599945},"fuelLevel":0.7999999999999999,"lastAddress":"Lothringer Str. 34, 81667 München, Germany"}
{"timestamp":"2016-10-14T19:10:00+0200","id":124013,"name":"Poldi","coordinate":{"longitude":11.59399986,"latitude":48.12810135},"fuelLevel":0.61,"lastAddress":"Franziskanerstraße 3, 81669 München, Germany"}
{"timestamp":"2016-10-14T19:10:00+0200","id":124011,"name":"Maxl","coordinate":{"longitude":11.59490013,"latitude":48.12779999},"fuelLevel":0.6699999999999999,"lastAddress":"Metzstraße 1, 81667 München, Germany"}
{"timestamp":"2016-10-14T19:10:00+0200","id":124003,"name":"Franzl","coordinate":{"longitude":11.59300041,"latitude":48.12730026},"fuelLevel":0.8,"lastAddress":"Franziskanerstraße 8, 81669 München, Germany"}
{"timestamp":"2016-10-14T19:10:00+0200","id":124010,"name":"Luitpold","coordinate":{"longitude":11.58430004,"latitude":48.12760162},"fuelLevel":0.9400000000000001,"lastAddress":"Lilienstraße 66, 81669 München, Germany"}
{"timestamp":"2016-10-14T19:10:00+0200","id":124006,"name":"Gustl","coordinate":{"longitude":11.57479954,"latitude":48.11959839},"fuelLevel":0.9400000000000001,"lastAddress":"Humboldtstraße 32, 81543 München, Germany"}
{"timestamp":"2016-10-14T19:10:00+0200","id":124020,"name":"Vinzenz","coordinate":{"longitude":11.57820034,"latitude":48.1228981},"fuelLevel":0.81,"lastAddress":"Entenbachstraße 27, 81541 München, Germany"}
{"timestamp":"2016-10-14T19:10:00+0200","id":124049,"name":"Marei","coordinate":{"longitude":11.57419968,"latitude":48.12239838},"fuelLevel":0.9400000000000001,"lastAddress":"Sommerstraße 8, 81543 München, Germany"}
{"timestamp":"2016-10-14T19:10:00+0200","id":124045,"name":"Vroni","coordinate":{"longitude":11.56499958,"latitude":48.12400055},"fuelLevel":0.64,"lastAddress":"Kapuzinerstraße 46, 80469 München, Germany"}
{"timestamp":"2016-10-14T19:10:00+0200","id":124018,"name":"Toni","coordinate":{"longitude":11.56949997,"latitude":48.12929916},"fuelLevel":0.66,"lastAddress":"Hans-Sachs-Straße 18, 80469 München, Germany"}
{"timestamp":"2016-10-14T19:10:00+0200","id":124012,"name":"Peter","coordinate":{"longitude":11.56130028,"latitude":48.15480042},"fuelLevel":0.9600000000000001,"lastAddress":"Schleißheimer Str. 51, 80797 München, Germany"}
{"timestamp":"2016-10-14T19:10:00+0200","id":124031,"name":"Heidi","coordinate":{"longitude":11.56659985,"latitude":48.15169907},"fuelLevel":0.63,"lastAddress":"Heßstraße 23, 80798 München, Germany"}
{"timestamp":"2016-10-14T19:10:00+0200","id":124047,"name":"Walli","coordinate":{"longitude":11.57040024,"latitude":48.14960098},"fuelLevel":0.71,"lastAddress":"Theresienstraße, 80333 München, Germany"}
{"timestamp":"2016-10-14T19:10:00+0200","id":124048,"name":"Wiggerl","coordinate":{"longitude":11.58040047,"latitude":48.16270065},"fuelLevel":0.67,"lastAddress":"Herzogstraße 33, 80803 München, Germany"}
{"timestamp":"2016-10-14T19:10:00+0200","id":124028,"name":"Gitte","coordinate":{"longitude":11.57559967,"latitude":48.16030121},"fuelLevel":0.7200000000000001,"lastAddress":"Hohenzollernstraße 82, 80801 München, Germany"}
{"timestamp":"2016-10-14T19:10:00+0200","id":124027,"name":"Fanni","coordinate":{"longitude":11.58430004,"latitude":48.16040039},"fuelLevel":0.7899999999999999,"lastAddress":"Kaiserstraße 9, 80801 München, Germany"}
{"timestamp":"2016-10-14T19:10:00+0200","id":124005,"name":"Georg","coordinate":{"longitude":11.57549953,"latitude":48.16210175},"fuelLevel":0.56,"lastAddress":"Viktor-Scheffel-Straße 20, 80803 München, Germany"}
{"timestamp":"2016-10-14T19:10:00+0200","id":124032,"name":"Irmi","coordinate":{"longitude":11.57310009,"latitude":48.16040039},"fuelLevel":0.64,"lastAddress":"Isabellastraße 49, 80796 München, Germany"}
{"timestamp":"2016-10-14T19:10:00+0200","id":124037,"name":"Luise","coordinate":{"longitude":11.57009983,"latitude":48.15750122},"fuelLevel":0.52,"lastAddress":"Agnesstraße 16, 80798 München, Germany"}
{"timestamp":"2016-10-14T19:10:00+0200","id":124017,"name":"Siggi","coordinate":{"longitude":11.57229996,"latitude":48.16059875},"fuelLevel":0.56,"lastAddress":"Hohenzollernstraße 104, 80796 München, Germany"}
{"timestamp":"2016-10-14T19:10:00+0200","id":124029,"name":"Hannah","coordinate":{"longitude":11.51029968,"latitude":48.04529953},"fuelLevel":0.7,"lastAddress":"Gistlstraße 159, 82049 Pullach im Isartal, Germany"}
{"timestamp":"2016-10-14T19:10:00+0200","id":124008,"name":"Johann","coordinate":{"longitude":11.55840015,"latitude":48.12820053},"fuelLevel":0.87,"lastAddress":"Häberlstraße 10-12, 80337 München, Germany"}
{"timestamp":"2016-10-14T19:10:00+0200","id":124039,"name":"Marie","coordinate":{"longitude":11.50469971,"latitude":48.03710175},"fuelLevel":0.9099999999999999,"lastAddress":"Zugspitzstraße 15, 82049 Pullach im Isartal, Germany"}
{"timestamp":"2016-10-14T19:10:00+0200","id":124009,"name":"Ludwig","coordinate":{"longitude":11.58430004,"latitude":48.16239929},"fuelLevel":0.69,"lastAddress":"Herzogstraße 10, 80803 München, Germany"}