{"timestamp":"2016-10-15T01:15:00+0200","id":124041,"name":"Sophie","coordinate":{"longitude":11.57820034,"latitude":48.15000153},"fuelLevel":0.87,"lastAddress":"Amalienstraße 61, 80799 München, Germany"}
{"timestamp":"2016-10-15T01:15:00+0200","id":124026,"name":"Eva","coordinate":{"longitude":11.58180046,"latitude":48.15380096},"fuelLevel":0.61,"lastAddress":"Leopoldstraße 3, 80802 München, Germany"}
{"timestamp":"2016-10-15T01:15:00+0200","id":124025,"name":"Elli","coordinate":{"longitude":11.57660007,"latitude":48.1576004},"fuelLevel":0.87,"lastAddress":"Franz-Joseph-Straße 41, 80801 München, Germany"}
{"timestamp":"2016-10-15T01:15:00+0200","id":124033,"name":"Johanna","coordinate":{"longitude":11.57649994,"latitude":48.14979935},"fuelLevel":0.73,"lastAddress":"Türkenstraße 60, 80799 München, Germany"}
{"timestamp":"2016-10-15T01:15:00+0200","id":124044,"name":"Uschi","coordinate":{"longitude":11.57269955,"latitude":48.13190079},"fuelLevel":0.9199999999999999,"lastAddress":"Müllerstraße 7, 80469 München, Germany"}
{"timestamp":"2016-10-15T01:15:00+0200","id":124040,"name":"Reserl","coordinate":{"longitude":11.57279968,"latitude":48.13190079},"fuelLevel":0.79,"lastAddress":"Müllerstraße 7, 80469 München, Germany"}
{"timestamp":"2016-10-15T01:15:00+0200","id":124021,"name":"Xaver","coordinate":{"longitude":11.58049965,"latitude":48.12990189},"fuelLevel":0.9199999999999999,"lastAddress":"Erhardtstraße 27, 80469 München, Germany"}
{"timestamp":"2016-10-15T01:15:00+0200","id":124014,"name":"Quirin","coordinate":{"longitude":11.59770012,"latitude":48.13460159},"fuelLevel":0.57,"lastAddress":"Innere Wiener Straße 58, 81667 München, Germany"}
{"timestamp":"2016-10-15T01:15:00+0200","id":124034,"name":"Kathi","coordinate":{"longitude":11.60499954,"latitude":48.13370132},"fuelLevel":0.73,"lastAddress":"Flurstraße 2-4, 81675 München, Germany"}
{"timestamp":"2016-10-15T01:15:00+0200","id":124016,"name":"Sepp","coordinate":{"longitude":11.59819984,"latitude":48.12620163},"fuelLevel":0.88,"lastAddress":"Rosenheimer Str. 119, 81667 München, Germany"}
{"timestamp":"2016-10-15T01:15:00+0200","id":124038,"name":"Magda","coordinate":{"longitude":11.60039997,"latitude":48.12820053},"fuelLevel":0.67,"lastAddress":"Gravelottestraße 1, 81667 München, Germany"}
{"timestamp":"2016-10-15T01:15:00+0200","id":124022,"name":"Anne","coordinate":{"longitude":11.59980011,"latitude":48.1257019},"fuelLevel":0.7999999999999999,"lastAddress":"Orleansstraße 19, 81667 München, Germany"}
{"timestamp":"2016-10-15T01:15:00+0200","id":124013,"name":"Poldi","coordinate":{"longitude":11.59440041,"latitude":48.12770081},"fuelLevel":0.61,"lastAddress":"Balanstraße 6A, 81669 München, Germany"}
{"timestamp":"2016-10-15T01:15:00+0200","id":124011,"name":"Maxl","coordinate":{"longitude":11.59490013,"latitude":48.12760162},"fuelLevel":0.6699999999999999,"lastAddress":"Rosenheimer Str. 66, 81669 München, Germany"}
{"timestamp":"2016-10-15T01:15:00+0200","id":124003,"name":"Franzl","coordinate":{"longitude":11.59280014,"latitude":48.1271019},"fuelLevel":0.8,"lastAddress":"Rablstraße 26, 81669 München, Germany"}
{"timestamp":"2016-10-15T01:15:00+0200","id":124010,"name":"Luitpold","coordinate":{"longitude":11.58460045,"latitude":48.12760162},"fuelLevel":0.9400000000000001,"lastAddress":"Lilienstraße 73, 81669 München, Germany"}
{"timestamp":"2016-10-15T01:15:00+0200","id":124006,"name":"Gustl","coordinate":{"longitude":11.57429981,"latitude":48.12070084},"fuelLevel":0.9400000000000001,"lastAddress":"Sommerstraße 21C, 81543 München, Germany"}
{"timestamp":"2016-10-15T01:15:00+0200","id":124020,"name":"Vinzenz","coordinate":{"longitude":11.57800007,"latitude":48.1228981},"fuelLevel":0.81,"lastAddress":"Entenbachstraße 26, 81541 München, Germany"}
{"timestamp":"2016-10-15T01:15:00+0200","id":124049,"name":"Marei","coordinate":{"longitude":11.57409954,"latitude":48.12239838},"fuelLevel":0.9400000000000001,"lastAddress":"Sommerstraße 8, 81543 München, Germany"}
{"timestamp":"2016-10-15T01:15:00+0200","id":124045,"name":"Vroni","coordinate":{"longitude":11.56519985,"latitude":48.1242981},"fuelLevel":0.64,"lastAddress":"Kapuzinerstraße 37, 80469 München, Germany"}
{"timestamp":"2016-10-15T01:15:00+0200","id":124012,"name":"Peter","coordinate":{"longitude":11.5614996,"latitude":48.15430069},"fuelLevel":0.9600000000000001,"lastAddress":"Schellingstraße 143, 80798 München, Germany"}
{"timestamp":"2016-10-15T01:15:00+0200","id":124004,"name":"Fridl","coordinate":{"longitude":11.55869961,"latitude":48.15409851},"fuelLevel":0.66,"lastAddress":"Heßstraße 102B, 80797 München, Germany"}
{"timestamp":"2016-10-15T01:15:00+0200","id":124031,"name":"Heidi","coordinate":{"longitude":11.56669998,"latitude":48.15169907},"fuelLevel":0.63,"lastAddress":"Heßstraße 23, 80798 München, Germany"}
{"timestamp":"2016-10-15T01:15:00+0200","id":124047,"name":"Walli","coordinate":{"longitude":11.57019997,"latitude":48.14929962},"fuelLevel":0.71,"lastAddress":"Theresienstraße, 80333 München, Germany"}
{"timestamp":"2016-10-15T01:15:00+0200","id":124048,"name":"Wiggerl","coordinate":{"longitude":11.58090019,"latitude":48.16289902},"fuelLevel":0.67,"lastAddress":"Herzogstraße 36, 80803 München, Germany"}
{"timestamp":"2016-10-15T01:15:00+0200","id":124028,"name":"Gitte","coordinate":{"longitude":11.57569981,"latitude":48.16040039},"fuelLevel":0.7200000000000001,"lastAddress":"Hohenzollernstraße 78, 80801 München, Germany"}
{"timestamp":"2016-10-15T01:15:00+0200","id":124027,"name":"Fanni","coordinate":{"longitude":11.58450031,"latitude":48.16059875},"fuelLevel":0.7899999999999999,"lastAddress":"Kaiserstraße 9, 80801 München, Germany"}
{"timestamp":"2016-10-15T01:15:00+0200","id":124005,"name":"Georg","coordinate":{"longitude":11.57549953,"latitude":48.16199875},"fuelLevel":0.56,"lastAddress":"Viktor-Scheffel-Straße 19-21, 80803 München, Germany"}
{"timestamp":"2016-10-15T01:15:00+0200","id":124032,"name":"Irmi","coordinate":{"longitude":11.57310009,"latitude":48.16040039},"fuelLevel":0.64,"lastAddress":"Isabellastraße 49, 80796 München, Germany"}
{"timestamp":"2016-10-15T01:15:00+0200","id":124037,"name":"Luise","coordinate":{"longitude":11.5703001,"latitude":48.15729904},"fuelLevel":0.52,"lastAddress":"Agnesstraße 13, 80798 München, Germany"}
{"timestamp":"2016-10-15T01:15:00+0200","id":124017,"name":"Siggi","coordinate":{"longitude":11.57250023,"latitude":48.16080093},"fuelLevel":0.56,"lastAddress":"Hohenzollernstraße 102, 80796 München, Germany"}
{"timestamp":"2016-10-15T01:15:00+0200","id":124039,"name":"Marie","coordinate":{"longitude":11.50469971,"latitude":48.03710175},"fuelLevel":0.9099999999999999,"lastAddress":"Zugspitzstraße 15, 82049 Pullach im Isartal, Germany"}
{"timestamp":"2016-10-15T01:15:00+0200","id":124009,"name":"Ludwig","coordinate":{"longitude":11.58409977,"latitude":48.16210175},"fuelLevel":0.69,"lastAddress":"Herzogstraße 9, 80803 München, Germany"}