{"timestamp":"2016-10-09T05:00:00+0200","id":124041,"name":"Sophie","coordinate":{"longitude":11.5777998,"latitude":48.14970016},"fuelLevel":0.9400000000000001,"lastAddress":"Schellingstraße 11, 80799 München, Germany"}
{"timestamp":"2016-10-09T05:00:00+0200","id":124026,"name":"Eva","coordinate":{"longitude":11.57820034,"latitude":48.1534996},"fuelLevel":0.61,"lastAddress":"Türkenstraße 93, 80799 München, Germany"}
{"timestamp":"2016-10-09T05:00:00+0200","id":124025,"name":"Elli","coordinate":{"longitude":11.57610035,"latitude":48.15779877},"fuelLevel":0.9,"lastAddress":"Franz-Joseph-Straße 46, 80801 München, Germany"}
{"timestamp":"2016-10-09T05:00:00+0200","id":124033,"name":"Johanna","coordinate":{"longitude":11.58100033,"latitude":48.15280151},"fuelLevel":0.76,"lastAddress":"Akademiestraße 5, 80799 München, Germany"}
{"timestamp":"2016-10-09T05:00:00+0200","id":124036,"name":"Liesel","coordinate":{"longitude":11.60849953,"latitude":48.12649918},"fuelLevel":0.6699999999999999,"lastAddress":"Haager Str. 12, 81671 München, Germany"}
{"timestamp":"2016-10-09T05:00:00+0200","id":124044,"name":"Uschi","coordinate":{"longitude":11.57250023,"latitude":48.13199997},"fuelLevel":0.9199999999999999,"lastAddress":"Müllerstraße 20, 80469 München, Germany"}
{"timestamp":"2016-10-09T05:00:00+0200","id":124024,"name":"Christl","coordinate":{"longitude":11.5795002,"latitude":48.13359833},"fuelLevel":0.8,"lastAddress":"Klenzestraße 1, 80469 München, Germany"}
{"timestamp":"2016-10-09T05:00:00+0200","id":124040,"name":"Reserl","coordinate":{"longitude":11.57190037,"latitude":48.13169861},"fuelLevel":0.83,"lastAddress":"Müllerstraße 24, 80469 München, Germany"}
{"timestamp":"2016-10-09T05:00:00+0200","id":124021,"name":"Xaver","coordinate":{"longitude":11.58030033,"latitude":48.13050079},"fuelLevel":0.9199999999999999,"lastAddress":"Bob‑van‑Benthem‑Platz 1, 80469 München, Germany"}
{"timestamp":"2016-10-09T05:00:00+0200","id":124014,"name":"Quirin","coordinate":{"longitude":11.60529995,"latitude":48.13249969},"fuelLevel":0.6000000000000001,"lastAddress":"Kirchenstraße 70, 81675 München, Germany"}
{"timestamp":"2016-10-09T05:00:00+0200","id":124034,"name":"Kathi","coordinate":{"longitude":11.60509968,"latitude":48.13249969},"fuelLevel":0.66,"lastAddress":"Elsässer Str. 4, 81667 München, Germany"}
{"timestamp":"2016-10-09T05:00:00+0200","id":124016,"name":"Sepp","coordinate":{"longitude":11.59819984,"latitude":48.12590027},"fuelLevel":0.9299999999999999,"lastAddress":"Rosenheimer Str. 133, 81667 München, Germany"}
{"timestamp":"2016-10-09T05:00:00+0200","id":124038,"name":"Magda","coordinate":{"longitude":11.60009956,"latitude":48.12860107},"fuelLevel":0.67,"lastAddress":"Sedanstraße 34, 81667 München, Germany"}
{"timestamp":"2016-10-09T05:00:00+0200","id":124022,"name":"Anne","coordinate":{"longitude":11.59469986,"latitude":48.12799835},"fuelLevel":0.86,"lastAddress":"Rosenheimer Str. 62, 81669 München, Germany"}
{"timestamp":"2016-10-09T05:00:00+0200","id":124000,"name":"Bertl","coordinate":{"longitude":11.59640026,"latitude":48.13800049},"fuelLevel":0.82,"lastAddress":"Maria-Theresia-Straße 4, 81675 München, Germany"}
{"timestamp":"2016-10-09T05:00:00+0200","id":124013,"name":"Poldi","coordinate":{"longitude":11.59469986,"latitude":48.12770081},"fuelLevel":0.79,"lastAddress":"Metzstraße 1, 81667 München, Germany"}
{"timestamp":"2016-10-09T05:00:00+0200","id":124011,"name":"Maxl","coordinate":{"longitude":11.59309959,"latitude":48.12559891},"fuelLevel":0.73,"lastAddress":"Sieboldstraße 9, 81669 München, Germany"}
{"timestamp":"2016-10-09T05:00:00+0200","id":124003,"name":"Franzl","coordinate":{"longitude":11.59300041,"latitude":48.12730026},"fuelLevel":0.8,"lastAddress":"Franziskanerstraße 8, 81669 München, Germany"}
{"timestamp":"2016-10-09T05:00:00+0200","id":124010,"name":"Luitpold","coordinate":{"longitude":11.58460045,"latitude":48.12749863},"fuelLevel":0.9500000000000001,"lastAddress":"Lilienstraße 75, 81669 München, Germany"}
{"timestamp":"2016-10-09T05:00:00+0200","id":124019,"name":"Valentin","coordinate":{"longitude":11.58520031,"latitude":48.12379837},"fuelLevel":0.87,"lastAddress":"Hochstraße 47A, 81541 München, Germany"}
{"timestamp":"2016-10-09T05:00:00+0200","id":124035,"name":"Leonie","coordinate":{"longitude":11.58689976,"latitude":48.12939835},"fuelLevel":0.7899999999999999,"lastAddress":"Lilienstraße 47, 81669 München, Germany"}
{"timestamp":"2016-10-09T05:00:00+0200","id":124006,"name":"Gustl","coordinate":{"longitude":11.57750034,"latitude":48.12030029},"fuelLevel":0.9400000000000001,"lastAddress":"Dollmannstraße 6, 81541 München, Germany"}
{"timestamp":"2016-10-09T05:00:00+0200","id":124020,"name":"Vinzenz","coordinate":{"longitude":11.57830048,"latitude":48.12279892},"fuelLevel":0.8999999999999999,"lastAddress":"Entenbachstraße 27, 81541 München, Germany"}
{"timestamp":"2016-10-09T05:00:00+0200","id":124049,"name":"Marei","coordinate":{"longitude":11.57180023,"latitude":48.1208992},"fuelLevel":0.52,"lastAddress":"Humboldtstraße 4, 81543 München, Germany"}
{"timestamp":"2016-10-09T05:00:00+0200","id":124045,"name":"Vroni","coordinate":{"longitude":11.56750011,"latitude":48.13190079},"fuelLevel":0.71,"lastAddress":"Pestalozzistraße 6, 80469 München, Germany"}
{"timestamp":"2016-10-09T05:00:00+0200","id":124018,"name":"Toni","coordinate":{"longitude":11.56999969,"latitude":48.13130188},"fuelLevel":0.9199999999999999,"lastAddress":"Angertorstraße 4, 80469 München, Germany"}
{"timestamp":"2016-10-09T05:00:00+0200","id":124004,"name":"Fridl","coordinate":{"longitude":11.56589985,"latitude":48.15660095},"fuelLevel":0.55,"lastAddress":"Hiltenspergerstraße 8/I, 80798 München, Germany"}
{"timestamp":"2016-10-09T05:00:00+0200","id":124031,"name":"Heidi","coordinate":{"longitude":11.56879997,"latitude":48.15269852},"fuelLevel":0.8,"lastAddress":"Luisenstraße 72, 80798 München, Germany"}
{"timestamp":"2016-10-09T05:00:00+0200","id":124047,"name":"Walli","coordinate":{"longitude":11.56999969,"latitude":48.1495018},"fuelLevel":0.71,"lastAddress":"Theresienstraße 90, 80333 München, Germany"}
{"timestamp":"2016-10-09T05:00:00+0200","id":124002,"name":"Ferdl","coordinate":{"longitude":11.56200027,"latitude":48.14920044},"fuelLevel":0.63,"lastAddress":"Gabelsbergerstraße 73, 80333 München, Germany"}
{"timestamp":"2016-10-09T05:00:00+0200","id":124048,"name":"Wiggerl","coordinate":{"longitude":11.57870007,"latitude":48.16139984},"fuelLevel":0.68,"lastAddress":"Kaiserstraße 38, 80801 München, Germany"}
{"timestamp":"2016-10-09T05:00:00+0200","id":124028,"name":"Gitte","coordinate":{"longitude":11.57730007,"latitude":48.15990067},"fuelLevel":0.75,"lastAddress":"Römerstraße 17, 80801 München, Germany"}
{"timestamp":"2016-10-09T05:00:00+0200","id":124027,"name":"Fanni","coordinate":{"longitude":11.5781002,"latitude":48.15879822},"fuelLevel":0.7899999999999999,"lastAddress":"Ainmillerstraße 29A, 80801 München, Germany"}
{"timestamp":"2016-10-09T05:00:00+0200","id":124005,"name":"Georg","coordinate":{"longitude":11.57540035,"latitude":48.16199875},"fuelLevel":0.56,"lastAddress":"Viktor-Scheffel-Straße 20, 80803 München, Germany"}
{"timestamp":"2016-10-09T05:00:00+0200","id":124001,"name":"Edmund","coordinate":{"longitude":11.57940006,"latitude":48.15779877},"fuelLevel":0.5700000000000001,"lastAddress":"Franz-Joseph-Straße 25, 80801 München, Germany"}
{"timestamp":"2016-10-09T05:00:00+0200","id":124032,"name":"Irmi","coordinate":{"longitude":11.57330036,"latitude":48.16019821},"fuelLevel":0.64,"lastAddress":"Isabellastraße 46, 80796 München, Germany"}
{"timestamp":"2016-10-09T05:00:00+0200","id":124037,"name":"Luise","coordinate":{"longitude":11.56999969,"latitude":48.15779877},"fuelLevel":0.52,"lastAddress":"Agnesstraße 18, 80798 München, Germany"}
{"timestamp":"2016-10-09T05:00:00+0200","id":124017,"name":"Siggi","coordinate":{"longitude":11.5710001,"latitude":48.16090012},"fuelLevel":0.56,"lastAddress":"Hohenzollernstraße 112, 80796 München, Germany"}
{"timestamp":"2016-10-09T05:00:00+0200","id":124029,"name":"Hannah","coordinate":{"longitude":11.51029968,"latitude":48.04539871},"fuelLevel":0.7,"lastAddress":"Gistlstraße 159, 82049 Pullach im Isartal, Germany"}
{"timestamp":"2016-10-09T05:00:00+0200","id":124008,"name":"Johann","coordinate":{"longitude":11.51000023,"latitude":48.04539871},"fuelLevel":0.87,"lastAddress":"Gistlstraße 159, 82049 Pullach im Isartal, Germany"}
{"timestamp":"2016-10-09T05:00:00+0200","id":124039,"name":"Marie","coordinate":{"longitude":11.50969982,"latitude":48.04550171},"fuelLevel":0.58,"lastAddress":"Seitnerstraße 70, 82049 Pullach im Isartal, Germany"}
{"timestamp":"2016-10-09T05:00:00+0200","id":124009,"name":"Ludwig","coordinate":{"longitude":11.58479977,"latitude":48.16180038},"fuelLevel":0.8999999999999999,"lastAddress":"Herzogstraße 5, 80803 München, Germany"}
{"timestamp":"2016-10-09T05:00:00+0200","id":124007,"name":"Jakob","coordinate":{"longitude":11.57460022,"latitude":48.16730118},"fuelLevel":0.88,"lastAddress":"Karl-Theodor-Straße 82, 80803 München, Germany"}