{"timestamp":"2016-10-13T22:45:00+0200","id":124041,"name":"Sophie","coordinate":{"longitude":11.57870007,"latitude":48.14989853},"fuelLevel":0.86,"lastAddress":"Schellingstraße 12, 80799 München, Germany"}
{"timestamp":"2016-10-13T22:45:00+0200","id":124025,"name":"Elli","coordinate":{"longitude":11.57660007,"latitude":48.15790176},"fuelLevel":0.87,"lastAddress":"Franz-Joseph-Straße 44, 80801 München, Germany"}
{"timestamp":"2016-10-13T22:45:00+0200","id":124033,"name":"Johanna","coordinate":{"longitude":11.57670021,"latitude":48.15010071},"fuelLevel":0.73,"lastAddress":"Schellingstraße 26-28, 80799 München, Germany"}
{"timestamp":"2016-10-13T22:45:00+0200","id":124036,"name":"Liesel","coordinate":{"longitude":11.5788002,"latitude":48.15000153},"fuelLevel":0.9400000000000001,"lastAddress":"Amalienstraße 52, 80799 München, Germany"}
{"timestamp":"2016-10-13T22:45:00+0200","id":124044,"name":"Uschi","coordinate":{"longitude":11.57260036,"latitude":48.13209915},"fuelLevel":0.9199999999999999,"lastAddress":"Müllerstraße 18, 80469 München, Germany"}
{"timestamp":"2016-10-13T22:45:00+0200","id":124024,"name":"Christl","coordinate":{"longitude":11.57590008,"latitude":48.12879944},"fuelLevel":0.9299999999999999,"lastAddress":"Reichenbachstraße 55, 80469 München, Germany"}
{"timestamp":"2016-10-13T22:45:00+0200","id":124040,"name":"Reserl","coordinate":{"longitude":11.57209969,"latitude":48.13169861},"fuelLevel":0.83,"lastAddress":"Müllerstraße 24, 80469 München, Germany"}
{"timestamp":"2016-10-13T22:45:00+0200","id":124021,"name":"Xaver","coordinate":{"longitude":11.58040047,"latitude":48.12990189},"fuelLevel":0.9199999999999999,"lastAddress":"Erhardtstraße 27, 80469 München, Germany"}
{"timestamp":"2016-10-13T22:45:00+0200","id":124014,"name":"Quirin","coordinate":{"longitude":11.59770012,"latitude":48.1344986},"fuelLevel":0.57,"lastAddress":"Johannispl. 21, 81667 München, Germany"}
{"timestamp":"2016-10-13T22:45:00+0200","id":124034,"name":"Kathi","coordinate":{"longitude":11.60459995,"latitude":48.13330078},"fuelLevel":0.73,"lastAddress":"Kirchenstraße 60-62, 81675 München, Germany"}
{"timestamp":"2016-10-13T22:45:00+0200","id":124038,"name":"Magda","coordinate":{"longitude":11.60039997,"latitude":48.12820053},"fuelLevel":0.67,"lastAddress":"Gravelottestraße 1, 81667 München, Germany"}
{"timestamp":"2016-10-13T22:45:00+0200","id":124022,"name":"Anne","coordinate":{"longitude":11.59980011,"latitude":48.12580109},"fuelLevel":0.7999999999999999,"lastAddress":"Orleansstraße 19, 81667 München, Germany"}
{"timestamp":"2016-10-13T22:45:00+0200","id":124000,"name":"Bertl","coordinate":{"longitude":11.59780025,"latitude":48.12630081},"fuelLevel":0.8,"lastAddress":"Rosenheimer Str. 115, 81667 München, Germany"}
{"timestamp":"2016-10-13T22:45:00+0200","id":124013,"name":"Poldi","coordinate":{"longitude":11.5941,"latitude":48.12659836},"fuelLevel":0.6000000000000001,"lastAddress":"Rablstraße 44, 81669 München, Germany"}
{"timestamp":"2016-10-13T22:45:00+0200","id":124011,"name":"Maxl","coordinate":{"longitude":11.59500027,"latitude":48.12749863},"fuelLevel":0.6699999999999999,"lastAddress":"Balanstraße 9, 81669 München, Germany"}
{"timestamp":"2016-10-13T22:45:00+0200","id":124003,"name":"Franzl","coordinate":{"longitude":11.59350014,"latitude":48.12739944},"fuelLevel":0.8,"lastAddress":"Franziskanerstraße 13, 81669 München, Germany"}
{"timestamp":"2016-10-13T22:45:00+0200","id":124010,"name":"Luitpold","coordinate":{"longitude":11.58440018,"latitude":48.12749863},"fuelLevel":0.9400000000000001,"lastAddress":"Lilienstraße 68, 81669 München, Germany"}
{"timestamp":"2016-10-13T22:45:00+0200","id":124020,"name":"Vinzenz","coordinate":{"longitude":11.57839966,"latitude":48.12269974},"fuelLevel":0.81,"lastAddress":"Entenbachstraße 27, 81541 München, Germany"}
{"timestamp":"2016-10-13T22:45:00+0200","id":124049,"name":"Marei","coordinate":{"longitude":11.57419968,"latitude":48.12260056},"fuelLevel":0.9400000000000001,"lastAddress":"Eduard-Schmid-Straße 34, 81541 München, Germany"}
{"timestamp":"2016-10-13T22:45:00+0200","id":124045,"name":"Vroni","coordinate":{"longitude":11.56480026,"latitude":48.12369919},"fuelLevel":0.64,"lastAddress":"Kapuzinerstraße 44, 80469 München, Germany"}
{"timestamp":"2016-10-13T22:45:00+0200","id":124018,"name":"Toni","coordinate":{"longitude":11.5678997,"latitude":48.13059998},"fuelLevel":0.66,"lastAddress":"Pestalozzistraße 19, 80469 München, Germany"}
{"timestamp":"2016-10-13T22:45:00+0200","id":124012,"name":"Peter","coordinate":{"longitude":11.5618,"latitude":48.15459824},"fuelLevel":0.9500000000000001,"lastAddress":"Schellingstraße 128, 80798 München, Germany"}
{"timestamp":"2016-10-13T22:45:00+0200","id":124047,"name":"Walli","coordinate":{"longitude":11.5703001,"latitude":48.14920044},"fuelLevel":0.71,"lastAddress":"Theresienstraße, 80333 München, Germany"}
{"timestamp":"2016-10-13T22:45:00+0200","id":124002,"name":"Ferdl","coordinate":{"longitude":11.56400013,"latitude":48.15439987},"fuelLevel":0.9444444444444444,"lastAddress":"Schwindstraße 19, 80798 München, Germany"}
{"timestamp":"2016-10-13T22:45:00+0200","id":124048,"name":"Wiggerl","coordinate":{"longitude":11.58069992,"latitude":48.16270065},"fuelLevel":0.66,"lastAddress":"Herzogstraße 36-38, 80803 München, Germany"}
{"timestamp":"2016-10-13T22:45:00+0200","id":124028,"name":"Gitte","coordinate":{"longitude":11.57559967,"latitude":48.16040039},"fuelLevel":0.7200000000000001,"lastAddress":"Hohenzollernstraße 78, 80801 München, Germany"}
{"timestamp":"2016-10-13T22:45:00+0200","id":124027,"name":"Fanni","coordinate":{"longitude":11.58460045,"latitude":48.16059875},"fuelLevel":0.7899999999999999,"lastAddress":"Kaiserstraße 7-9, 80801 München, Germany"}
{"timestamp":"2016-10-13T22:45:00+0200","id":124005,"name":"Georg","coordinate":{"longitude":11.57509995,"latitude":48.16249847},"fuelLevel":0.56,"lastAddress":"Herzogstraße 67, 80803 München, Germany"}
{"timestamp":"2016-10-13T22:45:00+0200","id":124032,"name":"Irmi","coordinate":{"longitude":11.57289982,"latitude":48.16040039},"fuelLevel":0.64,"lastAddress":"Hohenzollernstraße 65, 80796 München, Germany"}
{"timestamp":"2016-10-13T22:45:00+0200","id":124037,"name":"Luise","coordinate":{"longitude":11.5703001,"latitude":48.15739822},"fuelLevel":0.52,"lastAddress":"Agnesstraße 12-14, 80798 München, Germany"}
{"timestamp":"2016-10-13T22:45:00+0200","id":124017,"name":"Siggi","coordinate":{"longitude":11.57260036,"latitude":48.16040039},"fuelLevel":0.56,"lastAddress":"Hohenzollernstraße 67, 80796 München, Germany"}
{"timestamp":"2016-10-13T22:45:00+0200","id":124029,"name":"Hannah","coordinate":{"longitude":11.51010036,"latitude":48.04550171},"fuelLevel":0.7,"lastAddress":"Gistlstraße 159, 82049 Pullach im Isartal, Germany"}
{"timestamp":"2016-10-13T22:45:00+0200","id":124008,"name":"Johann","coordinate":{"longitude":11.50990009,"latitude":48.04550171},"fuelLevel":0.87,"lastAddress":"Gistlstraße 159, 82049 Pullach im Isartal, Germany"}
{"timestamp":"2016-10-13T22:45:00+0200","id":124039,"name":"Marie","coordinate":{"longitude":11.50949955,"latitude":48.04539871},"fuelLevel":0.9099999999999999,"lastAddress":"Seitnerstraße 70, 82049 Pullach im Isartal, Germany"}
{"timestamp":"2016-10-13T22:45:00+0200","id":124007,"name":"Jakob","coordinate":{"longitude":11.5770998,"latitude":48.16690063},"fuelLevel":0.9400000000000001,"lastAddress":"Karl-Theodor-Straße 66, 80803 München, Germany"}