{"timestamp":"2016-10-19T13:15:00+0200","id":124041,"name":"Sophie","coordinate":{"longitude":11.57870007,"latitude":48.15359879},"fuelLevel":0.8300000000000001,"lastAddress":"Türkenstraße 104, 80799 München, Germany"}
{"timestamp":"2016-10-19T13:15:00+0200","id":124026,"name":"Eva","coordinate":{"longitude":11.58100033,"latitude":48.14979935},"fuelLevel":0.9199999999999999,"lastAddress":"Ludwigstraße 24, 80539 München, Germany"}
{"timestamp":"2016-10-19T13:15:00+0200","id":124025,"name":"Elli","coordinate":{"longitude":11.57940006,"latitude":48.1556015},"fuelLevel":0.8300000000000001,"lastAddress":"Friedrichstraße 3, 80801 München, Germany"}
{"timestamp":"2016-10-19T13:15:00+0200","id":124044,"name":"Uschi","coordinate":{"longitude":11.57190037,"latitude":48.13169861},"fuelLevel":0.8,"lastAddress":"Müllerstraße 24, 80469 München, Germany"}
{"timestamp":"2016-10-19T13:15:00+0200","id":124014,"name":"Quirin","coordinate":{"longitude":11.59720039,"latitude":48.13489914},"fuelLevel":0.57,"lastAddress":"Innere Wiener Straße 61, 81667 München, Germany"}
{"timestamp":"2016-10-19T13:15:00+0200","id":124034,"name":"Kathi","coordinate":{"longitude":11.60879993,"latitude":48.13249969},"fuelLevel":0.57,"lastAddress":"Kirchenstraße 90, 81675 München, Germany"}
{"timestamp":"2016-10-19T13:15:00+0200","id":124016,"name":"Sepp","coordinate":{"longitude":11.59799957,"latitude":48.12620163},"fuelLevel":0.88,"lastAddress":"Rosenheimer Str. 119, 81667 München, Germany"}
{"timestamp":"2016-10-19T13:15:00+0200","id":124038,"name":"Magda","coordinate":{"longitude":11.60029984,"latitude":48.1283989},"fuelLevel":0.67,"lastAddress":"Pariser Pl., 81667 München, Germany"}
{"timestamp":"2016-10-19T13:15:00+0200","id":124013,"name":"Poldi","coordinate":{"longitude":11.59440041,"latitude":48.12770081},"fuelLevel":0.61,"lastAddress":"Balanstraße 6A, 81669 München, Germany"}
{"timestamp":"2016-10-19T13:15:00+0200","id":124011,"name":"Maxl","coordinate":{"longitude":11.59500027,"latitude":48.12779999},"fuelLevel":0.6699999999999999,"lastAddress":"Metzstraße 1, 81667 München, Germany"}
{"timestamp":"2016-10-19T13:15:00+0200","id":124003,"name":"Franzl","coordinate":{"longitude":11.59319973,"latitude":48.1271019},"fuelLevel":0.7799999999999999,"lastAddress":"Franziskanerstraße 17, 81669 München, Germany"}
{"timestamp":"2016-10-19T13:15:00+0200","id":124010,"name":"Luitpold","coordinate":{"longitude":11.58759975,"latitude":48.12760162},"fuelLevel":0.87,"lastAddress":"Hochstraße 19, 81669 München, Germany"}
{"timestamp":"2016-10-19T13:15:00+0200","id":124020,"name":"Vinzenz","coordinate":{"longitude":11.57789993,"latitude":48.12559891},"fuelLevel":0.75,"lastAddress":"Boosstraße 5, 81541 München, Germany"}
{"timestamp":"2016-10-19T13:15:00+0200","id":124049,"name":"Marei","coordinate":{"longitude":11.57419968,"latitude":48.12250137},"fuelLevel":0.9400000000000001,"lastAddress":"Eduard-Schmid-Straße 34, 81541 München, Germany"}
{"timestamp":"2016-10-19T13:15:00+0200","id":124045,"name":"Vroni","coordinate":{"longitude":11.56579971,"latitude":48.12440109},"fuelLevel":0.64,"lastAddress":"Geyerstraße 13, 80469 München, Germany"}
{"timestamp":"2016-10-19T13:15:00+0200","id":124018,"name":"Toni","coordinate":{"longitude":11.56980038,"latitude":48.12960052},"fuelLevel":0.6499999999999999,"lastAddress":"Hans-Sachs-Straße 9-11, 80469 München, Germany"}
{"timestamp":"2016-10-19T13:15:00+0200","id":124012,"name":"Peter","coordinate":{"longitude":11.56089973,"latitude":48.15499878},"fuelLevel":0.9600000000000001,"lastAddress":"Schleißheimer Str. 53A, 80797 München, Germany"}
{"timestamp":"2016-10-19T13:15:00+0200","id":124004,"name":"Fridl","coordinate":{"longitude":11.55589962,"latitude":48.15520096},"fuelLevel":0.58,"lastAddress":"Lothstraße 64, 80335 München, Germany"}
{"timestamp":"2016-10-19T13:15:00+0200","id":124031,"name":"Heidi","coordinate":{"longitude":11.56260014,"latitude":48.15019989},"fuelLevel":0.62,"lastAddress":"Gabelsbergerstraße 48A, 80333 München, Germany"}
{"timestamp":"2016-10-19T13:15:00+0200","id":124047,"name":"Walli","coordinate":{"longitude":11.57199955,"latitude":48.1495018},"fuelLevel":0.6499999999999999,"lastAddress":"Barer Str. 29, 80799 München, Germany"}
{"timestamp":"2016-10-19T13:15:00+0200","id":124048,"name":"Wiggerl","coordinate":{"longitude":11.58059978,"latitude":48.16279984},"fuelLevel":0.67,"lastAddress":"Herzogstraße 40, 80803 München, Germany"}
{"timestamp":"2016-10-19T13:15:00+0200","id":124028,"name":"Gitte","coordinate":{"longitude":11.57590008,"latitude":48.16040039},"fuelLevel":0.7200000000000001,"lastAddress":"Hohenzollernstraße 74, 80801 München, Germany"}
{"timestamp":"2016-10-19T13:15:00+0200","id":124032,"name":"Irmi","coordinate":{"longitude":11.57050037,"latitude":48.1590004},"fuelLevel":0.9400000000000001,"lastAddress":"Jakob-Klar-Straße 1A, 80796 München, Germany"}
{"timestamp":"2016-10-19T13:15:00+0200","id":124017,"name":"Siggi","coordinate":{"longitude":11.57260036,"latitude":48.16049957},"fuelLevel":0.56,"lastAddress":"Hohenzollernstraße 65, 80796 München, Germany"}
{"timestamp":"2016-10-19T13:15:00+0200","id":124029,"name":"Hannah","coordinate":{"longitude":11.51019955,"latitude":48.04550171},"fuelLevel":0.59,"lastAddress":"Gistlstraße 159, 82049 Pullach im Isartal, Germany"}
{"timestamp":"2016-10-19T13:15:00+0200","id":124009,"name":"Ludwig","coordinate":{"longitude":11.58640003,"latitude":48.16490173},"fuelLevel":0.59,"lastAddress":"Leopoldstraße 102, 80802 München, Germany"}
{"timestamp":"2016-10-19T13:15:00+0200","id":124007,"name":"Jakob","coordinate":{"longitude":11.57419968,"latitude":48.16669846},"fuelLevel":0.9500000000000001,"lastAddress":"Belgradstraße 56, 80796 München, Germany"}