{"timestamp":"2016-10-09T06:55:00+0200","id":124041,"name":"Sophie","coordinate":{"longitude":11.5777998,"latitude":48.14970016},"fuelLevel":0.9400000000000001,"lastAddress":"Schellingstraße 11, 80799 München, Germany"}
{"timestamp":"2016-10-09T06:55:00+0200","id":124026,"name":"Eva","coordinate":{"longitude":11.5781002,"latitude":48.15359879},"fuelLevel":0.61,"lastAddress":"Türkenstraße 95, 80799 München, Germany"}
{"timestamp":"2016-10-09T06:55:00+0200","id":124025,"name":"Elli","coordinate":{"longitude":11.57610035,"latitude":48.15769958},"fuelLevel":0.9,"lastAddress":"Franz-Joseph-Straße 46, 80801 München, Germany"}
{"timestamp":"2016-10-09T06:55:00+0200","id":124033,"name":"Johanna","coordinate":{"longitude":11.58059978,"latitude":48.15230179},"fuelLevel":0.76,"lastAddress":"Akademiestraße 7, 80799 München, Germany"}
{"timestamp":"2016-10-09T06:55:00+0200","id":124036,"name":"Liesel","coordinate":{"longitude":11.60859966,"latitude":48.12609863},"fuelLevel":0.6699999999999999,"lastAddress":"Haager Str. 14, 81671 München, Germany"}
{"timestamp":"2016-10-09T06:55:00+0200","id":124044,"name":"Uschi","coordinate":{"longitude":11.57279968,"latitude":48.13219833},"fuelLevel":0.9199999999999999,"lastAddress":"Müllerstraße 18, 80469 München, Germany"}
{"timestamp":"2016-10-09T06:55:00+0200","id":124024,"name":"Christl","coordinate":{"longitude":11.57929993,"latitude":48.13420105},"fuelLevel":0.8,"lastAddress":"Rumfordstraße 31, 80469 München, Germany"}
{"timestamp":"2016-10-09T06:55:00+0200","id":124040,"name":"Reserl","coordinate":{"longitude":11.57190037,"latitude":48.13159943},"fuelLevel":0.83,"lastAddress":"Müllerstraße 26, 80469 München, Germany"}
{"timestamp":"2016-10-09T06:55:00+0200","id":124021,"name":"Xaver","coordinate":{"longitude":11.58049965,"latitude":48.13019943},"fuelLevel":0.9199999999999999,"lastAddress":"Erhardtstraße 27, 80469 München, Germany"}
{"timestamp":"2016-10-09T06:55:00+0200","id":124014,"name":"Quirin","coordinate":{"longitude":11.60529995,"latitude":48.13249969},"fuelLevel":0.6000000000000001,"lastAddress":"Kirchenstraße 70, 81675 München, Germany"}
{"timestamp":"2016-10-09T06:55:00+0200","id":124034,"name":"Kathi","coordinate":{"longitude":11.60490036,"latitude":48.13209915},"fuelLevel":0.66,"lastAddress":"Elsässer Str. 16, 81667 München, Germany"}
{"timestamp":"2016-10-09T06:55:00+0200","id":124016,"name":"Sepp","coordinate":{"longitude":11.59860039,"latitude":48.12599945},"fuelLevel":0.9299999999999999,"lastAddress":"Rosenheimer Str. 125, 81667 München, Germany"}
{"timestamp":"2016-10-09T06:55:00+0200","id":124038,"name":"Magda","coordinate":{"longitude":11.60039997,"latitude":48.12829971},"fuelLevel":0.67,"lastAddress":"Weißenburger Str. 36, 81667 München, Germany"}
{"timestamp":"2016-10-09T06:55:00+0200","id":124022,"name":"Anne","coordinate":{"longitude":11.59469986,"latitude":48.12810135},"fuelLevel":0.86,"lastAddress":"Rosenheimer Str. 62, 81667 München, Germany"}
{"timestamp":"2016-10-09T06:55:00+0200","id":124000,"name":"Bertl","coordinate":{"longitude":11.59640026,"latitude":48.13800049},"fuelLevel":0.82,"lastAddress":"Maria-Theresia-Straße 4, 81675 München, Germany"}
{"timestamp":"2016-10-09T06:55:00+0200","id":124013,"name":"Poldi","coordinate":{"longitude":11.59440041,"latitude":48.12770081},"fuelLevel":0.79,"lastAddress":"Balanstraße 6A, 81669 München, Germany"}
{"timestamp":"2016-10-09T06:55:00+0200","id":124011,"name":"Maxl","coordinate":{"longitude":11.59309959,"latitude":48.12530136},"fuelLevel":0.73,"lastAddress":"Barnabasstraße 1, 81669 München, Germany"}
{"timestamp":"2016-10-09T06:55:00+0200","id":124003,"name":"Franzl","coordinate":{"longitude":11.5927,"latitude":48.12670135},"fuelLevel":0.8,"lastAddress":"Franziskanerstraße 19, 81669 München, Germany"}
{"timestamp":"2016-10-09T06:55:00+0200","id":124010,"name":"Luitpold","coordinate":{"longitude":11.58419991,"latitude":48.12720108},"fuelLevel":0.9500000000000001,"lastAddress":"Lilienstraße 79, 81669 München, Germany"}
{"timestamp":"2016-10-09T06:55:00+0200","id":124019,"name":"Valentin","coordinate":{"longitude":11.58530045,"latitude":48.12369919},"fuelLevel":0.87,"lastAddress":"Hochstraße 47A, 81541 München, Germany"}
{"timestamp":"2016-10-09T06:55:00+0200","id":124035,"name":"Leonie","coordinate":{"longitude":11.5866003,"latitude":48.12969971},"fuelLevel":0.7899999999999999,"lastAddress":"Lilienstraße 26, 81669 München, Germany"}
{"timestamp":"2016-10-09T06:55:00+0200","id":124006,"name":"Gustl","coordinate":{"longitude":11.57759953,"latitude":48.12039948},"fuelLevel":0.9400000000000001,"lastAddress":"Dollmannstraße 4, 81541 München, Germany"}
{"timestamp":"2016-10-09T06:55:00+0200","id":124020,"name":"Vinzenz","coordinate":{"longitude":11.57800007,"latitude":48.1228981},"fuelLevel":0.8999999999999999,"lastAddress":"Entenbachstraße 26, 81541 München, Germany"}
{"timestamp":"2016-10-09T06:55:00+0200","id":124049,"name":"Marei","coordinate":{"longitude":11.57209969,"latitude":48.12049866},"fuelLevel":0.52,"lastAddress":"Sommerstraße 26, 81543 München, Germany"}
{"timestamp":"2016-10-09T06:55:00+0200","id":124045,"name":"Vroni","coordinate":{"longitude":11.56760025,"latitude":48.13150024},"fuelLevel":0.71,"lastAddress":"Pestalozzistraße 5, 80469 München, Germany"}
{"timestamp":"2016-10-09T06:55:00+0200","id":124018,"name":"Toni","coordinate":{"longitude":11.56999969,"latitude":48.13100052},"fuelLevel":0.9199999999999999,"lastAddress":"Angertorstraße 7, 80469 München, Germany"}
{"timestamp":"2016-10-09T06:55:00+0200","id":124004,"name":"Fridl","coordinate":{"longitude":11.56620026,"latitude":48.1568985},"fuelLevel":0.55,"lastAddress":"Georgenstraße 116, 80798 München, Germany"}
{"timestamp":"2016-10-09T06:55:00+0200","id":124031,"name":"Heidi","coordinate":{"longitude":11.56840038,"latitude":48.15269852},"fuelLevel":0.8,"lastAddress":"Luisenstraße 72, 80798 München, Germany"}
{"timestamp":"2016-10-09T06:55:00+0200","id":124047,"name":"Walli","coordinate":{"longitude":11.5703001,"latitude":48.1495018},"fuelLevel":0.71,"lastAddress":"Theresienstraße, 80333 München, Germany"}
{"timestamp":"2016-10-09T06:55:00+0200","id":124002,"name":"Ferdl","coordinate":{"longitude":11.5618,"latitude":48.14899826},"fuelLevel":0.63,"lastAddress":"Gabelsbergerstraße 73, 80333 München, Germany"}
{"timestamp":"2016-10-09T06:55:00+0200","id":124048,"name":"Wiggerl","coordinate":{"longitude":11.57870007,"latitude":48.16109848},"fuelLevel":0.68,"lastAddress":"Kaiserstraße 47, 80801 München, Germany"}
{"timestamp":"2016-10-09T06:55:00+0200","id":124028,"name":"Gitte","coordinate":{"longitude":11.5770998,"latitude":48.15999985},"fuelLevel":0.75,"lastAddress":"Hohenzollernstraße 41, 80801 München, Germany"}
{"timestamp":"2016-10-09T06:55:00+0200","id":124027,"name":"Fanni","coordinate":{"longitude":11.5781002,"latitude":48.15930176},"fuelLevel":0.7899999999999999,"lastAddress":"Ainmillerstraße 40A, 80801 München, Germany"}
{"timestamp":"2016-10-09T06:55:00+0200","id":124005,"name":"Georg","coordinate":{"longitude":11.57520008,"latitude":48.16189957},"fuelLevel":0.56,"lastAddress":"Viktor-Scheffel-Straße 23, 80803 München, Germany"}
{"timestamp":"2016-10-09T06:55:00+0200","id":124001,"name":"Edmund","coordinate":{"longitude":11.57909966,"latitude":48.1576004},"fuelLevel":0.5700000000000001,"lastAddress":"Franz-Joseph-Straße 27, 80801 München, Germany"}
{"timestamp":"2016-10-09T06:55:00+0200","id":124032,"name":"Irmi","coordinate":{"longitude":11.57330036,"latitude":48.16040039},"fuelLevel":0.64,"lastAddress":"Hohenzollernstraße 63, 80796 München, Germany"}
{"timestamp":"2016-10-09T06:55:00+0200","id":124037,"name":"Luise","coordinate":{"longitude":11.57009983,"latitude":48.15729904},"fuelLevel":0.52,"lastAddress":"Agnesstraße 15, 80798 München, Germany"}
{"timestamp":"2016-10-09T06:55:00+0200","id":124017,"name":"Siggi","coordinate":{"longitude":11.57110023,"latitude":48.1609993},"fuelLevel":0.56,"lastAddress":"Hohenzollernstraße 112, 80796 München, Germany"}
{"timestamp":"2016-10-09T06:55:00+0200","id":124029,"name":"Hannah","coordinate":{"longitude":11.51029968,"latitude":48.04529953},"fuelLevel":0.7,"lastAddress":"Gistlstraße 159, 82049 Pullach im Isartal, Germany"}
{"timestamp":"2016-10-09T06:55:00+0200","id":124008,"name":"Johann","coordinate":{"longitude":11.50990009,"latitude":48.04520035},"fuelLevel":0.87,"lastAddress":"Seitnerstraße 70, 82049 Pullach im Isartal, Germany"}
{"timestamp":"2016-10-09T06:55:00+0200","id":124039,"name":"Marie","coordinate":{"longitude":11.50979996,"latitude":48.04539871},"fuelLevel":0.58,"lastAddress":"Seitnerstraße 70, 82049 Pullach im Isartal, Germany"}
{"timestamp":"2016-10-09T06:55:00+0200","id":124009,"name":"Ludwig","coordinate":{"longitude":11.58500004,"latitude":48.16239929},"fuelLevel":0.8999999999999999,"lastAddress":"Siegfriedstraße 3, 80803 München, Germany"}
{"timestamp":"2016-10-09T06:55:00+0200","id":124007,"name":"Jakob","coordinate":{"longitude":11.57409954,"latitude":48.16740036},"fuelLevel":0.88,"lastAddress":"Belgradstraße 64, 80804 München, Germany"}