{"timestamp":"2016-10-22T01:20:32+0200","id":124025,"name":"Elli","coordinate":{"longitude":11.5793457,"latitude":48.15571594},"fuelLevel":0.8300000000000001,"lastAddress":"Konradstraße 16, 80801 München, Germany"}
{"timestamp":"2016-10-22T01:20:32+0200","id":124033,"name":"Johanna","coordinate":{"longitude":11.50650024,"latitude":48.09120178},"fuelLevel":0.6597222222222222,"lastAddress":"Meglingerstraße 27, 81477 München, Germany"}
{"timestamp":"2016-10-22T01:20:32+0200","id":124021,"name":"Xaver","coordinate":{"longitude":11.57357788,"latitude":48.13008118},"fuelLevel":0.77,"lastAddress":"Klenzestraße 49, 80469 München, Germany"}
{"timestamp":"2016-10-22T01:20:32+0200","id":124014,"name":"Quirin","coordinate":{"longitude":11.59729004,"latitude":48.13432312},"fuelLevel":0.5299999999999999,"lastAddress":"Innere Wiener Straße 52, 81667 München, Germany"}
{"timestamp":"2016-10-22T01:20:32+0200","id":124030,"name":"Hedwig","coordinate":{"longitude":11.61261082,"latitude":48.12179184},"fuelLevel":0.9236111111111112,"lastAddress":"Aschheimer Str. 23, 81671 München, Germany"}
{"timestamp":"2016-10-22T01:20:32+0200","id":124022,"name":"Anne","coordinate":{"longitude":11.59779358,"latitude":48.12631226},"fuelLevel":0.6900000000000001,"lastAddress":"Rosenheimer Str. 115, 81667 München, Germany"}
{"timestamp":"2016-10-22T01:20:32+0200","id":124013,"name":"Poldi","coordinate":{"longitude":11.59430027,"latitude":48.12799835},"fuelLevel":0.61,"lastAddress":"Rosenheimer Pl. 2, 81669 München, Germany"}
{"timestamp":"2016-10-22T01:20:32+0200","id":124011,"name":"Maxl","coordinate":{"longitude":11.59759521,"latitude":48.12411499},"fuelLevel":0.61,"lastAddress":"Orleansstraße 4A, 81669 München, Germany"}
{"timestamp":"2016-10-22T01:20:32+0200","id":124010,"name":"Luitpold","coordinate":{"longitude":11.58981323,"latitude":48.1309967},"fuelLevel":0.4,"lastAddress":"Hochstraße 2, 81669 München, Germany"}
{"timestamp":"2016-10-22T01:20:32+0200","id":124019,"name":"Valentin","coordinate":{"longitude":11.58200073,"latitude":48.12519836},"fuelLevel":0.76,"lastAddress":"Mariahilfpl. 23, 81541 München, Germany"}
{"timestamp":"2016-10-22T01:20:32+0200","id":124006,"name":"Gustl","coordinate":{"longitude":11.57806396,"latitude":48.12416077},"fuelLevel":0.8300000000000001,"lastAddress":"Albanistraße 9, 81541 München, Germany"}
{"timestamp":"2016-10-22T01:20:32+0200","id":124020,"name":"Vinzenz","coordinate":{"longitude":11.57803345,"latitude":48.12538147},"fuelLevel":0.75,"lastAddress":"Boosstraße 9, 81541 München, Germany"}
{"timestamp":"2016-10-22T01:20:32+0200","id":124049,"name":"Marei","coordinate":{"longitude":11.57409668,"latitude":48.12240601},"fuelLevel":0.9400000000000001,"lastAddress":"Sommerstraße 8, 81543 München, Germany"}
{"timestamp":"2016-10-22T01:20:32+0200","id":124045,"name":"Vroni","coordinate":{"longitude":11.56509399,"latitude":48.12397766},"fuelLevel":0.64,"lastAddress":"Kapuzinerstraße 46, 80469 München, Germany"}
{"timestamp":"2016-10-22T01:20:32+0200","id":124018,"name":"Toni","coordinate":{"longitude":11.57149982,"latitude":48.13280106},"fuelLevel":0.6499999999999999,"lastAddress":"Unterer Anger 3, 80331 München, Germany"}
{"timestamp":"2016-10-22T01:20:32+0200","id":124012,"name":"Peter","coordinate":{"longitude":11.55618286,"latitude":48.1552124},"fuelLevel":0.26999999999999996,"lastAddress":"Heßstraße 112, 80797 München, Germany"}
{"timestamp":"2016-10-22T01:20:32+0200","id":124004,"name":"Fridl","coordinate":{"longitude":11.56260014,"latitude":48.1576004},"fuelLevel":0.58,"lastAddress":"Schleißheimer Str. 110, 80797 München, Germany"}
{"timestamp":"2016-10-22T01:20:32+0200","id":124031,"name":"Heidi","coordinate":{"longitude":11.56299973,"latitude":48.15019989},"fuelLevel":0.62,"lastAddress":"Augustenstraße 69, 80333 München, Germany"}
{"timestamp":"2016-10-22T01:20:32+0200","id":124048,"name":"Wiggerl","coordinate":{"longitude":11.57540894,"latitude":48.15890503},"fuelLevel":0.6000000000000001,"lastAddress":"Kurfürstenstraße 55-57, 80801 München, Germany"}
{"timestamp":"2016-10-22T01:20:32+0200","id":124028,"name":"Gitte","coordinate":{"longitude":11.57489967,"latitude":48.15790176},"fuelLevel":0.7200000000000001,"lastAddress":"Nordendstraße 41, 80801 München, Germany"}
{"timestamp":"2016-10-22T01:20:32+0200","id":124001,"name":"Edmund","coordinate":{"longitude":11.5749054,"latitude":48.1618042},"fuelLevel":0.45,"lastAddress":"Viktor-Scheffel-Straße 23, 80803 München, Germany"}
{"timestamp":"2016-10-22T01:20:32+0200","id":124032,"name":"Irmi","coordinate":{"longitude":11.56562805,"latitude":48.15933228},"fuelLevel":0.64,"lastAddress":"Zentnerstraße 38, 80798 München, Germany"}
{"timestamp":"2016-10-22T01:20:32+0200","id":124037,"name":"Luise","coordinate":{"longitude":11.57209969,"latitude":48.1570015},"fuelLevel":0.9500000000000001,"lastAddress":"Agnesstraße 1-5, 80801 München, Germany"}
{"timestamp":"2016-10-22T01:20:32+0200","id":124017,"name":"Siggi","coordinate":{"longitude":11.5677948,"latitude":48.15937805},"fuelLevel":0.54,"lastAddress":"Elisabethstraße 40, 80796 München, Germany"}
{"timestamp":"2016-10-22T01:20:32+0200","id":124008,"name":"Johann","coordinate":{"longitude":11.50961304,"latitude":48.04548645},"fuelLevel":0.44999999999999996,"lastAddress":"Seitnerstraße 70, 82049 Pullach im Isartal, Germany"}
{"timestamp":"2016-10-22T01:20:32+0200","id":124009,"name":"Ludwig","coordinate":{"longitude":11.58670044,"latitude":48.16540146},"fuelLevel":0.59,"lastAddress":"Leopoldstraße 106, 80802 München, Germany"}