{"timestamp":"2016-10-13T01:30:00+0200","id":124041,"name":"Sophie","coordinate":{"longitude":11.57849979,"latitude":48.15000153},"fuelLevel":0.86,"lastAddress":"Amalienstraße 52, 80799 München, Germany"}
{"timestamp":"2016-10-13T01:30:00+0200","id":124026,"name":"Eva","coordinate":{"longitude":11.57859993,"latitude":48.15359879},"fuelLevel":0.61,"lastAddress":"Türkenstraße 104, 80799 München, Germany"}
{"timestamp":"2016-10-13T01:30:00+0200","id":124025,"name":"Elli","coordinate":{"longitude":11.57680035,"latitude":48.15769958},"fuelLevel":0.87,"lastAddress":"Franz-Joseph-Straße 41, 80801 München, Germany"}
{"timestamp":"2016-10-13T01:30:00+0200","id":124033,"name":"Johanna","coordinate":{"longitude":11.57660007,"latitude":48.1493988},"fuelLevel":0.73,"lastAddress":"Amalienstraße 49A, 80799 München, Germany"}
{"timestamp":"2016-10-13T01:30:00+0200","id":124036,"name":"Liesel","coordinate":{"longitude":11.58150005,"latitude":48.15019989},"fuelLevel":0.45,"lastAddress":"Professor-Huber-Platz 1, 80539 München, Germany"}
{"timestamp":"2016-10-13T01:30:00+0200","id":124044,"name":"Uschi","coordinate":{"longitude":11.57260036,"latitude":48.13190079},"fuelLevel":0.9199999999999999,"lastAddress":"Müllerstraße 9, 80469 München, Germany"}
{"timestamp":"2016-10-13T01:30:00+0200","id":124024,"name":"Christl","coordinate":{"longitude":11.57629967,"latitude":48.13219833},"fuelLevel":0.47000000000000003,"lastAddress":"Reichenbachstraße 19, 80469 München, Germany"}
{"timestamp":"2016-10-13T01:30:00+0200","id":124040,"name":"Reserl","coordinate":{"longitude":11.57199955,"latitude":48.13159943},"fuelLevel":0.83,"lastAddress":"Müllerstraße 13, 80469 München, Germany"}
{"timestamp":"2016-10-13T01:30:00+0200","id":124021,"name":"Xaver","coordinate":{"longitude":11.58069992,"latitude":48.13000107},"fuelLevel":0.9199999999999999,"lastAddress":"Erhardtstraße 27, 80469 München, Germany"}
{"timestamp":"2016-10-13T01:30:00+0200","id":124014,"name":"Quirin","coordinate":{"longitude":11.59770012,"latitude":48.13470078},"fuelLevel":0.57,"lastAddress":"Innere Wiener Straße 60, 81667 München, Germany"}
{"timestamp":"2016-10-13T01:30:00+0200","id":124034,"name":"Kathi","coordinate":{"longitude":11.60229969,"latitude":48.12990189},"fuelLevel":0.82,"lastAddress":"Breisacher Str. 1, 81667 München, Germany"}
{"timestamp":"2016-10-13T01:30:00+0200","id":124023,"name":"Babsi","coordinate":{"longitude":11.56239986,"latitude":48.12609863},"fuelLevel":0.9,"lastAddress":"Thalkirchner Str. 78, 80337 München, Germany"}
{"timestamp":"2016-10-13T01:30:00+0200","id":124016,"name":"Sepp","coordinate":{"longitude":11.60280037,"latitude":48.12919998},"fuelLevel":0.9099999999999999,"lastAddress":"Wörthstraße 49, 81667 München, Germany"}
{"timestamp":"2016-10-13T01:30:00+0200","id":124038,"name":"Magda","coordinate":{"longitude":11.60039997,"latitude":48.12820053},"fuelLevel":0.67,"lastAddress":"Gravelottestraße 1, 81667 München, Germany"}
{"timestamp":"2016-10-13T01:30:00+0200","id":124022,"name":"Anne","coordinate":{"longitude":11.59619999,"latitude":48.1271019},"fuelLevel":0.8300000000000001,"lastAddress":"Rosenheimer Str. 80, 81669 München, Germany"}
{"timestamp":"2016-10-13T01:30:00+0200","id":124000,"name":"Bertl","coordinate":{"longitude":11.59799957,"latitude":48.12609863},"fuelLevel":0.8,"lastAddress":"Rosenheimer Str. 98, 81669 München, Germany"}
{"timestamp":"2016-10-13T01:30:00+0200","id":124013,"name":"Poldi","coordinate":{"longitude":11.59440041,"latitude":48.12730026},"fuelLevel":0.79,"lastAddress":"Balanstraße 10, 81669 München, Germany"}
{"timestamp":"2016-10-13T01:30:00+0200","id":124011,"name":"Maxl","coordinate":{"longitude":11.5948,"latitude":48.12799835},"fuelLevel":0.6699999999999999,"lastAddress":"Rosenheimer Str. 62, 81669 München, Germany"}
{"timestamp":"2016-10-13T01:30:00+0200","id":124003,"name":"Franzl","coordinate":{"longitude":11.59189987,"latitude":48.12649918},"fuelLevel":0.8,"lastAddress":"Franziskanerstraße 14, 81669 München, Germany"}
{"timestamp":"2016-10-13T01:30:00+0200","id":124010,"name":"Luitpold","coordinate":{"longitude":11.58469963,"latitude":48.12760162},"fuelLevel":0.9400000000000001,"lastAddress":"Lilienstraße 71, 81669 München, Germany"}
{"timestamp":"2016-10-13T01:30:00+0200","id":124006,"name":"Gustl","coordinate":{"longitude":11.57479954,"latitude":48.12020111},"fuelLevel":0.9500000000000001,"lastAddress":"Oefelestraße 5, 81543 München, Germany"}
{"timestamp":"2016-10-13T01:30:00+0200","id":124020,"name":"Vinzenz","coordinate":{"longitude":11.5781002,"latitude":48.12310028},"fuelLevel":0.8999999999999999,"lastAddress":"Schlotthauerstraße 16, 81541 München, Germany"}
{"timestamp":"2016-10-13T01:30:00+0200","id":124049,"name":"Marei","coordinate":{"longitude":11.57409954,"latitude":48.12269974},"fuelLevel":0.9400000000000001,"lastAddress":"Eduard-Schmid-Straße 37, 81541 München, Germany"}
{"timestamp":"2016-10-13T01:30:00+0200","id":124045,"name":"Vroni","coordinate":{"longitude":11.56529999,"latitude":48.12419891},"fuelLevel":0.64,"lastAddress":"Kapuzinerstraße 39, 80469 München, Germany"}
{"timestamp":"2016-10-13T01:30:00+0200","id":124018,"name":"Toni","coordinate":{"longitude":11.56949997,"latitude":48.12969971},"fuelLevel":0.66,"lastAddress":"Hans-Sachs-Straße 12, 80469 München, Germany"}
{"timestamp":"2016-10-13T01:30:00+0200","id":124004,"name":"Fridl","coordinate":{"longitude":11.55659962,"latitude":48.15539932},"fuelLevel":0.9600000000000001,"lastAddress":"Lothstraße 66, 80797 München, Germany"}
{"timestamp":"2016-10-13T01:30:00+0200","id":124031,"name":"Heidi","coordinate":{"longitude":11.56669998,"latitude":48.15179825},"fuelLevel":0.6499999999999999,"lastAddress":"Heßstraße 42, 80798 München, Germany"}
{"timestamp":"2016-10-13T01:30:00+0200","id":124047,"name":"Walli","coordinate":{"longitude":11.5703001,"latitude":48.14960098},"fuelLevel":0.71,"lastAddress":"Theresienstraße, 80333 München, Germany"}
{"timestamp":"2016-10-13T01:30:00+0200","id":124002,"name":"Ferdl","coordinate":{"longitude":11.56270027,"latitude":48.15499878},"fuelLevel":0.9444444444444444,"lastAddress":"Zentnerstraße 7, 80798 München, Germany"}
{"timestamp":"2016-10-13T01:30:00+0200","id":124048,"name":"Wiggerl","coordinate":{"longitude":11.58080006,"latitude":48.16270065},"fuelLevel":0.66,"lastAddress":"Herzogstraße 36, 80803 München, Germany"}
{"timestamp":"2016-10-13T01:30:00+0200","id":124028,"name":"Gitte","coordinate":{"longitude":11.57719994,"latitude":48.16009903},"fuelLevel":0.76,"lastAddress":"Hohenzollernstraße 41, 80801 München, Germany"}
{"timestamp":"2016-10-13T01:30:00+0200","id":124027,"name":"Fanni","coordinate":{"longitude":11.58450031,"latitude":48.16059875},"fuelLevel":0.7899999999999999,"lastAddress":"Kaiserstraße 9, 80801 München, Germany"}
{"timestamp":"2016-10-13T01:30:00+0200","id":124005,"name":"Georg","coordinate":{"longitude":11.57549953,"latitude":48.16199875},"fuelLevel":0.56,"lastAddress":"Viktor-Scheffel-Straße 19-21, 80803 München, Germany"}
{"timestamp":"2016-10-13T01:30:00+0200","id":124032,"name":"Irmi","coordinate":{"longitude":11.57310009,"latitude":48.16040039},"fuelLevel":0.64,"lastAddress":"Isabellastraße 49, 80796 München, Germany"}
{"timestamp":"2016-10-13T01:30:00+0200","id":124037,"name":"Luise","coordinate":{"longitude":11.57009983,"latitude":48.15729904},"fuelLevel":0.52,"lastAddress":"Agnesstraße 15, 80798 München, Germany"}
{"timestamp":"2016-10-13T01:30:00+0200","id":124017,"name":"Siggi","coordinate":{"longitude":11.57260036,"latitude":48.15999985},"fuelLevel":0.56,"lastAddress":"Isabellastraße 45, 80796 München, Germany"}
{"timestamp":"2016-10-13T01:30:00+0200","id":124029,"name":"Hannah","coordinate":{"longitude":11.51029968,"latitude":48.04539871},"fuelLevel":0.7,"lastAddress":"Gistlstraße 159, 82049 Pullach im Isartal, Germany"}
{"timestamp":"2016-10-13T01:30:00+0200","id":124009,"name":"Ludwig","coordinate":{"longitude":11.58399963,"latitude":48.16199875},"fuelLevel":0.71,"lastAddress":"Herzogstraße 11, 80803 München, Germany"}
{"timestamp":"2016-10-13T01:30:00+0200","id":124007,"name":"Jakob","coordinate":{"longitude":11.57689953,"latitude":48.16659927},"fuelLevel":0.9400000000000001,"lastAddress":"Karl-Theodor-Straße 63, 80803 München, Germany"}