{"timestamp":"2016-10-18T15:50:00+0200","id":124041,"name":"Sophie","coordinate":{"longitude":11.57900047,"latitude":48.15380096},"fuelLevel":0.8300000000000001,"lastAddress":"Türkenstraße 104, 80799 München, Germany"}
{"timestamp":"2016-10-18T15:50:00+0200","id":124026,"name":"Eva","coordinate":{"longitude":11.58160019,"latitude":48.14989853},"fuelLevel":0.9199999999999999,"lastAddress":"Professor-Huber-Platz 1, 80539 München, Germany"}
{"timestamp":"2016-10-18T15:50:00+0200","id":124025,"name":"Elli","coordinate":{"longitude":11.5795002,"latitude":48.15570068},"fuelLevel":0.8300000000000001,"lastAddress":"Friedrichstraße 3, 80801 München, Germany"}
{"timestamp":"2016-10-18T15:50:00+0200","id":124044,"name":"Uschi","coordinate":{"longitude":11.57209969,"latitude":48.13159943},"fuelLevel":0.8,"lastAddress":"Müllerstraße 13, 80469 München, Germany"}
{"timestamp":"2016-10-18T15:50:00+0200","id":124040,"name":"Reserl","coordinate":{"longitude":11.57229996,"latitude":48.13219833},"fuelLevel":0.79,"lastAddress":"Blumenstraße 19, 80331 München, Germany"}
{"timestamp":"2016-10-18T15:50:00+0200","id":124014,"name":"Quirin","coordinate":{"longitude":11.59739971,"latitude":48.1344986},"fuelLevel":0.57,"lastAddress":"Innere Wiener Straße 56, 81667 München, Germany"}
{"timestamp":"2016-10-18T15:50:00+0200","id":124034,"name":"Kathi","coordinate":{"longitude":11.60890007,"latitude":48.13270187},"fuelLevel":0.57,"lastAddress":"Kirchenstraße 90, 81675 München, Germany"}
{"timestamp":"2016-10-18T15:50:00+0200","id":124016,"name":"Sepp","coordinate":{"longitude":11.59770012,"latitude":48.12599945},"fuelLevel":0.88,"lastAddress":"Rosenheimer Str. 96, 81669 München, Germany"}
{"timestamp":"2016-10-18T15:50:00+0200","id":124038,"name":"Magda","coordinate":{"longitude":11.60050011,"latitude":48.12820053},"fuelLevel":0.67,"lastAddress":"Weißenburger Str. 36, 81667 München, Germany"}
{"timestamp":"2016-10-18T15:50:00+0200","id":124022,"name":"Anne","coordinate":{"longitude":11.50599957,"latitude":48.09140015},"fuelLevel":0.7999999999999999,"lastAddress":"Meglingerstraße 40, 81477 München, Germany"}
{"timestamp":"2016-10-18T15:50:00+0200","id":124000,"name":"Bertl","coordinate":{"longitude":11.60270023,"latitude":48.12860107},"fuelLevel":0.9400000000000001,"lastAddress":"Orleanspl. 3, 81667 München, Germany"}
{"timestamp":"2016-10-18T15:50:00+0200","id":124013,"name":"Poldi","coordinate":{"longitude":11.59469986,"latitude":48.12779999},"fuelLevel":0.61,"lastAddress":"Metzstraße 1, 81667 München, Germany"}
{"timestamp":"2016-10-18T15:50:00+0200","id":124011,"name":"Maxl","coordinate":{"longitude":11.59490013,"latitude":48.12770081},"fuelLevel":0.6699999999999999,"lastAddress":"Metzstraße 1, 81667 München, Germany"}
{"timestamp":"2016-10-18T15:50:00+0200","id":124003,"name":"Franzl","coordinate":{"longitude":11.59319973,"latitude":48.12689972},"fuelLevel":0.7799999999999999,"lastAddress":"Franziskanerstraße 19, 81669 München, Germany"}
{"timestamp":"2016-10-18T15:50:00+0200","id":124010,"name":"Luitpold","coordinate":{"longitude":11.58769989,"latitude":48.12770081},"fuelLevel":0.87,"lastAddress":"Hochstraße 19, 81669 München, Germany"}
{"timestamp":"2016-10-18T15:50:00+0200","id":124019,"name":"Valentin","coordinate":{"longitude":11.50590038,"latitude":48.09080124},"fuelLevel":0.8680555555555556,"lastAddress":"Meglingerstraße 30-32, 81477 München, Germany"}
{"timestamp":"2016-10-18T15:50:00+0200","id":124020,"name":"Vinzenz","coordinate":{"longitude":11.57839966,"latitude":48.12279892},"fuelLevel":0.81,"lastAddress":"Entenbachstraße 27, 81541 München, Germany"}
{"timestamp":"2016-10-18T15:50:00+0200","id":124049,"name":"Marei","coordinate":{"longitude":11.57409954,"latitude":48.12239838},"fuelLevel":0.9400000000000001,"lastAddress":"Sommerstraße 8, 81543 München, Germany"}
{"timestamp":"2016-10-18T15:50:00+0200","id":124045,"name":"Vroni","coordinate":{"longitude":11.56499958,"latitude":48.12379837},"fuelLevel":0.64,"lastAddress":"Kapuzinerstraße 46, 80469 München, Germany"}
{"timestamp":"2016-10-18T15:50:00+0200","id":124018,"name":"Toni","coordinate":{"longitude":11.56970024,"latitude":48.12969971},"fuelLevel":0.6499999999999999,"lastAddress":"Hans-Sachs-Straße 14, 80469 München, Germany"}
{"timestamp":"2016-10-18T15:50:00+0200","id":124012,"name":"Peter","coordinate":{"longitude":11.56060028,"latitude":48.15499878},"fuelLevel":0.9600000000000001,"lastAddress":"Schleißheimer Str. 53A, 80797 München, Germany"}
{"timestamp":"2016-10-18T15:50:00+0200","id":124004,"name":"Fridl","coordinate":{"longitude":11.5557003,"latitude":48.15520096},"fuelLevel":0.58,"lastAddress":"Lothstraße 64, 80335 München, Germany"}
{"timestamp":"2016-10-18T15:50:00+0200","id":124031,"name":"Heidi","coordinate":{"longitude":11.56330013,"latitude":48.15000153},"fuelLevel":0.62,"lastAddress":"Augustenstraße 67, 80333 München, Germany"}
{"timestamp":"2016-10-18T15:50:00+0200","id":124047,"name":"Walli","coordinate":{"longitude":11.57209969,"latitude":48.1495018},"fuelLevel":0.6499999999999999,"lastAddress":"Barer Str. 29, 80799 München, Germany"}
{"timestamp":"2016-10-18T15:50:00+0200","id":124048,"name":"Wiggerl","coordinate":{"longitude":11.58069992,"latitude":48.16270065},"fuelLevel":0.67,"lastAddress":"Herzogstraße 36-38, 80803 München, Germany"}
{"timestamp":"2016-10-18T15:50:00+0200","id":124028,"name":"Gitte","coordinate":{"longitude":11.57590008,"latitude":48.16030121},"fuelLevel":0.7200000000000001,"lastAddress":"Hohenzollernstraße 76-78, 80801 München, Germany"}
{"timestamp":"2016-10-18T15:50:00+0200","id":124032,"name":"Irmi","coordinate":{"longitude":11.57079983,"latitude":48.15890121},"fuelLevel":0.9400000000000001,"lastAddress":"Jakob-Klar-Straße 4, 80796 München, Germany"}
{"timestamp":"2016-10-18T15:50:00+0200","id":124037,"name":"Luise","coordinate":{"longitude":11.5703001,"latitude":48.15729904},"fuelLevel":0.52,"lastAddress":"Agnesstraße 13, 80798 München, Germany"}
{"timestamp":"2016-10-18T15:50:00+0200","id":124017,"name":"Siggi","coordinate":{"longitude":11.57260036,"latitude":48.16049957},"fuelLevel":0.56,"lastAddress":"Hohenzollernstraße 65, 80796 München, Germany"}
{"timestamp":"2016-10-18T15:50:00+0200","id":124029,"name":"Hannah","coordinate":{"longitude":11.51000023,"latitude":48.04550171},"fuelLevel":0.59,"lastAddress":"Gistlstraße 159, 82049 Pullach im Isartal, Germany"}
{"timestamp":"2016-10-18T15:50:00+0200","id":124009,"name":"Ludwig","coordinate":{"longitude":11.58360004,"latitude":48.16260147},"fuelLevel":0.6499999999999999,"lastAddress":"Wilhelmstraße 39, 80803 München, Germany"}