{"timestamp":"2016-09-29T07:05:00+0200","id":124041,"name":"Sophie","coordinate":{"longitude":11.57769966,"latitude":48.14979935},"fuelLevel":0.93,"lastAddress":"Schellingstraße 16, 80799 München, Germany"}
{"timestamp":"2016-09-29T07:05:00+0200","id":124026,"name":"Eva","coordinate":{"longitude":11.57830048,"latitude":48.15370178},"fuelLevel":0.61,"lastAddress":"Türkenstraße 104, 80799 München, Germany"}
{"timestamp":"2016-09-29T07:05:00+0200","id":124025,"name":"Elli","coordinate":{"longitude":11.57800007,"latitude":48.15319824},"fuelLevel":0.85,"lastAddress":"Türkenstraße 93, 80799 München, Germany"}
{"timestamp":"2016-09-29T07:05:00+0200","id":124033,"name":"Johanna","coordinate":{"longitude":11.57989979,"latitude":48.15670013},"fuelLevel":0.89,"lastAddress":"Friedrichstraße 15, 80801 München, Germany"}
{"timestamp":"2016-09-29T07:05:00+0200","id":124036,"name":"Liesel","coordinate":{"longitude":11.57520008,"latitude":48.15629959},"fuelLevel":0.6699999999999999,"lastAddress":"Nordendstraße 36, 80801 München, Germany"}
{"timestamp":"2016-09-29T07:05:00+0200","id":124044,"name":"Uschi","coordinate":{"longitude":11.57569981,"latitude":48.13019943},"fuelLevel":0.51,"lastAddress":"Reichenbachstraße 24, 80469 München, Germany"}
{"timestamp":"2016-09-29T07:05:00+0200","id":124024,"name":"Christl","coordinate":{"longitude":11.57919979,"latitude":48.13430023},"fuelLevel":0.8,"lastAddress":"Frauenstraße 28, 80469 München, Germany"}
{"timestamp":"2016-09-29T07:05:00+0200","id":124040,"name":"Reserl","coordinate":{"longitude":11.58230019,"latitude":48.13180161},"fuelLevel":0.9099999999999999,"lastAddress":"Morassistraße 20, 80469 München, Germany"}
{"timestamp":"2016-09-29T07:05:00+0200","id":124021,"name":"Xaver","coordinate":{"longitude":11.58049965,"latitude":48.13230133},"fuelLevel":0.52,"lastAddress":"Baaderstraße 9C, 80469 München, Germany"}
{"timestamp":"2016-09-29T07:05:00+0200","id":124014,"name":"Quirin","coordinate":{"longitude":11.60929966,"latitude":48.12559891},"fuelLevel":0.62,"lastAddress":"Haager Str. 14, 81671 München, Germany"}
{"timestamp":"2016-09-29T07:05:00+0200","id":124034,"name":"Kathi","coordinate":{"longitude":11.60529995,"latitude":48.13240051},"fuelLevel":0.67,"lastAddress":"Spicherenstraße 1, 81667 München, Germany"}
{"timestamp":"2016-09-29T07:05:00+0200","id":124030,"name":"Hedwig","coordinate":{"longitude":11.56770039,"latitude":48.13130188},"fuelLevel":0.89,"lastAddress":"Pestalozzistraße 7, 80469 München, Germany"}
{"timestamp":"2016-09-29T07:05:00+0200","id":124023,"name":"Babsi","coordinate":{"longitude":11.56389999,"latitude":48.12730026},"fuelLevel":0.93,"lastAddress":"Thalkirchner Str. 52, 80337 München, Germany"}
{"timestamp":"2016-09-29T07:05:00+0200","id":124038,"name":"Magda","coordinate":{"longitude":11.60029984,"latitude":48.12739944},"fuelLevel":0.76,"lastAddress":"Gravelottestraße 4, 81667 München, Germany"}
{"timestamp":"2016-09-29T07:05:00+0200","id":124022,"name":"Anne","coordinate":{"longitude":11.59679985,"latitude":48.12659836},"fuelLevel":0.8900000000000001,"lastAddress":"Rosenheimer Str. 90, 81669 München, Germany"}
{"timestamp":"2016-09-29T07:05:00+0200","id":124000,"name":"Bertl","coordinate":{"longitude":11.59440041,"latitude":48.12960052},"fuelLevel":0.8500000000000001,"lastAddress":"Steinstraße 70, 81667 München, Germany"}
{"timestamp":"2016-09-29T07:05:00+0200","id":124013,"name":"Poldi","coordinate":{"longitude":11.5948,"latitude":48.12680054},"fuelLevel":0.83,"lastAddress":"Balanstraße 16, 81669 München, Germany"}
{"timestamp":"2016-09-29T07:05:00+0200","id":124011,"name":"Maxl","coordinate":{"longitude":11.59160042,"latitude":48.12620163},"fuelLevel":0.8099999999999999,"lastAddress":"Franziskanerstraße 16, 81669 München, Germany"}
{"timestamp":"2016-09-29T07:05:00+0200","id":124003,"name":"Franzl","coordinate":{"longitude":11.59300041,"latitude":48.12720108},"fuelLevel":0.79,"lastAddress":"Franziskanerstraße 17, 81669 München, Germany"}
{"timestamp":"2016-09-29T07:05:00+0200","id":124010,"name":"Luitpold","coordinate":{"longitude":11.58619976,"latitude":48.12599945},"fuelLevel":0.88,"lastAddress":"Hochstraße 33, 81541 München, Germany"}
{"timestamp":"2016-09-29T07:05:00+0200","id":124019,"name":"Valentin","coordinate":{"longitude":11.58510017,"latitude":48.12340164},"fuelLevel":0.9199999999999999,"lastAddress":"Hochstraße 51, 81541 München, Germany"}
{"timestamp":"2016-09-29T07:05:00+0200","id":124035,"name":"Leonie","coordinate":{"longitude":11.58570004,"latitude":48.12900162},"fuelLevel":0.7899999999999999,"lastAddress":"Schwarzstraße 4, 81669 München, Germany"}
{"timestamp":"2016-09-29T07:05:00+0200","id":124006,"name":"Gustl","coordinate":{"longitude":11.57800007,"latitude":48.12129974},"fuelLevel":0.93,"lastAddress":"Falkenstraße 42A, 81541 München, Germany"}
{"timestamp":"2016-09-29T07:05:00+0200","id":124020,"name":"Vinzenz","coordinate":{"longitude":11.57929993,"latitude":48.1228981},"fuelLevel":0.9299999999999999,"lastAddress":"Falkenstraße 18, 81541 München, Germany"}
{"timestamp":"2016-09-29T07:05:00+0200","id":124049,"name":"Marei","coordinate":{"longitude":11.57419968,"latitude":48.12020111},"fuelLevel":0.7200000000000001,"lastAddress":"Oefelestraße 5, 81543 München, Germany"}
{"timestamp":"2016-09-29T07:05:00+0200","id":124045,"name":"Vroni","coordinate":{"longitude":11.56750011,"latitude":48.12789917},"fuelLevel":0.9199999999999999,"lastAddress":"Holzstraße 34, 80469 München, Germany"}
{"timestamp":"2016-09-29T07:05:00+0200","id":124018,"name":"Toni","coordinate":{"longitude":11.56890011,"latitude":48.12639999},"fuelLevel":0.9500000000000001,"lastAddress":"Baumstraße 21, 80469 München, Germany"}
{"timestamp":"2016-09-29T07:05:00+0200","id":124004,"name":"Fridl","coordinate":{"longitude":11.56599998,"latitude":48.1570015},"fuelLevel":0.9500000000000001,"lastAddress":"Hiltenspergerstraße 10, 80798 München, Germany"}
{"timestamp":"2016-09-29T07:05:00+0200","id":124031,"name":"Heidi","coordinate":{"longitude":11.56659985,"latitude":48.15000153},"fuelLevel":0.8,"lastAddress":"Luisenstraße 55, 80333 München, Germany"}
{"timestamp":"2016-09-29T07:05:00+0200","id":124047,"name":"Walli","coordinate":{"longitude":11.5710001,"latitude":48.15589905},"fuelLevel":0.8999999999999999,"lastAddress":"Isabellastraße 8, 80798 München, Germany"}
{"timestamp":"2016-09-29T07:05:00+0200","id":124002,"name":"Ferdl","coordinate":{"longitude":11.56330013,"latitude":48.15159988},"fuelLevel":0.9500000000000001,"lastAddress":"Theresienstraße 132, 80333 München, Germany"}
{"timestamp":"2016-09-29T07:05:00+0200","id":124048,"name":"Wiggerl","coordinate":{"longitude":11.57619953,"latitude":48.15909958},"fuelLevel":0.7200000000000001,"lastAddress":"Ainmillerstraße 37, 80801 München, Germany"}
{"timestamp":"2016-09-29T07:05:00+0200","id":124028,"name":"Gitte","coordinate":{"longitude":11.57970047,"latitude":48.16009903},"fuelLevel":0.77,"lastAddress":"Hohenzollernstraße 44, 80801 München, Germany"}
{"timestamp":"2016-09-29T07:05:00+0200","id":124027,"name":"Fanni","coordinate":{"longitude":11.57730007,"latitude":48.15980148},"fuelLevel":0.8099999999999999,"lastAddress":"Römerstraße 17, 80801 München, Germany"}
{"timestamp":"2016-09-29T07:05:00+0200","id":124005,"name":"Georg","coordinate":{"longitude":11.58110046,"latitude":48.15879822},"fuelLevel":0.69,"lastAddress":"Ainmillerstraße 22, 80801 München, Germany"}
{"timestamp":"2016-09-29T07:05:00+0200","id":124032,"name":"Irmi","coordinate":{"longitude":11.57310009,"latitude":48.16040039},"fuelLevel":0.64,"lastAddress":"Isabellastraße 49, 80796 München, Germany"}
{"timestamp":"2016-09-29T07:05:00+0200","id":124037,"name":"Luise","coordinate":{"longitude":11.56550026,"latitude":48.15969849},"fuelLevel":0.9400000000000001,"lastAddress":"Elisabethstraße 52, 80796 München, Germany"}
{"timestamp":"2016-09-29T07:05:00+0200","id":124017,"name":"Siggi","coordinate":{"longitude":11.5710001,"latitude":48.16059875},"fuelLevel":0.56,"lastAddress":"Hohenzollernstraße 79, 80796 München, Germany"}
{"timestamp":"2016-09-29T07:05:00+0200","id":124029,"name":"Hannah","coordinate":{"longitude":11.51019955,"latitude":48.04539871},"fuelLevel":0.7,"lastAddress":"Gistlstraße 159, 82049 Pullach im Isartal, Germany"}
{"timestamp":"2016-09-29T07:05:00+0200","id":124042,"name":"Tilli","coordinate":{"longitude":11.50959969,"latitude":48.04550171},"fuelLevel":0.77,"lastAddress":"Seitnerstraße 70, 82049 Pullach im Isartal, Germany"}
{"timestamp":"2016-09-29T07:05:00+0200","id":124009,"name":"Ludwig","coordinate":{"longitude":11.57820034,"latitude":48.16410065},"fuelLevel":0.9400000000000001,"lastAddress":"Cherubinistraße 2, 80803 München, Germany"}
{"timestamp":"2016-09-29T07:05:00+0200","id":124007,"name":"Jakob","coordinate":{"longitude":11.58640003,"latitude":48.16339874},"fuelLevel":0.9500000000000001,"lastAddress":"Leopoldstraße 83, 80802 München, Germany"}