{"timestamp":"2016-09-28T23:55:00+0200","id":124041,"name":"Sophie","coordinate":{"longitude":11.57759953,"latitude":48.15010071},"fuelLevel":0.93,"lastAddress":"Schellingstraße 20, 80799 München, Germany"}
{"timestamp":"2016-09-28T23:55:00+0200","id":124026,"name":"Eva","coordinate":{"longitude":11.5781002,"latitude":48.15380096},"fuelLevel":0.61,"lastAddress":"Rambergstraße 4, 80799 München, Germany"}
{"timestamp":"2016-09-28T23:55:00+0200","id":124025,"name":"Elli","coordinate":{"longitude":11.5781002,"latitude":48.1529007},"fuelLevel":0.85,"lastAddress":"Türkenstraße 98, 80799 München, Germany"}
{"timestamp":"2016-09-28T23:55:00+0200","id":124033,"name":"Johanna","coordinate":{"longitude":11.57870007,"latitude":48.15679932},"fuelLevel":0.89,"lastAddress":"Hohenstaufenstraße 11, 80801 München, Germany"}
{"timestamp":"2016-09-28T23:55:00+0200","id":124036,"name":"Liesel","coordinate":{"longitude":11.57509995,"latitude":48.1570015},"fuelLevel":0.6699999999999999,"lastAddress":"Nordendstraße 46, 80801 München, Germany"}
{"timestamp":"2016-09-28T23:55:00+0200","id":124044,"name":"Uschi","coordinate":{"longitude":11.57629967,"latitude":48.12990189},"fuelLevel":0.51,"lastAddress":"Reichenbachstraße 37, 80469 München, Germany"}
{"timestamp":"2016-09-28T23:55:00+0200","id":124024,"name":"Christl","coordinate":{"longitude":11.57979965,"latitude":48.13389969},"fuelLevel":0.8,"lastAddress":"Rumfordstraße 32, 80469 München, Germany"}
{"timestamp":"2016-09-28T23:55:00+0200","id":124040,"name":"Reserl","coordinate":{"longitude":11.58230019,"latitude":48.13209915},"fuelLevel":0.9099999999999999,"lastAddress":"Morassistraße 16, 80469 München, Germany"}
{"timestamp":"2016-09-28T23:55:00+0200","id":124021,"name":"Xaver","coordinate":{"longitude":11.58059978,"latitude":48.13249969},"fuelLevel":0.52,"lastAddress":"Baaderstraße 9B, 80469 München, Germany"}
{"timestamp":"2016-09-28T23:55:00+0200","id":124014,"name":"Quirin","coordinate":{"longitude":11.60929966,"latitude":48.1257019},"fuelLevel":0.62,"lastAddress":"Haager Str. 14, 81671 München, Germany"}
{"timestamp":"2016-09-28T23:55:00+0200","id":124034,"name":"Kathi","coordinate":{"longitude":11.60509968,"latitude":48.13259888},"fuelLevel":0.67,"lastAddress":"Elsässer Str. 4, 81667 München, Germany"}
{"timestamp":"2016-09-28T23:55:00+0200","id":124030,"name":"Hedwig","coordinate":{"longitude":11.56750011,"latitude":48.13130188},"fuelLevel":0.89,"lastAddress":"Pestalozzistraße 7, 80469 München, Germany"}
{"timestamp":"2016-09-28T23:55:00+0200","id":124023,"name":"Babsi","coordinate":{"longitude":11.56359959,"latitude":48.12720108},"fuelLevel":0.93,"lastAddress":"Thalkirchner Str. 54, 80337 München, Germany"}
{"timestamp":"2016-09-28T23:55:00+0200","id":124038,"name":"Magda","coordinate":{"longitude":11.60009956,"latitude":48.12810135},"fuelLevel":0.76,"lastAddress":"Gravelottestraße 2, 81667 München, Germany"}
{"timestamp":"2016-09-28T23:55:00+0200","id":124022,"name":"Anne","coordinate":{"longitude":11.59679985,"latitude":48.12680054},"fuelLevel":0.8900000000000001,"lastAddress":"Rosenheimer Str. 88, 81669 München, Germany"}
{"timestamp":"2016-09-28T23:55:00+0200","id":124000,"name":"Bertl","coordinate":{"longitude":11.5948,"latitude":48.12950134},"fuelLevel":0.8500000000000001,"lastAddress":"Steinstraße 79, 81667 München, Germany"}
{"timestamp":"2016-09-28T23:55:00+0200","id":124013,"name":"Poldi","coordinate":{"longitude":11.5948,"latitude":48.12689972},"fuelLevel":0.83,"lastAddress":"Balanstraße 14, 81669 München, Germany"}
{"timestamp":"2016-09-28T23:55:00+0200","id":124011,"name":"Maxl","coordinate":{"longitude":11.59329987,"latitude":48.12530136},"fuelLevel":0.8099999999999999,"lastAddress":"Barnabasstraße 1, 81669 München, Germany"}
{"timestamp":"2016-09-28T23:55:00+0200","id":124003,"name":"Franzl","coordinate":{"longitude":11.59329987,"latitude":48.12730026},"fuelLevel":0.79,"lastAddress":"Franziskanerstraße 15, 81669 München, Germany"}
{"timestamp":"2016-09-28T23:55:00+0200","id":124010,"name":"Luitpold","coordinate":{"longitude":11.58580017,"latitude":48.12590027},"fuelLevel":0.88,"lastAddress":"Gebsattelstraße 2, 81541 München, Germany"}
{"timestamp":"2016-09-28T23:55:00+0200","id":124019,"name":"Valentin","coordinate":{"longitude":11.58510017,"latitude":48.12340164},"fuelLevel":0.9199999999999999,"lastAddress":"Hochstraße 51, 81541 München, Germany"}
{"timestamp":"2016-09-28T23:55:00+0200","id":124035,"name":"Leonie","coordinate":{"longitude":11.58580017,"latitude":48.1291008},"fuelLevel":0.7899999999999999,"lastAddress":"Schwarzstraße 4, 81669 München, Germany"}
{"timestamp":"2016-09-28T23:55:00+0200","id":124006,"name":"Gustl","coordinate":{"longitude":11.57769966,"latitude":48.12070084},"fuelLevel":0.93,"lastAddress":"Dollmannstraße 2, 81541 München, Germany"}
{"timestamp":"2016-09-28T23:55:00+0200","id":124020,"name":"Vinzenz","coordinate":{"longitude":11.57960033,"latitude":48.12310028},"fuelLevel":0.9299999999999999,"lastAddress":"Falkenstraße 18, 81541 München, Germany"}
{"timestamp":"2016-09-28T23:55:00+0200","id":124049,"name":"Marei","coordinate":{"longitude":11.57390022,"latitude":48.12009811},"fuelLevel":0.7200000000000001,"lastAddress":"Humboldtstraße 21, 81543 München, Germany"}
{"timestamp":"2016-09-28T23:55:00+0200","id":124045,"name":"Vroni","coordinate":{"longitude":11.56700039,"latitude":48.12760162},"fuelLevel":0.9199999999999999,"lastAddress":"Pestalozzistraße 56, 80469 München, Germany"}
{"timestamp":"2016-09-28T23:55:00+0200","id":124018,"name":"Toni","coordinate":{"longitude":11.56910038,"latitude":48.12659836},"fuelLevel":0.9500000000000001,"lastAddress":"Jahnstraße 45, 80469 München, Germany"}
{"timestamp":"2016-09-28T23:55:00+0200","id":124004,"name":"Fridl","coordinate":{"longitude":11.56599998,"latitude":48.15670013},"fuelLevel":0.9500000000000001,"lastAddress":"Hiltenspergerstraße 8, 80798 München, Germany"}
{"timestamp":"2016-09-28T23:55:00+0200","id":124031,"name":"Heidi","coordinate":{"longitude":11.56690025,"latitude":48.14960098},"fuelLevel":0.8,"lastAddress":"Luisenstraße 51-53, 80333 München, Germany"}
{"timestamp":"2016-09-28T23:55:00+0200","id":124047,"name":"Walli","coordinate":{"longitude":11.5710001,"latitude":48.15589905},"fuelLevel":0.8999999999999999,"lastAddress":"Isabellastraße 8, 80798 München, Germany"}
{"timestamp":"2016-09-28T23:55:00+0200","id":124002,"name":"Ferdl","coordinate":{"longitude":11.56400013,"latitude":48.1507988},"fuelLevel":0.9500000000000001,"lastAddress":"Augustenstraße 83, 80333 München, Germany"}
{"timestamp":"2016-09-28T23:55:00+0200","id":124048,"name":"Wiggerl","coordinate":{"longitude":11.57789993,"latitude":48.15869904},"fuelLevel":0.7200000000000001,"lastAddress":"Ainmillerstraße 33, 80801 München, Germany"}
{"timestamp":"2016-09-28T23:55:00+0200","id":124028,"name":"Gitte","coordinate":{"longitude":11.57970047,"latitude":48.16009903},"fuelLevel":0.77,"lastAddress":"Hohenzollernstraße 44, 80801 München, Germany"}
{"timestamp":"2016-09-28T23:55:00+0200","id":124027,"name":"Fanni","coordinate":{"longitude":11.57549953,"latitude":48.16049957},"fuelLevel":0.8099999999999999,"lastAddress":"Hohenzollernstraße 82, 80801 München, Germany"}
{"timestamp":"2016-09-28T23:55:00+0200","id":124005,"name":"Georg","coordinate":{"longitude":11.58129978,"latitude":48.15879822},"fuelLevel":0.69,"lastAddress":"Ainmillerstraße 20, 80801 München, Germany"}
{"timestamp":"2016-09-28T23:55:00+0200","id":124032,"name":"Irmi","coordinate":{"longitude":11.57330036,"latitude":48.16019821},"fuelLevel":0.64,"lastAddress":"Isabellastraße 46, 80796 München, Germany"}
{"timestamp":"2016-09-28T23:55:00+0200","id":124037,"name":"Luise","coordinate":{"longitude":11.56550026,"latitude":48.1595993},"fuelLevel":0.9400000000000001,"lastAddress":"Elisabethstraße 52, 80796 München, Germany"}
{"timestamp":"2016-09-28T23:55:00+0200","id":124017,"name":"Siggi","coordinate":{"longitude":11.57120037,"latitude":48.16109848},"fuelLevel":0.56,"lastAddress":"Hohenzollernstraße 112, 80796 München, Germany"}
{"timestamp":"2016-09-28T23:55:00+0200","id":124029,"name":"Hannah","coordinate":{"longitude":11.51019955,"latitude":48.04539871},"fuelLevel":0.7,"lastAddress":"Gistlstraße 159, 82049 Pullach im Isartal, Germany"}
{"timestamp":"2016-09-28T23:55:00+0200","id":124042,"name":"Tilli","coordinate":{"longitude":11.50949955,"latitude":48.04560089},"fuelLevel":0.77,"lastAddress":"Seitnerstraße 70, 82049 Pullach im Isartal, Germany"}
{"timestamp":"2016-09-28T23:55:00+0200","id":124009,"name":"Ludwig","coordinate":{"longitude":11.57859993,"latitude":48.16419983},"fuelLevel":0.9400000000000001,"lastAddress":"Cherubinistraße 2, 80803 München, Germany"}
{"timestamp":"2016-09-28T23:55:00+0200","id":124007,"name":"Jakob","coordinate":{"longitude":11.58609962,"latitude":48.16400146},"fuelLevel":0.9500000000000001,"lastAddress":"Leopoldstraße 87, 80802 München, Germany"}