{"timestamp":"2016-10-10T07:45:00+0200","id":124041,"name":"Sophie","coordinate":{"longitude":11.57750034,"latitude":48.15000153},"fuelLevel":0.9400000000000001,"lastAddress":"Schellingstraße 20, 80799 München, Germany"}
{"timestamp":"2016-10-10T07:45:00+0200","id":124026,"name":"Eva","coordinate":{"longitude":11.57820034,"latitude":48.15359879},"fuelLevel":0.61,"lastAddress":"Türkenstraße 95, 80799 München, Germany"}
{"timestamp":"2016-10-10T07:45:00+0200","id":124025,"name":"Elli","coordinate":{"longitude":11.57619953,"latitude":48.1576004},"fuelLevel":0.9,"lastAddress":"Franz-Joseph-Straße 43, 80801 München, Germany"}
{"timestamp":"2016-10-10T07:45:00+0200","id":124033,"name":"Johanna","coordinate":{"longitude":11.58090019,"latitude":48.15250015},"fuelLevel":0.76,"lastAddress":"Akademiestraße 5, 80799 München, Germany"}
{"timestamp":"2016-10-10T07:45:00+0200","id":124036,"name":"Liesel","coordinate":{"longitude":11.60859966,"latitude":48.1269989},"fuelLevel":0.6699999999999999,"lastAddress":"Haager Str. 5, 81671 München, Germany"}
{"timestamp":"2016-10-10T07:45:00+0200","id":124044,"name":"Uschi","coordinate":{"longitude":11.57250023,"latitude":48.13199997},"fuelLevel":0.9199999999999999,"lastAddress":"Müllerstraße 20, 80469 München, Germany"}
{"timestamp":"2016-10-10T07:45:00+0200","id":124024,"name":"Christl","coordinate":{"longitude":11.57979965,"latitude":48.13330078},"fuelLevel":0.8,"lastAddress":"Rumfordstraße 36, 80469 München, Germany"}
{"timestamp":"2016-10-10T07:45:00+0200","id":124040,"name":"Reserl","coordinate":{"longitude":11.57199955,"latitude":48.13169861},"fuelLevel":0.83,"lastAddress":"Müllerstraße 24, 80469 München, Germany"}
{"timestamp":"2016-10-10T07:45:00+0200","id":124021,"name":"Xaver","coordinate":{"longitude":11.58040047,"latitude":48.13010025},"fuelLevel":0.9199999999999999,"lastAddress":"Erhardtstraße 27, 80469 München, Germany"}
{"timestamp":"2016-10-10T07:45:00+0200","id":124014,"name":"Quirin","coordinate":{"longitude":11.60499954,"latitude":48.13259888},"fuelLevel":0.6000000000000001,"lastAddress":"Elsässer Str. 4, 81667 München, Germany"}
{"timestamp":"2016-10-10T07:45:00+0200","id":124034,"name":"Kathi","coordinate":{"longitude":11.60499954,"latitude":48.13219833},"fuelLevel":0.66,"lastAddress":"Elsässer Str. 16, 81667 München, Germany"}
{"timestamp":"2016-10-10T07:45:00+0200","id":124016,"name":"Sepp","coordinate":{"longitude":11.59840012,"latitude":48.1257019},"fuelLevel":0.9299999999999999,"lastAddress":"Rosenheimer Str. 100, 81669 München, Germany"}
{"timestamp":"2016-10-10T07:45:00+0200","id":124038,"name":"Magda","coordinate":{"longitude":11.60039997,"latitude":48.12820053},"fuelLevel":0.67,"lastAddress":"Gravelottestraße 1, 81667 München, Germany"}
{"timestamp":"2016-10-10T07:45:00+0200","id":124022,"name":"Anne","coordinate":{"longitude":11.59490013,"latitude":48.12820053},"fuelLevel":0.86,"lastAddress":"Rosenheimer Str. 67, 81667 München, Germany"}
{"timestamp":"2016-10-10T07:45:00+0200","id":124000,"name":"Bertl","coordinate":{"longitude":11.59640026,"latitude":48.13499832},"fuelLevel":0.82,"lastAddress":"An der Kreppe 1, 81667 München, Germany"}
{"timestamp":"2016-10-10T07:45:00+0200","id":124013,"name":"Poldi","coordinate":{"longitude":11.59449959,"latitude":48.12810135},"fuelLevel":0.79,"lastAddress":"Rosenheimer Str. 62, 81669 München, Germany"}
{"timestamp":"2016-10-10T07:45:00+0200","id":124011,"name":"Maxl","coordinate":{"longitude":11.59290028,"latitude":48.12519836},"fuelLevel":0.73,"lastAddress":"Sieboldstraße 11, 81669 München, Germany"}
{"timestamp":"2016-10-10T07:45:00+0200","id":124003,"name":"Franzl","coordinate":{"longitude":11.59309959,"latitude":48.12739944},"fuelLevel":0.8,"lastAddress":"Franziskanerstraße 8, 81669 München, Germany"}
{"timestamp":"2016-10-10T07:45:00+0200","id":124010,"name":"Luitpold","coordinate":{"longitude":11.58450031,"latitude":48.12760162},"fuelLevel":0.9500000000000001,"lastAddress":"Lilienstraße 66, 81669 München, Germany"}
{"timestamp":"2016-10-10T07:45:00+0200","id":124019,"name":"Valentin","coordinate":{"longitude":11.58609962,"latitude":48.12379837},"fuelLevel":0.87,"lastAddress":"Hochstraße 47, 81541 München, Germany"}
{"timestamp":"2016-10-10T07:45:00+0200","id":124035,"name":"Leonie","coordinate":{"longitude":11.58749962,"latitude":48.12919998},"fuelLevel":0.7899999999999999,"lastAddress":"Quellenstraße, 81669 München, Germany"}
{"timestamp":"2016-10-10T07:45:00+0200","id":124006,"name":"Gustl","coordinate":{"longitude":11.57579994,"latitude":48.12049866},"fuelLevel":0.38,"lastAddress":"Oefelestraße 1, 81543 München, Germany"}
{"timestamp":"2016-10-10T07:45:00+0200","id":124020,"name":"Vinzenz","coordinate":{"longitude":11.57789993,"latitude":48.1228981},"fuelLevel":0.8999999999999999,"lastAddress":"Entenbachstraße 26, 81541 München, Germany"}
{"timestamp":"2016-10-10T07:45:00+0200","id":124049,"name":"Marei","coordinate":{"longitude":11.57139969,"latitude":48.12080002},"fuelLevel":0.52,"lastAddress":"Claude-Lorrain-Straße 11, 81543 München, Germany"}
{"timestamp":"2016-10-10T07:45:00+0200","id":124045,"name":"Vroni","coordinate":{"longitude":11.56459999,"latitude":48.12360001},"fuelLevel":0.6499999999999999,"lastAddress":"Kapuzinerstraße 44, 80469 München, Germany"}
{"timestamp":"2016-10-10T07:45:00+0200","id":124018,"name":"Toni","coordinate":{"longitude":11.57009983,"latitude":48.12969971},"fuelLevel":0.66,"lastAddress":"Hans-Sachs-Straße 9, 80469 München, Germany"}
{"timestamp":"2016-10-10T07:45:00+0200","id":124012,"name":"Peter","coordinate":{"longitude":11.55729961,"latitude":48.15629959},"fuelLevel":0.9600000000000001,"lastAddress":"Lothstraße 21, 80797 München, Germany"}
{"timestamp":"2016-10-10T07:45:00+0200","id":124031,"name":"Heidi","coordinate":{"longitude":11.56659985,"latitude":48.15209961},"fuelLevel":0.6499999999999999,"lastAddress":"Heßstraße 46A, 80798 München, Germany"}
{"timestamp":"2016-10-10T07:45:00+0200","id":124047,"name":"Walli","coordinate":{"longitude":11.5703001,"latitude":48.14960098},"fuelLevel":0.71,"lastAddress":"Theresienstraße, 80333 München, Germany"}
{"timestamp":"2016-10-10T07:45:00+0200","id":124048,"name":"Wiggerl","coordinate":{"longitude":11.57870007,"latitude":48.16189957},"fuelLevel":0.68,"lastAddress":"Viktor-Scheffel-Straße 7, 80803 München, Germany"}
{"timestamp":"2016-10-10T07:45:00+0200","id":124028,"name":"Gitte","coordinate":{"longitude":11.57699966,"latitude":48.16019821},"fuelLevel":0.75,"lastAddress":"Hohenzollernstraße 70, 80801 München, Germany"}
{"timestamp":"2016-10-10T07:45:00+0200","id":124027,"name":"Fanni","coordinate":{"longitude":11.5777998,"latitude":48.1590004},"fuelLevel":0.7899999999999999,"lastAddress":"Ainmillerstraße 40, 80801 München, Germany"}
{"timestamp":"2016-10-10T07:45:00+0200","id":124005,"name":"Georg","coordinate":{"longitude":11.57540035,"latitude":48.16199875},"fuelLevel":0.56,"lastAddress":"Viktor-Scheffel-Straße 20, 80803 München, Germany"}
{"timestamp":"2016-10-10T07:45:00+0200","id":124001,"name":"Edmund","coordinate":{"longitude":11.5788002,"latitude":48.15790176},"fuelLevel":0.5700000000000001,"lastAddress":"Franz-Joseph-Straße 30, 80801 München, Germany"}
{"timestamp":"2016-10-10T07:45:00+0200","id":124032,"name":"Irmi","coordinate":{"longitude":11.57320023,"latitude":48.16030121},"fuelLevel":0.64,"lastAddress":"Isabellastraße 46-48, 80796 München, Germany"}
{"timestamp":"2016-10-10T07:45:00+0200","id":124037,"name":"Luise","coordinate":{"longitude":11.57009983,"latitude":48.15750122},"fuelLevel":0.52,"lastAddress":"Agnesstraße 16, 80798 München, Germany"}
{"timestamp":"2016-10-10T07:45:00+0200","id":124017,"name":"Siggi","coordinate":{"longitude":11.57059956,"latitude":48.16080093},"fuelLevel":0.56,"lastAddress":"Hohenzollernstraße 81, 80796 München, Germany"}
{"timestamp":"2016-10-10T07:45:00+0200","id":124029,"name":"Hannah","coordinate":{"longitude":11.51019955,"latitude":48.04529953},"fuelLevel":0.7,"lastAddress":"Gistlstraße 159, 82049 Pullach im Isartal, Germany"}
{"timestamp":"2016-10-10T07:45:00+0200","id":124008,"name":"Johann","coordinate":{"longitude":11.51000023,"latitude":48.04560089},"fuelLevel":0.87,"lastAddress":"Gistlstraße 159, 82049 Pullach im Isartal, Germany"}
{"timestamp":"2016-10-10T07:45:00+0200","id":124039,"name":"Marie","coordinate":{"longitude":11.50959969,"latitude":48.04539871},"fuelLevel":0.58,"lastAddress":"Seitnerstraße 70, 82049 Pullach im Isartal, Germany"}
{"timestamp":"2016-10-10T07:45:00+0200","id":124009,"name":"Ludwig","coordinate":{"longitude":11.5848999,"latitude":48.16199875},"fuelLevel":0.8999999999999999,"lastAddress":"Herzogstraße 3, 80803 München, Germany"}
{"timestamp":"2016-10-10T07:45:00+0200","id":124007,"name":"Jakob","coordinate":{"longitude":11.57439995,"latitude":48.16719818},"fuelLevel":0.88,"lastAddress":"Karl-Theodor-Straße 82, 80803 München, Germany"}