{"timestamp":"2016-10-04T13:30:00+0200","id":124041,"name":"Sophie","coordinate":{"longitude":11.57759953,"latitude":48.15010071},"fuelLevel":0.93,"lastAddress":"Schellingstraße 20, 80799 München, Germany"}
{"timestamp":"2016-10-04T13:30:00+0200","id":124026,"name":"Eva","coordinate":{"longitude":11.57870007,"latitude":48.1534996},"fuelLevel":0.61,"lastAddress":"Türkenstraße 95, 80799 München, Germany"}
{"timestamp":"2016-10-04T13:30:00+0200","id":124033,"name":"Johanna","coordinate":{"longitude":11.58160019,"latitude":48.15190125},"fuelLevel":0.84,"lastAddress":"Ludwigstraße 31, 80539 München, Germany"}
{"timestamp":"2016-10-04T13:30:00+0200","id":124036,"name":"Liesel","coordinate":{"longitude":11.57540035,"latitude":48.15650177},"fuelLevel":0.6699999999999999,"lastAddress":"Nordendstraße 38, 80801 München, Germany"}
{"timestamp":"2016-10-04T13:30:00+0200","id":124024,"name":"Christl","coordinate":{"longitude":11.5795002,"latitude":48.13370132},"fuelLevel":0.8,"lastAddress":"Klenzestraße 1A, 80469 München, Germany"}
{"timestamp":"2016-10-04T13:30:00+0200","id":124040,"name":"Reserl","coordinate":{"longitude":11.57299995,"latitude":48.13209915},"fuelLevel":0.8999999999999999,"lastAddress":"Müllerstraße 7, 80469 München, Germany"}
{"timestamp":"2016-10-04T13:30:00+0200","id":124014,"name":"Quirin","coordinate":{"longitude":11.60830021,"latitude":48.13280106},"fuelLevel":0.63,"lastAddress":"Kirchenstraße 78-88, 81675 München, Germany"}
{"timestamp":"2016-10-04T13:30:00+0200","id":124034,"name":"Kathi","coordinate":{"longitude":11.60509968,"latitude":48.13240051},"fuelLevel":0.67,"lastAddress":"Elsässer Str. 4, 81667 München, Germany"}
{"timestamp":"2016-10-04T13:30:00+0200","id":124030,"name":"Hedwig","coordinate":{"longitude":11.56369972,"latitude":48.12749863},"fuelLevel":0.9199999999999999,"lastAddress":"Thalkirchner Str. 52, 80337 München, Germany"}
{"timestamp":"2016-10-04T13:30:00+0200","id":124023,"name":"Babsi","coordinate":{"longitude":11.56359959,"latitude":48.1271019},"fuelLevel":0.93,"lastAddress":"Thalkirchner Str. 54, 80337 München, Germany"}
{"timestamp":"2016-10-04T13:30:00+0200","id":124016,"name":"Sepp","coordinate":{"longitude":11.59860039,"latitude":48.12580109},"fuelLevel":0.9199999999999999,"lastAddress":"Rosenheimer Str. 125, 81667 München, Germany"}
{"timestamp":"2016-10-04T13:30:00+0200","id":124038,"name":"Magda","coordinate":{"longitude":11.60050011,"latitude":48.12820053},"fuelLevel":0.67,"lastAddress":"Weißenburger Str. 36, 81667 München, Germany"}
{"timestamp":"2016-10-04T13:30:00+0200","id":124022,"name":"Anne","coordinate":{"longitude":11.59630013,"latitude":48.1269989},"fuelLevel":0.87,"lastAddress":"Rosenheimer Str. 82, 81669 München, Germany"}
{"timestamp":"2016-10-04T13:30:00+0200","id":124000,"name":"Bertl","coordinate":{"longitude":11.59689999,"latitude":48.12990189},"fuelLevel":0.82,"lastAddress":"Kellerstraße 39, 81667 München, Germany"}
{"timestamp":"2016-10-04T13:30:00+0200","id":124013,"name":"Poldi","coordinate":{"longitude":11.59459972,"latitude":48.12749863},"fuelLevel":0.79,"lastAddress":"Balanstraße 8, 81669 München, Germany"}
{"timestamp":"2016-10-04T13:30:00+0200","id":124011,"name":"Maxl","coordinate":{"longitude":11.59280014,"latitude":48.1257019},"fuelLevel":0.78,"lastAddress":"Sieboldstraße 2, 81669 München, Germany"}
{"timestamp":"2016-10-04T13:30:00+0200","id":124003,"name":"Franzl","coordinate":{"longitude":11.59280014,"latitude":48.12720108},"fuelLevel":0.79,"lastAddress":"Rablstraße 37, 81669 München, Germany"}
{"timestamp":"2016-10-04T13:30:00+0200","id":124019,"name":"Valentin","coordinate":{"longitude":11.58510017,"latitude":48.12360001},"fuelLevel":0.9199999999999999,"lastAddress":"Hochstraße 49C, 81541 München, Germany"}
{"timestamp":"2016-10-04T13:30:00+0200","id":124035,"name":"Leonie","coordinate":{"longitude":11.58549976,"latitude":48.12990189},"fuelLevel":0.7899999999999999,"lastAddress":"Zeppelinstraße 65, 81669 München, Germany"}
{"timestamp":"2016-10-04T13:30:00+0200","id":124006,"name":"Gustl","coordinate":{"longitude":11.5777998,"latitude":48.12120056},"fuelLevel":0.9400000000000001,"lastAddress":"Falkenstraße 42A, 81541 München, Germany"}
{"timestamp":"2016-10-04T13:30:00+0200","id":124020,"name":"Vinzenz","coordinate":{"longitude":11.57870007,"latitude":48.12360001},"fuelLevel":0.9099999999999999,"lastAddress":"Entenbachstraße 16, 81541 München, Germany"}
{"timestamp":"2016-10-04T13:30:00+0200","id":124049,"name":"Marei","coordinate":{"longitude":11.57470036,"latitude":48.11999893},"fuelLevel":0.69,"lastAddress":"Humboldtstraße 25, 81543 München, Germany"}
{"timestamp":"2016-10-04T13:30:00+0200","id":124045,"name":"Vroni","coordinate":{"longitude":11.56760025,"latitude":48.12779999},"fuelLevel":0.9199999999999999,"lastAddress":"Holzstraße 43, 80469 München, Germany"}
{"timestamp":"2016-10-04T13:30:00+0200","id":124018,"name":"Toni","coordinate":{"longitude":11.5703001,"latitude":48.13100052},"fuelLevel":0.9099999999999999,"lastAddress":"Müllerstraße 34, 80469 München, Germany"}
{"timestamp":"2016-10-04T13:30:00+0200","id":124012,"name":"Peter","coordinate":{"longitude":11.57269955,"latitude":48.14970016},"fuelLevel":1,"lastAddress":"Barer Str. 48, 80799 München, Germany"}
{"timestamp":"2016-10-04T13:30:00+0200","id":124004,"name":"Fridl","coordinate":{"longitude":11.56579971,"latitude":48.15660095},"fuelLevel":0.55,"lastAddress":"Hiltenspergerstraße 15, 80798 München, Germany"}
{"timestamp":"2016-10-04T13:30:00+0200","id":124031,"name":"Heidi","coordinate":{"longitude":11.56659985,"latitude":48.14989853},"fuelLevel":0.8,"lastAddress":"Luisenstraße 53, 80333 München, Germany"}
{"timestamp":"2016-10-04T13:30:00+0200","id":124047,"name":"Walli","coordinate":{"longitude":11.57009983,"latitude":48.15060043},"fuelLevel":0.83,"lastAddress":"Arcisstraße 32, 80799 München, Germany"}
{"timestamp":"2016-10-04T13:30:00+0200","id":124002,"name":"Ferdl","coordinate":{"longitude":11.56459999,"latitude":48.15209961},"fuelLevel":0.9500000000000001,"lastAddress":"Augustenstraße 93, 80798 München, Germany"}
{"timestamp":"2016-10-04T13:30:00+0200","id":124048,"name":"Wiggerl","coordinate":{"longitude":11.57919979,"latitude":48.1609993},"fuelLevel":0.68,"lastAddress":"Kaiserstraße 43, 80801 München, Germany"}
{"timestamp":"2016-10-04T13:30:00+0200","id":124028,"name":"Gitte","coordinate":{"longitude":11.57719994,"latitude":48.16019821},"fuelLevel":0.75,"lastAddress":"Hohenzollernstraße 70, 80801 München, Germany"}
{"timestamp":"2016-10-04T13:30:00+0200","id":124027,"name":"Fanni","coordinate":{"longitude":11.57769966,"latitude":48.15890121},"fuelLevel":0.7899999999999999,"lastAddress":"Ainmillerstraße 33, 80801 München, Germany"}
{"timestamp":"2016-10-04T13:30:00+0200","id":124005,"name":"Georg","coordinate":{"longitude":11.58160019,"latitude":48.15869904},"fuelLevel":0.66,"lastAddress":"Ainmillerstraße 15, 80801 München, Germany"}
{"timestamp":"2016-10-04T13:30:00+0200","id":124032,"name":"Irmi","coordinate":{"longitude":11.57260036,"latitude":48.16009903},"fuelLevel":0.64,"lastAddress":"Isabellastraße 45, 80796 München, Germany"}
{"timestamp":"2016-10-04T13:30:00+0200","id":124037,"name":"Luise","coordinate":{"longitude":11.56620026,"latitude":48.15800095},"fuelLevel":0.58,"lastAddress":"Hiltenspergerstraße 25, 80798 München, Germany"}
{"timestamp":"2016-10-04T13:30:00+0200","id":124017,"name":"Siggi","coordinate":{"longitude":11.57089996,"latitude":48.16130066},"fuelLevel":0.56,"lastAddress":"Emanuelstraße 17, 80796 München, Germany"}
{"timestamp":"2016-10-04T13:30:00+0200","id":124029,"name":"Hannah","coordinate":{"longitude":11.51019955,"latitude":48.04529953},"fuelLevel":0.71,"lastAddress":"Gistlstraße 159, 82049 Pullach im Isartal, Germany"}
{"timestamp":"2016-10-04T13:30:00+0200","id":124042,"name":"Tilli","coordinate":{"longitude":11.50990009,"latitude":48.04529953},"fuelLevel":0.77,"lastAddress":"Gistlstraße 159, 82049 Pullach im Isartal, Germany"}
{"timestamp":"2016-10-04T13:30:00+0200","id":124008,"name":"Johann","coordinate":{"longitude":11.51000023,"latitude":48.04560089},"fuelLevel":0.87,"lastAddress":"Gistlstraße 159, 82049 Pullach im Isartal, Germany"}
{"timestamp":"2016-10-04T13:30:00+0200","id":124009,"name":"Ludwig","coordinate":{"longitude":11.5848999,"latitude":48.16199875},"fuelLevel":0.8999999999999999,"lastAddress":"Herzogstraße 3, 80803 München, Germany"}