{"timestamp":"2016-10-10T13:25:00+0200","id":124041,"name":"Sophie","coordinate":{"longitude":11.57750034,"latitude":48.15000153},"fuelLevel":0.9400000000000001,"lastAddress":"Schellingstraße 20, 80799 München, Germany"}
{"timestamp":"2016-10-10T13:25:00+0200","id":124026,"name":"Eva","coordinate":{"longitude":11.57830048,"latitude":48.1534996},"fuelLevel":0.61,"lastAddress":"Türkenstraße 93, 80799 München, Germany"}
{"timestamp":"2016-10-10T13:25:00+0200","id":124033,"name":"Johanna","coordinate":{"longitude":11.58080006,"latitude":48.15240097},"fuelLevel":0.76,"lastAddress":"Akademiestraße 5, 80799 München, Germany"}
{"timestamp":"2016-10-10T13:25:00+0200","id":124036,"name":"Liesel","coordinate":{"longitude":11.6086998,"latitude":48.12630081},"fuelLevel":0.6699999999999999,"lastAddress":"Haager Str. 12, 81671 München, Germany"}
{"timestamp":"2016-10-10T13:25:00+0200","id":124024,"name":"Christl","coordinate":{"longitude":11.57970047,"latitude":48.13349915},"fuelLevel":0.8,"lastAddress":"Klenzestraße 1A, 80469 München, Germany"}
{"timestamp":"2016-10-10T13:25:00+0200","id":124040,"name":"Reserl","coordinate":{"longitude":11.57209969,"latitude":48.13180161},"fuelLevel":0.83,"lastAddress":"Müllerstraße 24, 80469 München, Germany"}
{"timestamp":"2016-10-10T13:25:00+0200","id":124021,"name":"Xaver","coordinate":{"longitude":11.58080006,"latitude":48.12979889},"fuelLevel":0.9199999999999999,"lastAddress":"Erhardtstraße 27, 80469 München, Germany"}
{"timestamp":"2016-10-10T13:25:00+0200","id":124014,"name":"Quirin","coordinate":{"longitude":11.60540009,"latitude":48.13259888},"fuelLevel":0.6000000000000001,"lastAddress":"Kirchenstraße 70, 81675 München, Germany"}
{"timestamp":"2016-10-10T13:25:00+0200","id":124034,"name":"Kathi","coordinate":{"longitude":11.60499954,"latitude":48.13219833},"fuelLevel":0.66,"lastAddress":"Elsässer Str. 16, 81667 München, Germany"}
{"timestamp":"2016-10-10T13:25:00+0200","id":124016,"name":"Sepp","coordinate":{"longitude":11.59860039,"latitude":48.12590027},"fuelLevel":0.9299999999999999,"lastAddress":"Rosenheimer Str. 125, 81667 München, Germany"}
{"timestamp":"2016-10-10T13:25:00+0200","id":124038,"name":"Magda","coordinate":{"longitude":11.60039997,"latitude":48.12820053},"fuelLevel":0.67,"lastAddress":"Gravelottestraße 1, 81667 München, Germany"}
{"timestamp":"2016-10-10T13:25:00+0200","id":124022,"name":"Anne","coordinate":{"longitude":11.59500027,"latitude":48.12810135},"fuelLevel":0.86,"lastAddress":"Rosenheimer Str. 69, 81667 München, Germany"}
{"timestamp":"2016-10-10T13:25:00+0200","id":124000,"name":"Bertl","coordinate":{"longitude":11.59640026,"latitude":48.13499832},"fuelLevel":0.82,"lastAddress":"An der Kreppe 1, 81667 München, Germany"}
{"timestamp":"2016-10-10T13:25:00+0200","id":124013,"name":"Poldi","coordinate":{"longitude":11.5948,"latitude":48.12760162},"fuelLevel":0.79,"lastAddress":"Metzstraße, 81669 München, Germany"}
{"timestamp":"2016-10-10T13:25:00+0200","id":124011,"name":"Maxl","coordinate":{"longitude":11.59329987,"latitude":48.12540054},"fuelLevel":0.73,"lastAddress":"Barnabasstraße 1, 81669 München, Germany"}
{"timestamp":"2016-10-10T13:25:00+0200","id":124003,"name":"Franzl","coordinate":{"longitude":11.59290028,"latitude":48.12720108},"fuelLevel":0.8,"lastAddress":"Franziskanerstraße 8, 81669 München, Germany"}
{"timestamp":"2016-10-10T13:25:00+0200","id":124010,"name":"Luitpold","coordinate":{"longitude":11.58450031,"latitude":48.12749863},"fuelLevel":0.9500000000000001,"lastAddress":"Lilienstraße 75, 81669 München, Germany"}
{"timestamp":"2016-10-10T13:25:00+0200","id":124019,"name":"Valentin","coordinate":{"longitude":11.58530045,"latitude":48.12369919},"fuelLevel":0.87,"lastAddress":"Hochstraße 47A, 81541 München, Germany"}
{"timestamp":"2016-10-10T13:25:00+0200","id":124006,"name":"Gustl","coordinate":{"longitude":11.57450008,"latitude":48.12039948},"fuelLevel":0.9500000000000001,"lastAddress":"Oefelestraße 8, 81543 München, Germany"}
{"timestamp":"2016-10-10T13:25:00+0200","id":124020,"name":"Vinzenz","coordinate":{"longitude":11.5781002,"latitude":48.12269974},"fuelLevel":0.8999999999999999,"lastAddress":"Entenbachstraße 26-28, 81541 München, Germany"}
{"timestamp":"2016-10-10T13:25:00+0200","id":124049,"name":"Marei","coordinate":{"longitude":11.57209969,"latitude":48.1208992},"fuelLevel":0.52,"lastAddress":"Humboldtstraße 3, 81543 München, Germany"}
{"timestamp":"2016-10-10T13:25:00+0200","id":124045,"name":"Vroni","coordinate":{"longitude":11.56529999,"latitude":48.12450027},"fuelLevel":0.6499999999999999,"lastAddress":"Geyerstraße 26, 80469 München, Germany"}
{"timestamp":"2016-10-10T13:25:00+0200","id":124018,"name":"Toni","coordinate":{"longitude":11.56919956,"latitude":48.13019943},"fuelLevel":0.66,"lastAddress":"Holzstraße 7, 80469 München, Germany"}
{"timestamp":"2016-10-10T13:25:00+0200","id":124012,"name":"Peter","coordinate":{"longitude":11.55720043,"latitude":48.1556015},"fuelLevel":0.9600000000000001,"lastAddress":"Schellingstraße 161, 80797 München, Germany"}
{"timestamp":"2016-10-10T13:25:00+0200","id":124004,"name":"Fridl","coordinate":{"longitude":11.5564003,"latitude":48.15439987},"fuelLevel":0.9600000000000001,"lastAddress":"Heßstraße 85, 80797 München, Germany"}
{"timestamp":"2016-10-10T13:25:00+0200","id":124031,"name":"Heidi","coordinate":{"longitude":11.56709957,"latitude":48.15179825},"fuelLevel":0.6499999999999999,"lastAddress":"Heßstraße 38, 80798 München, Germany"}
{"timestamp":"2016-10-10T13:25:00+0200","id":124047,"name":"Walli","coordinate":{"longitude":11.57019997,"latitude":48.1493988},"fuelLevel":0.71,"lastAddress":"Theresienstraße, 80333 München, Germany"}
{"timestamp":"2016-10-10T13:25:00+0200","id":124002,"name":"Ferdl","coordinate":{"longitude":11.56770039,"latitude":48.15159988},"fuelLevel":0.9861111111111112,"lastAddress":"Luisenstraße 60, 80798 München, Germany"}
{"timestamp":"2016-10-10T13:25:00+0200","id":124048,"name":"Wiggerl","coordinate":{"longitude":11.57900047,"latitude":48.16149902},"fuelLevel":0.68,"lastAddress":"Kaiserstraße 36, 80801 München, Germany"}
{"timestamp":"2016-10-10T13:25:00+0200","id":124028,"name":"Gitte","coordinate":{"longitude":11.57769966,"latitude":48.15999985},"fuelLevel":0.75,"lastAddress":"Hohenzollernstraße 39, 80801 München, Germany"}
{"timestamp":"2016-10-10T13:25:00+0200","id":124027,"name":"Fanni","coordinate":{"longitude":11.5777998,"latitude":48.1590004},"fuelLevel":0.7899999999999999,"lastAddress":"Ainmillerstraße 40, 80801 München, Germany"}
{"timestamp":"2016-10-10T13:25:00+0200","id":124005,"name":"Georg","coordinate":{"longitude":11.57549953,"latitude":48.16189957},"fuelLevel":0.56,"lastAddress":"Viktor-Scheffel-Straße 19, 80803 München, Germany"}
{"timestamp":"2016-10-10T13:25:00+0200","id":124001,"name":"Edmund","coordinate":{"longitude":11.57890034,"latitude":48.15790176},"fuelLevel":0.5700000000000001,"lastAddress":"Franz-Joseph-Straße 30, 80801 München, Germany"}
{"timestamp":"2016-10-10T13:25:00+0200","id":124032,"name":"Irmi","coordinate":{"longitude":11.57320023,"latitude":48.16030121},"fuelLevel":0.64,"lastAddress":"Isabellastraße 46-48, 80796 München, Germany"}
{"timestamp":"2016-10-10T13:25:00+0200","id":124017,"name":"Siggi","coordinate":{"longitude":11.5710001,"latitude":48.16080093},"fuelLevel":0.56,"lastAddress":"Hohenzollernstraße 112, 80796 München, Germany"}
{"timestamp":"2016-10-10T13:25:00+0200","id":124029,"name":"Hannah","coordinate":{"longitude":11.51029968,"latitude":48.04539871},"fuelLevel":0.7,"lastAddress":"Gistlstraße 159, 82049 Pullach im Isartal, Germany"}
{"timestamp":"2016-10-10T13:25:00+0200","id":124008,"name":"Johann","coordinate":{"longitude":11.50990009,"latitude":48.04550171},"fuelLevel":0.87,"lastAddress":"Gistlstraße 159, 82049 Pullach im Isartal, Germany"}
{"timestamp":"2016-10-10T13:25:00+0200","id":124039,"name":"Marie","coordinate":{"longitude":11.50959969,"latitude":48.04539871},"fuelLevel":0.58,"lastAddress":"Seitnerstraße 70, 82049 Pullach im Isartal, Germany"}
{"timestamp":"2016-10-10T13:25:00+0200","id":124009,"name":"Ludwig","coordinate":{"longitude":11.58500004,"latitude":48.16199875},"fuelLevel":0.8999999999999999,"lastAddress":"Herzogstraße 3, 80803 München, Germany"}