{"timestamp":"2016-11-17T23:05:00+0100","id":124041,"name":"Sophie","coordinate":{"longitude":11.57888794,"latitude":48.15307617},"fuelLevel":0.5599999999999999,"lastAddress":"Akademiestraße 2, 80799 München, Germany"}
{"timestamp":"2016-11-17T23:05:00+0100","id":124026,"name":"Eva","coordinate":{"longitude":11.58129883,"latitude":48.15231323},"fuelLevel":0.75,"lastAddress":"Akademiestraße 3, 80799 München, Germany"}
{"timestamp":"2016-11-17T23:05:00+0100","id":124025,"name":"Elli","coordinate":{"longitude":11.58129883,"latitude":48.15248108},"fuelLevel":0.8900000000000001,"lastAddress":"Akademiestraße 3, 80799 München, Germany"}
{"timestamp":"2016-11-17T23:05:00+0100","id":124024,"name":"Christl","coordinate":{"longitude":11.57698059,"latitude":48.13278198},"fuelLevel":0.6499999999999999,"lastAddress":"Buttermelcherstraße 4, 80469 München, Germany"}
{"timestamp":"2016-11-17T23:05:00+0100","id":124040,"name":"Reserl","coordinate":{"longitude":11.58172607,"latitude":48.13079834},"fuelLevel":0.86,"lastAddress":"Erhardtstraße 27, 80469 München, Germany"}
{"timestamp":"2016-11-17T23:05:00+0100","id":124021,"name":"Xaver","coordinate":{"longitude":11.58154297,"latitude":48.13093567},"fuelLevel":0.8,"lastAddress":"Erhardtstraße 27, 80469 München, Germany"}
{"timestamp":"2016-11-17T23:05:00+0100","id":124014,"name":"Quirin","coordinate":{"longitude":11.59919739,"latitude":48.13601685},"fuelLevel":0.6527777777777778,"lastAddress":"Einsteinstraße 3, 81675 München, Germany"}
{"timestamp":"2016-11-17T23:05:00+0100","id":124030,"name":"Hedwig","coordinate":{"longitude":11.56356812,"latitude":48.13484192},"fuelLevel":0.6944444444444444,"lastAddress":"Mathildenstraße 3C, 80336 München, Germany"}
{"timestamp":"2016-11-17T23:05:00+0100","id":124023,"name":"Babsi","coordinate":{"longitude":11.56669617,"latitude":48.13189697},"fuelLevel":0.62,"lastAddress":"Thalkirchner Str. 3-5, 80337 München, Germany"}
{"timestamp":"2016-11-17T23:05:00+0100","id":124000,"name":"Bertl","coordinate":{"longitude":11.59687805,"latitude":48.12799072},"fuelLevel":0.55,"lastAddress":"Lothringer Str. 4, 81667 München, Germany"}
{"timestamp":"2016-11-17T23:05:00+0100","id":124013,"name":"Poldi","coordinate":{"longitude":11.58958435,"latitude":48.125},"fuelLevel":0.79,"lastAddress":"Franziskanerstraße 47, 81669 München, Germany"}
{"timestamp":"2016-11-17T23:05:00+0100","id":124010,"name":"Luitpold","coordinate":{"longitude":11.58822632,"latitude":48.12860107},"fuelLevel":0.58,"lastAddress":"Hochstraße 15, 81669 München, Germany"}
{"timestamp":"2016-11-17T23:05:00+0100","id":124019,"name":"Valentin","coordinate":{"longitude":11.58198547,"latitude":48.12101746},"fuelLevel":0.64,"lastAddress":"Hochstraße 81, 81541 München, Germany"}
{"timestamp":"2016-11-17T23:05:00+0100","id":124035,"name":"Leonie","coordinate":{"longitude":11.58351135,"latitude":48.12770081},"fuelLevel":0.87,"lastAddress":"Zeppelinstraße 39, 81669 München, Germany"}
{"timestamp":"2016-11-17T23:05:00+0100","id":124006,"name":"Gustl","coordinate":{"longitude":11.57470703,"latitude":48.1210022},"fuelLevel":0.86,"lastAddress":"Edlingerstraße 22, 81543 München, Germany"}
{"timestamp":"2016-11-17T23:05:00+0100","id":124020,"name":"Vinzenz","coordinate":{"longitude":11.57878113,"latitude":48.12348938},"fuelLevel":0.88,"lastAddress":"Entenbachstraße 15, 81541 München, Germany"}
{"timestamp":"2016-11-17T23:05:00+0100","id":124049,"name":"Marei","coordinate":{"longitude":11.57872009,"latitude":48.12338257},"fuelLevel":0.9099999999999999,"lastAddress":"Albanistraße 17, 81541 München, Germany"}
{"timestamp":"2016-11-17T23:05:00+0100","id":124018,"name":"Toni","coordinate":{"longitude":11.5690918,"latitude":48.12400818},"fuelLevel":0.56,"lastAddress":"Wittelsbacherstraße 10-11, 80469 München, Germany"}
{"timestamp":"2016-11-17T23:05:00+0100","id":124004,"name":"Fridl","coordinate":{"longitude":11.55909729,"latitude":48.15390015},"fuelLevel":0.88,"lastAddress":"Heßstraße 79, 80797 München, Germany"}
{"timestamp":"2016-11-17T23:05:00+0100","id":124031,"name":"Heidi","coordinate":{"longitude":11.56950378,"latitude":48.1493988},"fuelLevel":0.45999999999999996,"lastAddress":"Arcisstraße 21, 80333 München, Germany"}
{"timestamp":"2016-11-17T23:05:00+0100","id":124047,"name":"Walli","coordinate":{"longitude":11.5670166,"latitude":48.15029907},"fuelLevel":0.76,"lastAddress":"Theresienstraße 100-102, 80333 München, Germany"}
{"timestamp":"2016-11-17T23:05:00+0100","id":124002,"name":"Ferdl","coordinate":{"longitude":11.56391907,"latitude":48.15040588},"fuelLevel":0.8999999999999999,"lastAddress":"Augustenstraße 76, 80333 München, Germany"}
{"timestamp":"2016-11-17T23:05:00+0100","id":124028,"name":"Gitte","coordinate":{"longitude":11.57920837,"latitude":48.15791321},"fuelLevel":0.9099999999999999,"lastAddress":"Franz-Joseph-Straße 28, 80801 München, Germany"}
{"timestamp":"2016-11-17T23:05:00+0100","id":124027,"name":"Fanni","coordinate":{"longitude":11.58340454,"latitude":48.16078186},"fuelLevel":0.9,"lastAddress":"Kaiserstraße 19, 80801 München, Germany"}
{"timestamp":"2016-11-17T23:05:00+0100","id":124001,"name":"Edmund","coordinate":{"longitude":11.57670593,"latitude":48.1612854},"fuelLevel":0.63,"lastAddress":"Kaiserstraße 59-61, 80801 München, Germany"}
{"timestamp":"2016-11-17T23:05:00+0100","id":124032,"name":"Irmi","coordinate":{"longitude":11.57261658,"latitude":48.15808105},"fuelLevel":0.89,"lastAddress":"Elisabethstraße 10, 80796 München, Germany"}
{"timestamp":"2016-11-17T23:05:00+0100","id":124037,"name":"Luise","coordinate":{"longitude":11.5664978,"latitude":48.15690613},"fuelLevel":0.59,"lastAddress":"Georgenstraße 114, 80798 München, Germany"}
{"timestamp":"2016-11-17T23:05:00+0100","id":124017,"name":"Siggi","coordinate":{"longitude":11.56906128,"latitude":48.15933228},"fuelLevel":0.64,"lastAddress":"Tengstraße 31, 80796 München, Germany"}
{"timestamp":"2016-11-17T23:05:00+0100","id":124029,"name":"Hannah","coordinate":{"longitude":11.50959778,"latitude":48.04548645},"fuelLevel":0.89,"lastAddress":"Seitnerstraße 70, 82049 Pullach im Isartal, Germany"}
{"timestamp":"2016-11-17T23:05:00+0100","id":124008,"name":"Johann","coordinate":{"longitude":11.50950623,"latitude":48.04548645},"fuelLevel":0.81,"lastAddress":"Seitnerstraße 70, 82049 Pullach im Isartal, Germany"}
{"timestamp":"2016-11-17T23:05:00+0100","id":124009,"name":"Ludwig","coordinate":{"longitude":11.58140564,"latitude":48.16638184},"fuelLevel":0.89,"lastAddress":"Karl-Theodor-Straße 44, 80803 München, Germany"}
{"timestamp":"2016-11-17T23:05:00+0100","id":124007,"name":"Jakob","coordinate":{"longitude":11.57409668,"latitude":48.16429138},"fuelLevel":0.84,"lastAddress":"Belgradstraße 37, 80796 München, Germany"}