{"timestamp":"2016-10-06T06:50:00+0200","id":124041,"name":"Sophie","coordinate":{"longitude":11.57789993,"latitude":48.15000153},"fuelLevel":0.93,"lastAddress":"Amalienstraße 59, 80799 München, Germany"}
{"timestamp":"2016-10-06T06:50:00+0200","id":124026,"name":"Eva","coordinate":{"longitude":11.57970047,"latitude":48.15359879},"fuelLevel":0.61,"lastAddress":"Akademiestraße 2, 80799 München, Germany"}
{"timestamp":"2016-10-06T06:50:00+0200","id":124033,"name":"Johanna","coordinate":{"longitude":11.58129978,"latitude":48.15179825},"fuelLevel":0.84,"lastAddress":"Ludwigstraße 31, 80539 München, Germany"}
{"timestamp":"2016-10-06T06:50:00+0200","id":124036,"name":"Liesel","coordinate":{"longitude":11.57509995,"latitude":48.15650177},"fuelLevel":0.6699999999999999,"lastAddress":"Nordendstraße 29, 80801 München, Germany"}
{"timestamp":"2016-10-06T06:50:00+0200","id":124044,"name":"Uschi","coordinate":{"longitude":11.57260036,"latitude":48.13169861},"fuelLevel":0.9199999999999999,"lastAddress":"Müllerstraße 9, 80469 München, Germany"}
{"timestamp":"2016-10-06T06:50:00+0200","id":124024,"name":"Christl","coordinate":{"longitude":11.57929993,"latitude":48.13399887},"fuelLevel":0.8,"lastAddress":"Rumfordstraße 31, 80469 München, Germany"}
{"timestamp":"2016-10-06T06:50:00+0200","id":124040,"name":"Reserl","coordinate":{"longitude":11.57289982,"latitude":48.13209915},"fuelLevel":0.8999999999999999,"lastAddress":"Müllerstraße 18, 80469 München, Germany"}
{"timestamp":"2016-10-06T06:50:00+0200","id":124021,"name":"Xaver","coordinate":{"longitude":11.58160019,"latitude":48.13069916},"fuelLevel":0.9500000000000001,"lastAddress":"Erhardtstraße 27, 80469 München, Germany"}
{"timestamp":"2016-10-06T06:50:00+0200","id":124014,"name":"Quirin","coordinate":{"longitude":11.60840034,"latitude":48.13280106},"fuelLevel":0.63,"lastAddress":"Kirchenstraße 78-88, 81675 München, Germany"}
{"timestamp":"2016-10-06T06:50:00+0200","id":124030,"name":"Hedwig","coordinate":{"longitude":11.56369972,"latitude":48.12760162},"fuelLevel":0.9199999999999999,"lastAddress":"Thalkirchner Str. 52, 80337 München, Germany"}
{"timestamp":"2016-10-06T06:50:00+0200","id":124038,"name":"Magda","coordinate":{"longitude":11.60079956,"latitude":48.12939835},"fuelLevel":0.67,"lastAddress":"Wörthstraße 32, 81667 München, Germany"}
{"timestamp":"2016-10-06T06:50:00+0200","id":124022,"name":"Anne","coordinate":{"longitude":11.5965004,"latitude":48.12730026},"fuelLevel":0.8800000000000001,"lastAddress":"Rosenheimer Str. 87, 81667 München, Germany"}
{"timestamp":"2016-10-06T06:50:00+0200","id":124000,"name":"Bertl","coordinate":{"longitude":11.59689999,"latitude":48.12950134},"fuelLevel":0.82,"lastAddress":"Kellerstraße 34, 81667 München, Germany"}
{"timestamp":"2016-10-06T06:50:00+0200","id":124013,"name":"Poldi","coordinate":{"longitude":11.59430027,"latitude":48.12799835},"fuelLevel":0.79,"lastAddress":"Rosenheimer Pl. 2, 81669 München, Germany"}
{"timestamp":"2016-10-06T06:50:00+0200","id":124011,"name":"Maxl","coordinate":{"longitude":11.59319973,"latitude":48.125},"fuelLevel":0.7899999999999999,"lastAddress":"St.-Wolfgangs-Platz 11, 81669 München, Germany"}
{"timestamp":"2016-10-06T06:50:00+0200","id":124003,"name":"Franzl","coordinate":{"longitude":11.59309959,"latitude":48.12720108},"fuelLevel":0.8,"lastAddress":"Franziskanerstraße 17, 81669 München, Germany"}
{"timestamp":"2016-10-06T06:50:00+0200","id":124010,"name":"Luitpold","coordinate":{"longitude":11.58419991,"latitude":48.12799835},"fuelLevel":0.9500000000000001,"lastAddress":"Zeppelinstraße 47, 81669 München, Germany"}
{"timestamp":"2016-10-06T06:50:00+0200","id":124006,"name":"Gustl","coordinate":{"longitude":11.57769966,"latitude":48.12080002},"fuelLevel":0.9400000000000001,"lastAddress":"Dollmannstraße 2, 81541 München, Germany"}
{"timestamp":"2016-10-06T06:50:00+0200","id":124020,"name":"Vinzenz","coordinate":{"longitude":11.57670021,"latitude":48.12450027},"fuelLevel":0.8999999999999999,"lastAddress":"Albanistraße 3, 81541 München, Germany"}
{"timestamp":"2016-10-06T06:50:00+0200","id":124049,"name":"Marei","coordinate":{"longitude":11.57460022,"latitude":48.11989975},"fuelLevel":0.69,"lastAddress":"Humboldtstraße 25, 81543 München, Germany"}
{"timestamp":"2016-10-06T06:50:00+0200","id":124045,"name":"Vroni","coordinate":{"longitude":11.56719971,"latitude":48.12760162},"fuelLevel":0.9199999999999999,"lastAddress":"Pestalozzistraße 56, 80469 München, Germany"}
{"timestamp":"2016-10-06T06:50:00+0200","id":124018,"name":"Toni","coordinate":{"longitude":11.56970024,"latitude":48.13119888},"fuelLevel":0.9199999999999999,"lastAddress":"Müllerstraße 40, 80469 München, Germany"}
{"timestamp":"2016-10-06T06:50:00+0200","id":124012,"name":"Peter","coordinate":{"longitude":11.57250023,"latitude":48.14970016},"fuelLevel":1,"lastAddress":"Barer Str. 48-50, 80799 München, Germany"}
{"timestamp":"2016-10-06T06:50:00+0200","id":124004,"name":"Fridl","coordinate":{"longitude":11.56589985,"latitude":48.15670013},"fuelLevel":0.55,"lastAddress":"Hiltenspergerstraße 8/I, 80798 München, Germany"}
{"timestamp":"2016-10-06T06:50:00+0200","id":124031,"name":"Heidi","coordinate":{"longitude":11.56649971,"latitude":48.14989853},"fuelLevel":0.8,"lastAddress":"Luisenstraße 53, 80333 München, Germany"}
{"timestamp":"2016-10-06T06:50:00+0200","id":124002,"name":"Ferdl","coordinate":{"longitude":11.56480026,"latitude":48.15219879},"fuelLevel":0.9500000000000001,"lastAddress":"Heßstraße 39, 80798 München, Germany"}
{"timestamp":"2016-10-06T06:50:00+0200","id":124048,"name":"Wiggerl","coordinate":{"longitude":11.57859993,"latitude":48.16120148},"fuelLevel":0.68,"lastAddress":"Kaiserstraße 47-49, 80801 München, Germany"}
{"timestamp":"2016-10-06T06:50:00+0200","id":124028,"name":"Gitte","coordinate":{"longitude":11.57759953,"latitude":48.15980148},"fuelLevel":0.75,"lastAddress":"Römerstraße 16, 80801 München, Germany"}
{"timestamp":"2016-10-06T06:50:00+0200","id":124027,"name":"Fanni","coordinate":{"longitude":11.57800007,"latitude":48.15879822},"fuelLevel":0.7899999999999999,"lastAddress":"Ainmillerstraße 33, 80801 München, Germany"}
{"timestamp":"2016-10-06T06:50:00+0200","id":124005,"name":"Georg","coordinate":{"longitude":11.58139992,"latitude":48.15850067},"fuelLevel":0.66,"lastAddress":"Ainmillerstraße 15, 80801 München, Germany"}
{"timestamp":"2016-10-06T06:50:00+0200","id":124032,"name":"Irmi","coordinate":{"longitude":11.57320023,"latitude":48.16030121},"fuelLevel":0.64,"lastAddress":"Isabellastraße 46-48, 80796 München, Germany"}
{"timestamp":"2016-10-06T06:50:00+0200","id":124037,"name":"Luise","coordinate":{"longitude":11.56669998,"latitude":48.1576004},"fuelLevel":0.58,"lastAddress":"Agnesstraße 33, 80799 München, Germany"}
{"timestamp":"2016-10-06T06:50:00+0200","id":124017,"name":"Siggi","coordinate":{"longitude":11.57079983,"latitude":48.16070175},"fuelLevel":0.56,"lastAddress":"Hohenzollernstraße 81, 80796 München, Germany"}
{"timestamp":"2016-10-06T06:50:00+0200","id":124029,"name":"Hannah","coordinate":{"longitude":11.51019955,"latitude":48.04539871},"fuelLevel":0.7,"lastAddress":"Gistlstraße 159, 82049 Pullach im Isartal, Germany"}
{"timestamp":"2016-10-06T06:50:00+0200","id":124008,"name":"Johann","coordinate":{"longitude":11.51000023,"latitude":48.04550171},"fuelLevel":0.87,"lastAddress":"Gistlstraße 159, 82049 Pullach im Isartal, Germany"}
{"timestamp":"2016-10-06T06:50:00+0200","id":124039,"name":"Marie","coordinate":{"longitude":11.50959969,"latitude":48.04550171},"fuelLevel":0.58,"lastAddress":"Seitnerstraße 70, 82049 Pullach im Isartal, Germany"}
{"timestamp":"2016-10-06T06:50:00+0200","id":124009,"name":"Ludwig","coordinate":{"longitude":11.58500004,"latitude":48.16220093},"fuelLevel":0.8999999999999999,"lastAddress":"Herzogstraße 2, 80803 München, Germany"}
{"timestamp":"2016-10-06T06:50:00+0200","id":124007,"name":"Jakob","coordinate":{"longitude":11.57509995,"latitude":48.16619873},"fuelLevel":0.9400000000000001,"lastAddress":"Degenfeldstraße 7, 80803 München, Germany"}