{"timestamp":"2016-09-26T16:30:00+0200","id":124041,"name":"Sophie","coordinate":{"longitude":11.5777998,"latitude":48.1495018},"fuelLevel":0.93,"lastAddress":"Amalienstraße 55, 80799 München, Germany"}
{"timestamp":"2016-09-26T16:30:00+0200","id":124026,"name":"Eva","coordinate":{"longitude":11.57849979,"latitude":48.1534996},"fuelLevel":0.61,"lastAddress":"Türkenstraße 93, 80799 München, Germany"}
{"timestamp":"2016-09-26T16:30:00+0200","id":124025,"name":"Elli","coordinate":{"longitude":11.57800007,"latitude":48.1529007},"fuelLevel":0.85,"lastAddress":"Türkenstraße 98, 80799 München, Germany"}
{"timestamp":"2016-09-26T16:30:00+0200","id":124033,"name":"Johanna","coordinate":{"longitude":11.58110046,"latitude":48.15629959},"fuelLevel":0.8999999999999999,"lastAddress":"Friedrichstraße 13, 80801 München, Germany"}
{"timestamp":"2016-09-26T16:30:00+0200","id":124036,"name":"Liesel","coordinate":{"longitude":11.57530022,"latitude":48.15629959},"fuelLevel":0.6699999999999999,"lastAddress":"Nordendstraße 36, 80801 München, Germany"}
{"timestamp":"2016-09-26T16:30:00+0200","id":124044,"name":"Uschi","coordinate":{"longitude":11.57540035,"latitude":48.13029861},"fuelLevel":0.51,"lastAddress":"Reichenbachstraße 22, 80469 München, Germany"}
{"timestamp":"2016-09-26T16:30:00+0200","id":124024,"name":"Christl","coordinate":{"longitude":11.58030033,"latitude":48.13199997},"fuelLevel":0.83,"lastAddress":"Kohlstraße 2, 80469 München, Germany"}
{"timestamp":"2016-09-26T16:30:00+0200","id":124021,"name":"Xaver","coordinate":{"longitude":11.58080006,"latitude":48.13180161},"fuelLevel":0.52,"lastAddress":"Kohlstraße 5, 80469 München, Germany"}
{"timestamp":"2016-09-26T16:30:00+0200","id":124014,"name":"Quirin","coordinate":{"longitude":11.60379982,"latitude":48.13359833},"fuelLevel":0.63,"lastAddress":"Kirchenstraße 42-44, 81675 München, Germany"}
{"timestamp":"2016-09-26T16:30:00+0200","id":124034,"name":"Kathi","coordinate":{"longitude":11.60490036,"latitude":48.13230133},"fuelLevel":0.67,"lastAddress":"Elsässer Str. 6, 81667 München, Germany"}
{"timestamp":"2016-09-26T16:30:00+0200","id":124030,"name":"Hedwig","coordinate":{"longitude":11.56260014,"latitude":48.12680054},"fuelLevel":0.9099999999999999,"lastAddress":"Thalkirchner Str. 70, 80337 München, Germany"}
{"timestamp":"2016-09-26T16:30:00+0200","id":124023,"name":"Babsi","coordinate":{"longitude":11.56369972,"latitude":48.12720108},"fuelLevel":0.93,"lastAddress":"Thalkirchner Str. 54, 80337 München, Germany"}
{"timestamp":"2016-09-26T16:30:00+0200","id":124016,"name":"Sepp","coordinate":{"longitude":11.59819984,"latitude":48.12549973},"fuelLevel":0.9199999999999999,"lastAddress":"Bazeillesstraße 1, 81669 München, Germany"}
{"timestamp":"2016-09-26T16:30:00+0200","id":124038,"name":"Magda","coordinate":{"longitude":11.60000038,"latitude":48.12820053},"fuelLevel":0.76,"lastAddress":"Pariser Str. 38, 81667 München, Germany"}
{"timestamp":"2016-09-26T16:30:00+0200","id":124022,"name":"Anne","coordinate":{"longitude":11.59669971,"latitude":48.12649918},"fuelLevel":0.8900000000000001,"lastAddress":"Pariser Str. 14-16, 81669 München, Germany"}
{"timestamp":"2016-09-26T16:30:00+0200","id":124000,"name":"Bertl","coordinate":{"longitude":11.59490013,"latitude":48.12979889},"fuelLevel":0.8500000000000001,"lastAddress":"Steinstraße 62, 81667 München, Germany"}
{"timestamp":"2016-09-26T16:30:00+0200","id":124013,"name":"Poldi","coordinate":{"longitude":11.5948,"latitude":48.12680054},"fuelLevel":0.83,"lastAddress":"Balanstraße 16, 81669 München, Germany"}
{"timestamp":"2016-09-26T16:30:00+0200","id":124011,"name":"Maxl","coordinate":{"longitude":11.59300041,"latitude":48.12599945},"fuelLevel":0.8099999999999999,"lastAddress":"Sieboldstraße 3, 81669 München, Germany"}
{"timestamp":"2016-09-26T16:30:00+0200","id":124003,"name":"Franzl","coordinate":{"longitude":11.58930016,"latitude":48.12490082},"fuelLevel":0.88,"lastAddress":"Franziskanerstraße 49, 81669 München, Germany"}
{"timestamp":"2016-09-26T16:30:00+0200","id":124010,"name":"Luitpold","coordinate":{"longitude":11.58590031,"latitude":48.1257019},"fuelLevel":0.88,"lastAddress":"Gebsattelstraße 2, 81541 München, Germany"}
{"timestamp":"2016-09-26T16:30:00+0200","id":124019,"name":"Valentin","coordinate":{"longitude":11.58500004,"latitude":48.12360001},"fuelLevel":0.9199999999999999,"lastAddress":"Hochstraße 49C, 81541 München, Germany"}
{"timestamp":"2016-09-26T16:30:00+0200","id":124035,"name":"Leonie","coordinate":{"longitude":11.58570004,"latitude":48.12929916},"fuelLevel":0.7899999999999999,"lastAddress":"Schwarzstraße 1, 81669 München, Germany"}
{"timestamp":"2016-09-26T16:30:00+0200","id":124006,"name":"Gustl","coordinate":{"longitude":11.57759953,"latitude":48.12099838},"fuelLevel":0.93,"lastAddress":"Falkenstraße 44, 81541 München, Germany"}
{"timestamp":"2016-09-26T16:30:00+0200","id":124020,"name":"Vinzenz","coordinate":{"longitude":11.57940006,"latitude":48.12310028},"fuelLevel":0.9299999999999999,"lastAddress":"Albanistraße 19, 81541 München, Germany"}
{"timestamp":"2016-09-26T16:30:00+0200","id":124049,"name":"Marei","coordinate":{"longitude":11.57409954,"latitude":48.12020111},"fuelLevel":0.7200000000000001,"lastAddress":"Oefelestraße 12, 81543 München, Germany"}
{"timestamp":"2016-09-26T16:30:00+0200","id":124043,"name":"Traudl","coordinate":{"longitude":11.57460022,"latitude":48.12820053},"fuelLevel":0.71,"lastAddress":"Baaderstraße 84, 80469 München, Germany"}
{"timestamp":"2016-09-26T16:30:00+0200","id":124018,"name":"Toni","coordinate":{"longitude":11.56910038,"latitude":48.12659836},"fuelLevel":0.9500000000000001,"lastAddress":"Jahnstraße 45, 80469 München, Germany"}
{"timestamp":"2016-09-26T16:30:00+0200","id":124004,"name":"Fridl","coordinate":{"longitude":11.5600996,"latitude":48.1556015},"fuelLevel":0.82,"lastAddress":"Winzererstraße 32, 80797 München, Germany"}
{"timestamp":"2016-09-26T16:30:00+0200","id":124031,"name":"Heidi","coordinate":{"longitude":11.56470013,"latitude":48.14699936},"fuelLevel":0.8500000000000001,"lastAddress":"Luisenstraße 33, 80333 München, Germany"}
{"timestamp":"2016-09-26T16:30:00+0200","id":124047,"name":"Walli","coordinate":{"longitude":11.57129955,"latitude":48.15650177},"fuelLevel":0.8999999999999999,"lastAddress":"Georgenstraße 82, 80799 München, Germany"}
{"timestamp":"2016-09-26T16:30:00+0200","id":124002,"name":"Ferdl","coordinate":{"longitude":11.56659985,"latitude":48.15409851},"fuelLevel":0.6499999999999999,"lastAddress":"Augustenstraße 110, 80798 München, Germany"}
{"timestamp":"2016-09-26T16:30:00+0200","id":124048,"name":"Wiggerl","coordinate":{"longitude":11.57730007,"latitude":48.15909958},"fuelLevel":0.7200000000000001,"lastAddress":"Römerstraße 10, 80801 München, Germany"}
{"timestamp":"2016-09-26T16:30:00+0200","id":124028,"name":"Gitte","coordinate":{"longitude":11.57989979,"latitude":48.15829849},"fuelLevel":0.81,"lastAddress":"Habsburgerpl. 3, 80801 München, Germany"}
{"timestamp":"2016-09-26T16:30:00+0200","id":124027,"name":"Fanni","coordinate":{"longitude":11.5770998,"latitude":48.1590004},"fuelLevel":0.85,"lastAddress":"Ainmillerstraße 35, 80801 München, Germany"}
{"timestamp":"2016-09-26T16:30:00+0200","id":124032,"name":"Irmi","coordinate":{"longitude":11.57289982,"latitude":48.16009903},"fuelLevel":0.64,"lastAddress":"Isabellastraße 47, 80796 München, Germany"}
{"timestamp":"2016-09-26T16:30:00+0200","id":124017,"name":"Siggi","coordinate":{"longitude":11.56779957,"latitude":48.16120148},"fuelLevel":0.6000000000000001,"lastAddress":"Hohenzollernstraße 128, 80796 München, Germany"}
{"timestamp":"2016-09-26T16:30:00+0200","id":124029,"name":"Hannah","coordinate":{"longitude":11.51029968,"latitude":48.04529953},"fuelLevel":0.7,"lastAddress":"Gistlstraße 159, 82049 Pullach im Isartal, Germany"}
{"timestamp":"2016-09-26T16:30:00+0200","id":124042,"name":"Tilli","coordinate":{"longitude":11.50529957,"latitude":48.04270172},"fuelLevel":0.84,"lastAddress":"Wolfratshauser Str. 138, 82049 Pullach im Isartal, Germany"}
{"timestamp":"2016-09-26T16:30:00+0200","id":124039,"name":"Marie","coordinate":{"longitude":11.50959969,"latitude":48.04550171},"fuelLevel":0.89,"lastAddress":"Seitnerstraße 70, 82049 Pullach im Isartal, Germany"}
{"timestamp":"2016-09-26T16:30:00+0200","id":124009,"name":"Ludwig","coordinate":{"longitude":11.5781002,"latitude":48.16439819},"fuelLevel":0.9400000000000001,"lastAddress":"Cherubinistraße 4, 80803 München, Germany"}