{"timestamp":"2016-10-09T11:55:00+0200","id":124041,"name":"Sophie","coordinate":{"longitude":11.5777998,"latitude":48.15050125},"fuelLevel":0.9400000000000001,"lastAddress":"Amalienstraße 71I, 80799 München, Germany"}
{"timestamp":"2016-10-09T11:55:00+0200","id":124026,"name":"Eva","coordinate":{"longitude":11.5781002,"latitude":48.1534996},"fuelLevel":0.61,"lastAddress":"Türkenstraße 93, 80799 München, Germany"}
{"timestamp":"2016-10-09T11:55:00+0200","id":124025,"name":"Elli","coordinate":{"longitude":11.57610035,"latitude":48.1576004},"fuelLevel":0.9,"lastAddress":"Franz-Joseph-Straße 43, 80801 München, Germany"}
{"timestamp":"2016-10-09T11:55:00+0200","id":124033,"name":"Johanna","coordinate":{"longitude":11.58080006,"latitude":48.15269852},"fuelLevel":0.76,"lastAddress":"Akademiestraße 5, 80799 München, Germany"}
{"timestamp":"2016-10-09T11:55:00+0200","id":124036,"name":"Liesel","coordinate":{"longitude":11.6086998,"latitude":48.12630081},"fuelLevel":0.6699999999999999,"lastAddress":"Haager Str. 12, 81671 München, Germany"}
{"timestamp":"2016-10-09T11:55:00+0200","id":124044,"name":"Uschi","coordinate":{"longitude":11.57320023,"latitude":48.13199997},"fuelLevel":0.9199999999999999,"lastAddress":"Müllerstraße 7, 80469 München, Germany"}
{"timestamp":"2016-10-09T11:55:00+0200","id":124024,"name":"Christl","coordinate":{"longitude":11.5795002,"latitude":48.13359833},"fuelLevel":0.8,"lastAddress":"Klenzestraße 1, 80469 München, Germany"}
{"timestamp":"2016-10-09T11:55:00+0200","id":124040,"name":"Reserl","coordinate":{"longitude":11.5717001,"latitude":48.13159943},"fuelLevel":0.83,"lastAddress":"Müllerstraße 26, 80469 München, Germany"}
{"timestamp":"2016-10-09T11:55:00+0200","id":124021,"name":"Xaver","coordinate":{"longitude":11.58030033,"latitude":48.13000107},"fuelLevel":0.9199999999999999,"lastAddress":"Erhardtstraße 27, 80469 München, Germany"}
{"timestamp":"2016-10-09T11:55:00+0200","id":124014,"name":"Quirin","coordinate":{"longitude":11.60540009,"latitude":48.13249969},"fuelLevel":0.6000000000000001,"lastAddress":"Kirchenstraße 70, 81675 München, Germany"}
{"timestamp":"2016-10-09T11:55:00+0200","id":124034,"name":"Kathi","coordinate":{"longitude":11.60499954,"latitude":48.13230133},"fuelLevel":0.66,"lastAddress":"Elsässer Str. 6, 81667 München, Germany"}
{"timestamp":"2016-10-09T11:55:00+0200","id":124016,"name":"Sepp","coordinate":{"longitude":11.59829998,"latitude":48.12559891},"fuelLevel":0.9299999999999999,"lastAddress":"Rosenheimer Str. 100, 81669 München, Germany"}
{"timestamp":"2016-10-09T11:55:00+0200","id":124038,"name":"Magda","coordinate":{"longitude":11.60039997,"latitude":48.12820053},"fuelLevel":0.67,"lastAddress":"Gravelottestraße 1, 81667 München, Germany"}
{"timestamp":"2016-10-09T11:55:00+0200","id":124022,"name":"Anne","coordinate":{"longitude":11.59440041,"latitude":48.12799835},"fuelLevel":0.86,"lastAddress":"Balanstraße 2, 81669 München, Germany"}
{"timestamp":"2016-10-09T11:55:00+0200","id":124000,"name":"Bertl","coordinate":{"longitude":11.59640026,"latitude":48.13800049},"fuelLevel":0.82,"lastAddress":"Maria-Theresia-Straße 4, 81675 München, Germany"}
{"timestamp":"2016-10-09T11:55:00+0200","id":124013,"name":"Poldi","coordinate":{"longitude":11.59459972,"latitude":48.12779999},"fuelLevel":0.79,"lastAddress":"Balanstraße 4, 81669 München, Germany"}
{"timestamp":"2016-10-09T11:55:00+0200","id":124011,"name":"Maxl","coordinate":{"longitude":11.59290028,"latitude":48.12580109},"fuelLevel":0.73,"lastAddress":"Sieboldstraße 5, 81669 München, Germany"}
{"timestamp":"2016-10-09T11:55:00+0200","id":124003,"name":"Franzl","coordinate":{"longitude":11.59309959,"latitude":48.12720108},"fuelLevel":0.8,"lastAddress":"Franziskanerstraße 17, 81669 München, Germany"}
{"timestamp":"2016-10-09T11:55:00+0200","id":124010,"name":"Luitpold","coordinate":{"longitude":11.58460045,"latitude":48.12760162},"fuelLevel":0.9500000000000001,"lastAddress":"Lilienstraße 73, 81669 München, Germany"}
{"timestamp":"2016-10-09T11:55:00+0200","id":124019,"name":"Valentin","coordinate":{"longitude":11.58510017,"latitude":48.12390137},"fuelLevel":0.87,"lastAddress":"Hochstraße 47A, 81541 München, Germany"}
{"timestamp":"2016-10-09T11:55:00+0200","id":124035,"name":"Leonie","coordinate":{"longitude":11.58670044,"latitude":48.12950134},"fuelLevel":0.7899999999999999,"lastAddress":"Lilienstraße 47, 81669 München, Germany"}
{"timestamp":"2016-10-09T11:55:00+0200","id":124020,"name":"Vinzenz","coordinate":{"longitude":11.5777998,"latitude":48.12310028},"fuelLevel":0.8999999999999999,"lastAddress":"Schlotthauerstraße 14, 81541 München, Germany"}
{"timestamp":"2016-10-09T11:55:00+0200","id":124049,"name":"Marei","coordinate":{"longitude":11.57199955,"latitude":48.1208992},"fuelLevel":0.52,"lastAddress":"Humboldtstraße 3, 81543 München, Germany"}
{"timestamp":"2016-10-09T11:55:00+0200","id":124045,"name":"Vroni","coordinate":{"longitude":11.56770039,"latitude":48.13190079},"fuelLevel":0.71,"lastAddress":"Pestalozzistraße 3A, 80469 München, Germany"}
{"timestamp":"2016-10-09T11:55:00+0200","id":124018,"name":"Toni","coordinate":{"longitude":11.57019997,"latitude":48.13059998},"fuelLevel":0.9199999999999999,"lastAddress":"Hans-Sachs-Straße 2, 80469 München, Germany"}
{"timestamp":"2016-10-09T11:55:00+0200","id":124004,"name":"Fridl","coordinate":{"longitude":11.56569958,"latitude":48.15660095},"fuelLevel":0.55,"lastAddress":"Hiltenspergerstraße 15, 80798 München, Germany"}
{"timestamp":"2016-10-09T11:55:00+0200","id":124047,"name":"Walli","coordinate":{"longitude":11.57040024,"latitude":48.1495018},"fuelLevel":0.71,"lastAddress":"Theresienstraße, 80333 München, Germany"}
{"timestamp":"2016-10-09T11:55:00+0200","id":124002,"name":"Ferdl","coordinate":{"longitude":11.5618,"latitude":48.1493988},"fuelLevel":0.63,"lastAddress":"Gabelsbergerstraße 48, 80333 München, Germany"}
{"timestamp":"2016-10-09T11:55:00+0200","id":124048,"name":"Wiggerl","coordinate":{"longitude":11.57900047,"latitude":48.16180038},"fuelLevel":0.68,"lastAddress":"Viktor-Scheffel-Straße 3, 80803 München, Germany"}
{"timestamp":"2016-10-09T11:55:00+0200","id":124028,"name":"Gitte","coordinate":{"longitude":11.57730007,"latitude":48.16019821},"fuelLevel":0.75,"lastAddress":"Hohenzollernstraße 70, 80801 München, Germany"}
{"timestamp":"2016-10-09T11:55:00+0200","id":124027,"name":"Fanni","coordinate":{"longitude":11.57769966,"latitude":48.1590004},"fuelLevel":0.7899999999999999,"lastAddress":"Ainmillerstraße 40, 80801 München, Germany"}
{"timestamp":"2016-10-09T11:55:00+0200","id":124005,"name":"Georg","coordinate":{"longitude":11.57559967,"latitude":48.16189957},"fuelLevel":0.56,"lastAddress":"Viktor-Scheffel-Straße 19, 80803 München, Germany"}
{"timestamp":"2016-10-09T11:55:00+0200","id":124001,"name":"Edmund","coordinate":{"longitude":11.57870007,"latitude":48.15800095},"fuelLevel":0.5700000000000001,"lastAddress":"Franz-Joseph-Straße 30, 80801 München, Germany"}
{"timestamp":"2016-10-09T11:55:00+0200","id":124032,"name":"Irmi","coordinate":{"longitude":11.57310009,"latitude":48.16030121},"fuelLevel":0.64,"lastAddress":"Isabellastraße 49, 80796 München, Germany"}
{"timestamp":"2016-10-09T11:55:00+0200","id":124037,"name":"Luise","coordinate":{"longitude":11.57019997,"latitude":48.15750122},"fuelLevel":0.52,"lastAddress":"Agnesstraße 14, 80798 München, Germany"}
{"timestamp":"2016-10-09T11:55:00+0200","id":124017,"name":"Siggi","coordinate":{"longitude":11.57089996,"latitude":48.1609993},"fuelLevel":0.56,"lastAddress":"Hohenzollernstraße 112, 80796 München, Germany"}
{"timestamp":"2016-10-09T11:55:00+0200","id":124029,"name":"Hannah","coordinate":{"longitude":11.51019955,"latitude":48.04550171},"fuelLevel":0.7,"lastAddress":"Gistlstraße 159, 82049 Pullach im Isartal, Germany"}
{"timestamp":"2016-10-09T11:55:00+0200","id":124008,"name":"Johann","coordinate":{"longitude":11.50949955,"latitude":48.04539871},"fuelLevel":0.87,"lastAddress":"Seitnerstraße 70, 82049 Pullach im Isartal, Germany"}
{"timestamp":"2016-10-09T11:55:00+0200","id":124039,"name":"Marie","coordinate":{"longitude":11.50969982,"latitude":48.04550171},"fuelLevel":0.58,"lastAddress":"Seitnerstraße 70, 82049 Pullach im Isartal, Germany"}
{"timestamp":"2016-10-09T11:55:00+0200","id":124009,"name":"Ludwig","coordinate":{"longitude":11.58469963,"latitude":48.16260147},"fuelLevel":0.8999999999999999,"lastAddress":"Siegfriedstraße 5, 80803 München, Germany"}
{"timestamp":"2016-10-09T11:55:00+0200","id":124007,"name":"Jakob","coordinate":{"longitude":11.57450008,"latitude":48.16719818},"fuelLevel":0.88,"lastAddress":"Karl-Theodor-Straße 82, 80803 München, Germany"}