{"timestamp":"2016-11-19T01:25:00+0100","id":124041,"name":"Sophie","coordinate":{"longitude":11.57891846,"latitude":48.15299988},"fuelLevel":0.5599999999999999,"lastAddress":"Akademiestraße 2, 80799 München, Germany"}
{"timestamp":"2016-11-19T01:25:00+0100","id":124026,"name":"Eva","coordinate":{"longitude":11.58131409,"latitude":48.15242004},"fuelLevel":0.75,"lastAddress":"Akademiestraße 3, 80799 München, Germany"}
{"timestamp":"2016-11-19T01:25:00+0100","id":124025,"name":"Elli","coordinate":{"longitude":11.58131409,"latitude":48.15249634},"fuelLevel":0.8900000000000001,"lastAddress":"Akademiestraße 3, 80799 München, Germany"}
{"timestamp":"2016-11-19T01:25:00+0100","id":124024,"name":"Christl","coordinate":{"longitude":11.57699585,"latitude":48.13279724},"fuelLevel":0.6499999999999999,"lastAddress":"Buttermelcherstraße 4, 80469 München, Germany"}
{"timestamp":"2016-11-19T01:25:00+0100","id":124040,"name":"Reserl","coordinate":{"longitude":11.58169556,"latitude":48.13078308},"fuelLevel":0.86,"lastAddress":"Erhardtstraße 27, 80469 München, Germany"}
{"timestamp":"2016-11-19T01:25:00+0100","id":124021,"name":"Xaver","coordinate":{"longitude":11.58190918,"latitude":48.13108826},"fuelLevel":0.8,"lastAddress":"Kohlstraße 11, 80469 München, Germany"}
{"timestamp":"2016-11-19T01:25:00+0100","id":124014,"name":"Quirin","coordinate":{"longitude":11.59919739,"latitude":48.13598633},"fuelLevel":0.6527777777777778,"lastAddress":"Einsteinstraße 3, 81675 München, Germany"}
{"timestamp":"2016-11-19T01:25:00+0100","id":124034,"name":"Kathi","coordinate":{"longitude":11.60379028,"latitude":48.13038635},"fuelLevel":0.84,"lastAddress":"Breisacher Str. 12, 81667 München, Germany"}
{"timestamp":"2016-11-19T01:25:00+0100","id":124030,"name":"Hedwig","coordinate":{"longitude":11.5621109,"latitude":48.12917709},"fuelLevel":0.8541666666666666,"lastAddress":"Maistraße 31, 80337 München, Germany"}
{"timestamp":"2016-11-19T01:25:00+0100","id":124023,"name":"Babsi","coordinate":{"longitude":11.56660461,"latitude":48.13188171},"fuelLevel":0.62,"lastAddress":"Thalkirchner Str. 12, 80337 München, Germany"}
{"timestamp":"2016-11-19T01:25:00+0100","id":124022,"name":"Anne","coordinate":{"longitude":11.60169983,"latitude":48.12716675},"fuelLevel":0.7899999999999999,"lastAddress":"Orleansstraße 39, 81667 München, Germany"}
{"timestamp":"2016-11-19T01:25:00+0100","id":124000,"name":"Bertl","coordinate":{"longitude":11.59692383,"latitude":48.12799072},"fuelLevel":0.55,"lastAddress":"Lothringer Str. 4, 81667 München, Germany"}
{"timestamp":"2016-11-19T01:25:00+0100","id":124013,"name":"Poldi","coordinate":{"longitude":11.58958435,"latitude":48.12496948},"fuelLevel":0.79,"lastAddress":"Franziskanerstraße 47, 81669 München, Germany"}
{"timestamp":"2016-11-19T01:25:00+0100","id":124003,"name":"Franzl","coordinate":{"longitude":11.58813477,"latitude":48.12547302},"fuelLevel":0.7200000000000001,"lastAddress":"Gebsattelstraße 16, 81541 München, Germany"}
{"timestamp":"2016-11-19T01:25:00+0100","id":124010,"name":"Luitpold","coordinate":{"longitude":11.5881958,"latitude":48.12860107},"fuelLevel":0.58,"lastAddress":"Hochstraße 15, 81669 München, Germany"}
{"timestamp":"2016-11-19T01:25:00+0100","id":124019,"name":"Valentin","coordinate":{"longitude":11.58201599,"latitude":48.1210022},"fuelLevel":0.64,"lastAddress":"Hochstraße 81, 81541 München, Germany"}
{"timestamp":"2016-11-19T01:25:00+0100","id":124035,"name":"Leonie","coordinate":{"longitude":11.58349609,"latitude":48.12768555},"fuelLevel":0.87,"lastAddress":"Zeppelinstraße 39, 81669 München, Germany"}
{"timestamp":"2016-11-19T01:25:00+0100","id":124006,"name":"Gustl","coordinate":{"longitude":11.57575989,"latitude":48.12101746},"fuelLevel":0.86,"lastAddress":"Kolumbusstraße 20A, 81543 München, Germany"}
{"timestamp":"2016-11-19T01:25:00+0100","id":124020,"name":"Vinzenz","coordinate":{"longitude":11.57878113,"latitude":48.12347412},"fuelLevel":0.88,"lastAddress":"Albanistraße 17, 81541 München, Germany"}
{"timestamp":"2016-11-19T01:25:00+0100","id":124049,"name":"Marei","coordinate":{"longitude":11.57879639,"latitude":48.12339783},"fuelLevel":0.9099999999999999,"lastAddress":"Albanistraße 17, 81541 München, Germany"}
{"timestamp":"2016-11-19T01:25:00+0100","id":124045,"name":"Vroni","coordinate":{"longitude":11.56680298,"latitude":48.12680054},"fuelLevel":0.84,"lastAddress":"Holzstraße 51, 80469 München, Germany"}
{"timestamp":"2016-11-19T01:25:00+0100","id":124018,"name":"Toni","coordinate":{"longitude":11.56912231,"latitude":48.12400818},"fuelLevel":0.56,"lastAddress":"Wittelsbacherstraße 10-11, 80469 München, Germany"}
{"timestamp":"2016-11-19T01:25:00+0100","id":124012,"name":"Peter","coordinate":{"longitude":11.55992126,"latitude":48.15501404},"fuelLevel":0.6,"lastAddress":"Schellingstraße 138, 80797 München, Germany"}
{"timestamp":"2016-11-19T01:25:00+0100","id":124004,"name":"Fridl","coordinate":{"longitude":11.55909729,"latitude":48.15388489},"fuelLevel":0.88,"lastAddress":"Heßstraße 79, 80797 München, Germany"}
{"timestamp":"2016-11-19T01:25:00+0100","id":124031,"name":"Heidi","coordinate":{"longitude":11.56820679,"latitude":48.15010071},"fuelLevel":0.8,"lastAddress":"Theresienstraße 90, 80333 München, Germany"}
{"timestamp":"2016-11-19T01:25:00+0100","id":124047,"name":"Walli","coordinate":{"longitude":11.56721497,"latitude":48.15078735},"fuelLevel":0.75,"lastAddress":"Luisenstraße 63, 80798 München, Germany"}
{"timestamp":"2016-11-19T01:25:00+0100","id":124002,"name":"Ferdl","coordinate":{"longitude":11.56399536,"latitude":48.15029907},"fuelLevel":0.8999999999999999,"lastAddress":"Augustenstraße 76, 80333 München, Germany"}
{"timestamp":"2016-11-19T01:25:00+0100","id":124048,"name":"Wiggerl","coordinate":{"longitude":11.57740784,"latitude":48.15898132},"fuelLevel":0.8,"lastAddress":"Ainmillerstraße 33, 80801 München, Germany"}
{"timestamp":"2016-11-19T01:25:00+0100","id":124028,"name":"Gitte","coordinate":{"longitude":11.57919312,"latitude":48.15789795},"fuelLevel":0.9099999999999999,"lastAddress":"Franz-Joseph-Straße 28, 80801 München, Germany"}
{"timestamp":"2016-11-19T01:25:00+0100","id":124027,"name":"Fanni","coordinate":{"longitude":11.58340454,"latitude":48.16091919},"fuelLevel":0.8800000000000001,"lastAddress":"Kaiserstraße 22, 80801 München, Germany"}
{"timestamp":"2016-11-19T01:25:00+0100","id":124001,"name":"Edmund","coordinate":{"longitude":11.57981873,"latitude":48.16131592},"fuelLevel":0.5599999999999999,"lastAddress":"Kaiserpl. 13, 80803 München, Germany"}
{"timestamp":"2016-11-19T01:25:00+0100","id":124032,"name":"Irmi","coordinate":{"longitude":11.57260132,"latitude":48.15809631},"fuelLevel":0.89,"lastAddress":"Elisabethstraße 10, 80796 München, Germany"}
{"timestamp":"2016-11-19T01:25:00+0100","id":124037,"name":"Luise","coordinate":{"longitude":11.5664978,"latitude":48.15708923},"fuelLevel":0.59,"lastAddress":"Georgenstraße 114, 80798 München, Germany"}
{"timestamp":"2016-11-19T01:25:00+0100","id":124017,"name":"Siggi","coordinate":{"longitude":11.56904602,"latitude":48.15939331},"fuelLevel":0.64,"lastAddress":"Tengstraße 31, 80796 München, Germany"}
{"timestamp":"2016-11-19T01:25:00+0100","id":124029,"name":"Hannah","coordinate":{"longitude":11.50959778,"latitude":48.04550171},"fuelLevel":0.89,"lastAddress":"Seitnerstraße 70, 82049 Pullach im Isartal, Germany"}
{"timestamp":"2016-11-19T01:25:00+0100","id":124008,"name":"Johann","coordinate":{"longitude":11.50949097,"latitude":48.04548645},"fuelLevel":0.81,"lastAddress":"Seitnerstraße 70, 82049 Pullach im Isartal, Germany"}
{"timestamp":"2016-11-19T01:25:00+0100","id":124039,"name":"Marie","coordinate":{"longitude":11.50570011,"latitude":48.04430008},"fuelLevel":0.7569444444444444,"lastAddress":"Wolfratshauser Str. 138, 82049 Pullach im Isartal, Germany"}
{"timestamp":"2016-11-19T01:25:00+0100","id":124009,"name":"Ludwig","coordinate":{"longitude":11.58140564,"latitude":48.16639709},"fuelLevel":0.89,"lastAddress":"Karl-Theodor-Straße 44, 80803 München, Germany"}
{"timestamp":"2016-11-19T01:25:00+0100","id":124007,"name":"Jakob","coordinate":{"longitude":11.57408142,"latitude":48.16430664},"fuelLevel":0.84,"lastAddress":"Belgradstraße 37, 80796 München, Germany"}