{"timestamp":"2016-10-07T13:10:00+0200","id":124041,"name":"Sophie","coordinate":{"longitude":11.57789993,"latitude":48.15010071},"fuelLevel":0.9400000000000001,"lastAddress":"Amalienstraße 61, 80799 München, Germany"}
{"timestamp":"2016-10-07T13:10:00+0200","id":124026,"name":"Eva","coordinate":{"longitude":11.57830048,"latitude":48.15359879},"fuelLevel":0.61,"lastAddress":"Türkenstraße 95, 80799 München, Germany"}
{"timestamp":"2016-10-07T13:10:00+0200","id":124025,"name":"Elli","coordinate":{"longitude":11.5763998,"latitude":48.15769958},"fuelLevel":0.9,"lastAddress":"Franz-Joseph-Straße 41-43, 80801 München, Germany"}
{"timestamp":"2016-10-07T13:10:00+0200","id":124033,"name":"Johanna","coordinate":{"longitude":11.58160019,"latitude":48.15140152},"fuelLevel":0.82,"lastAddress":"Ludwigstraße 29, 80539 München, Germany"}
{"timestamp":"2016-10-07T13:10:00+0200","id":124044,"name":"Uschi","coordinate":{"longitude":11.57240009,"latitude":48.13190079},"fuelLevel":0.9199999999999999,"lastAddress":"Müllerstraße 20, 80469 München, Germany"}
{"timestamp":"2016-10-07T13:10:00+0200","id":124024,"name":"Christl","coordinate":{"longitude":11.57960033,"latitude":48.13399887},"fuelLevel":0.8,"lastAddress":"Zwingerstraße, 80469 München, Germany"}
{"timestamp":"2016-10-07T13:10:00+0200","id":124040,"name":"Reserl","coordinate":{"longitude":11.57199955,"latitude":48.13169861},"fuelLevel":0.83,"lastAddress":"Müllerstraße 24, 80469 München, Germany"}
{"timestamp":"2016-10-07T13:10:00+0200","id":124021,"name":"Xaver","coordinate":{"longitude":11.58170033,"latitude":48.13069916},"fuelLevel":0.9500000000000001,"lastAddress":"Erhardtstraße 27, 80469 München, Germany"}
{"timestamp":"2016-10-07T13:10:00+0200","id":124014,"name":"Quirin","coordinate":{"longitude":11.60490036,"latitude":48.13240051},"fuelLevel":0.6000000000000001,"lastAddress":"Elsässer Str. 6, 81667 München, Germany"}
{"timestamp":"2016-10-07T13:10:00+0200","id":124034,"name":"Kathi","coordinate":{"longitude":11.60529995,"latitude":48.13219833},"fuelLevel":0.66,"lastAddress":"Spicherenstraße 1, 81667 München, Germany"}
{"timestamp":"2016-10-07T13:10:00+0200","id":124016,"name":"Sepp","coordinate":{"longitude":11.59829998,"latitude":48.1257019},"fuelLevel":0.9299999999999999,"lastAddress":"Rosenheimer Str. 100, 81669 München, Germany"}
{"timestamp":"2016-10-07T13:10:00+0200","id":124038,"name":"Magda","coordinate":{"longitude":11.60039997,"latitude":48.12870026},"fuelLevel":0.67,"lastAddress":"Pariser Str. 31, 81667 München, Germany"}
{"timestamp":"2016-10-07T13:10:00+0200","id":124022,"name":"Anne","coordinate":{"longitude":11.59459972,"latitude":48.12799835},"fuelLevel":0.86,"lastAddress":"Rosenheimer Str. 62, 81669 München, Germany"}
{"timestamp":"2016-10-07T13:10:00+0200","id":124000,"name":"Bertl","coordinate":{"longitude":11.59459972,"latitude":48.12810135},"fuelLevel":0.82,"lastAddress":"Rosenheimer Str. 62, 81669 München, Germany"}
{"timestamp":"2016-10-07T13:10:00+0200","id":124013,"name":"Poldi","coordinate":{"longitude":11.59430027,"latitude":48.12760162},"fuelLevel":0.79,"lastAddress":"Balanstraße 6A, 81669 München, Germany"}
{"timestamp":"2016-10-07T13:10:00+0200","id":124011,"name":"Maxl","coordinate":{"longitude":11.59290028,"latitude":48.12580109},"fuelLevel":0.73,"lastAddress":"Sieboldstraße 5, 81669 München, Germany"}
{"timestamp":"2016-10-07T13:10:00+0200","id":124003,"name":"Franzl","coordinate":{"longitude":11.59280014,"latitude":48.12739944},"fuelLevel":0.8,"lastAddress":"Franziskanerstraße 8, 81669 München, Germany"}
{"timestamp":"2016-10-07T13:10:00+0200","id":124010,"name":"Luitpold","coordinate":{"longitude":11.58440018,"latitude":48.12760162},"fuelLevel":0.9500000000000001,"lastAddress":"Lilienstraße 66, 81669 München, Germany"}
{"timestamp":"2016-10-07T13:10:00+0200","id":124019,"name":"Valentin","coordinate":{"longitude":11.58530045,"latitude":48.12390137},"fuelLevel":0.87,"lastAddress":"Hochstraße 47A, 81541 München, Germany"}
{"timestamp":"2016-10-07T13:10:00+0200","id":124035,"name":"Leonie","coordinate":{"longitude":11.58679962,"latitude":48.12919998},"fuelLevel":0.7899999999999999,"lastAddress":"Paulanerpl. 1, 81669 München, Germany"}
{"timestamp":"2016-10-07T13:10:00+0200","id":124006,"name":"Gustl","coordinate":{"longitude":11.57769966,"latitude":48.12099838},"fuelLevel":0.9400000000000001,"lastAddress":"Falkenstraße 44, 81541 München, Germany"}
{"timestamp":"2016-10-07T13:10:00+0200","id":124020,"name":"Vinzenz","coordinate":{"longitude":11.57689953,"latitude":48.12450027},"fuelLevel":0.8999999999999999,"lastAddress":"Albanistraße 3, 81541 München, Germany"}
{"timestamp":"2016-10-07T13:10:00+0200","id":124049,"name":"Marei","coordinate":{"longitude":11.57460022,"latitude":48.11989975},"fuelLevel":0.69,"lastAddress":"Humboldtstraße 25, 81543 München, Germany"}
{"timestamp":"2016-10-07T13:10:00+0200","id":124045,"name":"Vroni","coordinate":{"longitude":11.56709957,"latitude":48.12770081},"fuelLevel":0.9199999999999999,"lastAddress":"Pestalozzistraße 56, 80469 München, Germany"}
{"timestamp":"2016-10-07T13:10:00+0200","id":124018,"name":"Toni","coordinate":{"longitude":11.57009983,"latitude":48.13100052},"fuelLevel":0.9199999999999999,"lastAddress":"Angertorstraße 7, 80469 München, Germany"}
{"timestamp":"2016-10-07T13:10:00+0200","id":124012,"name":"Peter","coordinate":{"longitude":11.57269955,"latitude":48.14979935},"fuelLevel":1,"lastAddress":"Barer Str. 48, 80799 München, Germany"}
{"timestamp":"2016-10-07T13:10:00+0200","id":124004,"name":"Fridl","coordinate":{"longitude":11.56589985,"latitude":48.15650177},"fuelLevel":0.55,"lastAddress":"Hiltenspergerstraße 8/I, 80798 München, Germany"}
{"timestamp":"2016-10-07T13:10:00+0200","id":124047,"name":"Walli","coordinate":{"longitude":11.56980038,"latitude":48.15060043},"fuelLevel":0.83,"lastAddress":"Arcisstraße 31, 80799 München, Germany"}
{"timestamp":"2016-10-07T13:10:00+0200","id":124002,"name":"Ferdl","coordinate":{"longitude":11.56459999,"latitude":48.15190125},"fuelLevel":0.9500000000000001,"lastAddress":"Augustenstraße 91, 80798 München, Germany"}
{"timestamp":"2016-10-07T13:10:00+0200","id":124048,"name":"Wiggerl","coordinate":{"longitude":11.57909966,"latitude":48.1609993},"fuelLevel":0.68,"lastAddress":"Kaiserstraße 45, 80801 München, Germany"}
{"timestamp":"2016-10-07T13:10:00+0200","id":124028,"name":"Gitte","coordinate":{"longitude":11.57730007,"latitude":48.16009903},"fuelLevel":0.75,"lastAddress":"Römerstraße 17, 80801 München, Germany"}
{"timestamp":"2016-10-07T13:10:00+0200","id":124027,"name":"Fanni","coordinate":{"longitude":11.5777998,"latitude":48.1590004},"fuelLevel":0.7899999999999999,"lastAddress":"Ainmillerstraße 40, 80801 München, Germany"}
{"timestamp":"2016-10-07T13:10:00+0200","id":124005,"name":"Georg","coordinate":{"longitude":11.58170033,"latitude":48.15879822},"fuelLevel":0.66,"lastAddress":"Ainmillerstraße 18, 80801 München, Germany"}
{"timestamp":"2016-10-07T13:10:00+0200","id":124001,"name":"Edmund","coordinate":{"longitude":11.57929993,"latitude":48.15739822},"fuelLevel":0.5700000000000001,"lastAddress":"Friedrichstraße 19, 80801 München, Germany"}
{"timestamp":"2016-10-07T13:10:00+0200","id":124032,"name":"Irmi","coordinate":{"longitude":11.57320023,"latitude":48.16049957},"fuelLevel":0.64,"lastAddress":"Hohenzollernstraße 65, 80796 München, Germany"}
{"timestamp":"2016-10-07T13:10:00+0200","id":124037,"name":"Luise","coordinate":{"longitude":11.56659985,"latitude":48.15769958},"fuelLevel":0.58,"lastAddress":"Agnesstraße 35, 80798 München, Germany"}
{"timestamp":"2016-10-07T13:10:00+0200","id":124017,"name":"Siggi","coordinate":{"longitude":11.57089996,"latitude":48.16090012},"fuelLevel":0.56,"lastAddress":"Hohenzollernstraße 112, 80796 München, Germany"}
{"timestamp":"2016-10-07T13:10:00+0200","id":124029,"name":"Hannah","coordinate":{"longitude":11.51029968,"latitude":48.04550171},"fuelLevel":0.7,"lastAddress":"Gistlstraße 159, 82049 Pullach im Isartal, Germany"}
{"timestamp":"2016-10-07T13:10:00+0200","id":124008,"name":"Johann","coordinate":{"longitude":11.50969982,"latitude":48.04560089},"fuelLevel":0.87,"lastAddress":"Seitnerstraße 70, 82049 Pullach im Isartal, Germany"}
{"timestamp":"2016-10-07T13:10:00+0200","id":124039,"name":"Marie","coordinate":{"longitude":11.50949955,"latitude":48.04550171},"fuelLevel":0.58,"lastAddress":"Seitnerstraße 70, 82049 Pullach im Isartal, Germany"}
{"timestamp":"2016-10-07T13:10:00+0200","id":124009,"name":"Ludwig","coordinate":{"longitude":11.58500004,"latitude":48.16180038},"fuelLevel":0.8999999999999999,"lastAddress":"Herzogstraße 3, 80803 München, Germany"}
{"timestamp":"2016-10-07T13:10:00+0200","id":124007,"name":"Jakob","coordinate":{"longitude":11.57470036,"latitude":48.16730118},"fuelLevel":0.9400000000000001,"lastAddress":"Karl-Theodor-Straße 82, 80803 München, Germany"}