{"timestamp":"2016-10-06T17:45:00+0200","id":124041,"name":"Sophie","coordinate":{"longitude":11.57759953,"latitude":48.14960098},"fuelLevel":0.93,"lastAddress":"Schellingstraße 11, 80799 München, Germany"}
{"timestamp":"2016-10-06T17:45:00+0200","id":124026,"name":"Eva","coordinate":{"longitude":11.57820034,"latitude":48.15359879},"fuelLevel":0.61,"lastAddress":"Türkenstraße 95, 80799 München, Germany"}
{"timestamp":"2016-10-06T17:45:00+0200","id":124025,"name":"Elli","coordinate":{"longitude":11.57610035,"latitude":48.1576004},"fuelLevel":0.9,"lastAddress":"Franz-Joseph-Straße 43, 80801 München, Germany"}
{"timestamp":"2016-10-06T17:45:00+0200","id":124033,"name":"Johanna","coordinate":{"longitude":11.58180046,"latitude":48.1515007},"fuelLevel":0.82,"lastAddress":"Ludwigstraße 28, 80539 München, Germany"}
{"timestamp":"2016-10-06T17:45:00+0200","id":124036,"name":"Liesel","coordinate":{"longitude":11.57520008,"latitude":48.15629959},"fuelLevel":0.6699999999999999,"lastAddress":"Nordendstraße 36, 80801 München, Germany"}
{"timestamp":"2016-10-06T17:45:00+0200","id":124044,"name":"Uschi","coordinate":{"longitude":11.57250023,"latitude":48.13199997},"fuelLevel":0.9199999999999999,"lastAddress":"Müllerstraße 20, 80469 München, Germany"}
{"timestamp":"2016-10-06T17:45:00+0200","id":124024,"name":"Christl","coordinate":{"longitude":11.57970047,"latitude":48.13370132},"fuelLevel":0.8,"lastAddress":"Klenzestraße 1A, 80469 München, Germany"}
{"timestamp":"2016-10-06T17:45:00+0200","id":124040,"name":"Reserl","coordinate":{"longitude":11.57199955,"latitude":48.13169861},"fuelLevel":0.83,"lastAddress":"Müllerstraße 24, 80469 München, Germany"}
{"timestamp":"2016-10-06T17:45:00+0200","id":124021,"name":"Xaver","coordinate":{"longitude":11.58170033,"latitude":48.13069916},"fuelLevel":0.9500000000000001,"lastAddress":"Erhardtstraße 27, 80469 München, Germany"}
{"timestamp":"2016-10-06T17:45:00+0200","id":124014,"name":"Quirin","coordinate":{"longitude":11.60499954,"latitude":48.13249969},"fuelLevel":0.6000000000000001,"lastAddress":"Elsässer Str. 4, 81667 München, Germany"}
{"timestamp":"2016-10-06T17:45:00+0200","id":124034,"name":"Kathi","coordinate":{"longitude":11.60499954,"latitude":48.13249969},"fuelLevel":0.66,"lastAddress":"Elsässer Str. 4, 81667 München, Germany"}
{"timestamp":"2016-10-06T17:45:00+0200","id":124016,"name":"Sepp","coordinate":{"longitude":11.59840012,"latitude":48.12580109},"fuelLevel":0.9299999999999999,"lastAddress":"Rosenheimer Str. 100, 81669 München, Germany"}
{"timestamp":"2016-10-06T17:45:00+0200","id":124038,"name":"Magda","coordinate":{"longitude":11.60000038,"latitude":48.12820053},"fuelLevel":0.67,"lastAddress":"Pariser Str. 38, 81667 München, Germany"}
{"timestamp":"2016-10-06T17:45:00+0200","id":124022,"name":"Anne","coordinate":{"longitude":11.5965004,"latitude":48.1269989},"fuelLevel":0.8800000000000001,"lastAddress":"Rosenheimer Str. 84, 81669 München, Germany"}
{"timestamp":"2016-10-06T17:45:00+0200","id":124000,"name":"Bertl","coordinate":{"longitude":11.59459972,"latitude":48.12810135},"fuelLevel":0.82,"lastAddress":"Rosenheimer Str. 62, 81669 München, Germany"}
{"timestamp":"2016-10-06T17:45:00+0200","id":124013,"name":"Poldi","coordinate":{"longitude":11.5948,"latitude":48.12779999},"fuelLevel":0.79,"lastAddress":"Metzstraße 1, 81667 München, Germany"}
{"timestamp":"2016-10-06T17:45:00+0200","id":124011,"name":"Maxl","coordinate":{"longitude":11.59319973,"latitude":48.12549973},"fuelLevel":0.73,"lastAddress":"Barnabasstraße 1, 81669 München, Germany"}
{"timestamp":"2016-10-06T17:45:00+0200","id":124003,"name":"Franzl","coordinate":{"longitude":11.5927,"latitude":48.12749863},"fuelLevel":0.8,"lastAddress":"Rablstraße 35, 81669 München, Germany"}
{"timestamp":"2016-10-06T17:45:00+0200","id":124010,"name":"Luitpold","coordinate":{"longitude":11.58450031,"latitude":48.12760162},"fuelLevel":0.9500000000000001,"lastAddress":"Lilienstraße 66, 81669 München, Germany"}
{"timestamp":"2016-10-06T17:45:00+0200","id":124019,"name":"Valentin","coordinate":{"longitude":11.58520031,"latitude":48.12369919},"fuelLevel":0.87,"lastAddress":"Hochstraße 49C, 81541 München, Germany"}
{"timestamp":"2016-10-06T17:45:00+0200","id":124035,"name":"Leonie","coordinate":{"longitude":11.5866003,"latitude":48.12929916},"fuelLevel":0.7899999999999999,"lastAddress":"Lilienstraße 49, 81669 München, Germany"}
{"timestamp":"2016-10-06T17:45:00+0200","id":124006,"name":"Gustl","coordinate":{"longitude":11.57830048,"latitude":48.1208992},"fuelLevel":0.9400000000000001,"lastAddress":"Dollmannstraße 1, 81541 München, Germany"}
{"timestamp":"2016-10-06T17:45:00+0200","id":124020,"name":"Vinzenz","coordinate":{"longitude":11.57689953,"latitude":48.12440109},"fuelLevel":0.8999999999999999,"lastAddress":"Albanistraße 5, 81541 München, Germany"}
{"timestamp":"2016-10-06T17:45:00+0200","id":124049,"name":"Marei","coordinate":{"longitude":11.57439995,"latitude":48.11970139},"fuelLevel":0.69,"lastAddress":"Humboldtstraße 28, 81543 München, Germany"}
{"timestamp":"2016-10-06T17:45:00+0200","id":124045,"name":"Vroni","coordinate":{"longitude":11.56799984,"latitude":48.12739944},"fuelLevel":0.9199999999999999,"lastAddress":"Holzstraße 49A, 80469 München, Germany"}
{"timestamp":"2016-10-06T17:45:00+0200","id":124018,"name":"Toni","coordinate":{"longitude":11.56999969,"latitude":48.13090134},"fuelLevel":0.9199999999999999,"lastAddress":"Müllerstraße 31, 80469 München, Germany"}
{"timestamp":"2016-10-06T17:45:00+0200","id":124012,"name":"Peter","coordinate":{"longitude":11.57229996,"latitude":48.14979935},"fuelLevel":1,"lastAddress":"Barer Str. 29, 80799 München, Germany"}
{"timestamp":"2016-10-06T17:45:00+0200","id":124004,"name":"Fridl","coordinate":{"longitude":11.56630039,"latitude":48.15639877},"fuelLevel":0.55,"lastAddress":"Hiltenspergerstraße 6, 80798 München, Germany"}
{"timestamp":"2016-10-06T17:45:00+0200","id":124031,"name":"Heidi","coordinate":{"longitude":11.56649971,"latitude":48.15019989},"fuelLevel":0.8,"lastAddress":"Theresienstraße 43, 80333 München, Germany"}
{"timestamp":"2016-10-06T17:45:00+0200","id":124047,"name":"Walli","coordinate":{"longitude":11.56989956,"latitude":48.15069962},"fuelLevel":0.83,"lastAddress":"Arcisstraße 31, 80799 München, Germany"}
{"timestamp":"2016-10-06T17:45:00+0200","id":124002,"name":"Ferdl","coordinate":{"longitude":11.56480026,"latitude":48.15190125},"fuelLevel":0.9500000000000001,"lastAddress":"Augustenstraße 92, 80798 München, Germany"}
{"timestamp":"2016-10-06T17:45:00+0200","id":124048,"name":"Wiggerl","coordinate":{"longitude":11.57890034,"latitude":48.16139984},"fuelLevel":0.68,"lastAddress":"Kaiserstraße 36, 80801 München, Germany"}
{"timestamp":"2016-10-06T17:45:00+0200","id":124028,"name":"Gitte","coordinate":{"longitude":11.57740021,"latitude":48.16040039},"fuelLevel":0.75,"lastAddress":"Römerstraße 21, 80801 München, Germany"}
{"timestamp":"2016-10-06T17:45:00+0200","id":124027,"name":"Fanni","coordinate":{"longitude":11.57759953,"latitude":48.15890121},"fuelLevel":0.7899999999999999,"lastAddress":"Ainmillerstraße 33, 80801 München, Germany"}
{"timestamp":"2016-10-06T17:45:00+0200","id":124005,"name":"Georg","coordinate":{"longitude":11.58150005,"latitude":48.15879822},"fuelLevel":0.66,"lastAddress":"Ainmillerstraße 20, 80801 München, Germany"}
{"timestamp":"2016-10-06T17:45:00+0200","id":124001,"name":"Edmund","coordinate":{"longitude":11.57919979,"latitude":48.15819931},"fuelLevel":0.5700000000000001,"lastAddress":"Franz-Joseph-Straße 28, 80801 München, Germany"}
{"timestamp":"2016-10-06T17:45:00+0200","id":124032,"name":"Irmi","coordinate":{"longitude":11.57289982,"latitude":48.16030121},"fuelLevel":0.64,"lastAddress":"Isabellastraße 49, 80796 München, Germany"}
{"timestamp":"2016-10-06T17:45:00+0200","id":124037,"name":"Luise","coordinate":{"longitude":11.56610012,"latitude":48.15800095},"fuelLevel":0.58,"lastAddress":"Agnesstraße 40, 80798 München, Germany"}
{"timestamp":"2016-10-06T17:45:00+0200","id":124017,"name":"Siggi","coordinate":{"longitude":11.57110023,"latitude":48.16080093},"fuelLevel":0.56,"lastAddress":"Hohenzollernstraße 112, 80796 München, Germany"}
{"timestamp":"2016-10-06T17:45:00+0200","id":124029,"name":"Hannah","coordinate":{"longitude":11.51039982,"latitude":48.04539871},"fuelLevel":0.7,"lastAddress":"Gistlstraße 159, 82049 Pullach im Isartal, Germany"}
{"timestamp":"2016-10-06T17:45:00+0200","id":124008,"name":"Johann","coordinate":{"longitude":11.50979996,"latitude":48.04539871},"fuelLevel":0.87,"lastAddress":"Seitnerstraße 70, 82049 Pullach im Isartal, Germany"}
{"timestamp":"2016-10-06T17:45:00+0200","id":124009,"name":"Ludwig","coordinate":{"longitude":11.58500004,"latitude":48.16239929},"fuelLevel":0.8999999999999999,"lastAddress":"Siegfriedstraße 3, 80803 München, Germany"}
{"timestamp":"2016-10-06T17:45:00+0200","id":124007,"name":"Jakob","coordinate":{"longitude":11.57499981,"latitude":48.16690063},"fuelLevel":0.9400000000000001,"lastAddress":"Karl-Theodor-Straße 75, 80803 München, Germany"}