{"timestamp":"2016-10-06T06:15:00+0200","id":124041,"name":"Sophie","coordinate":{"longitude":11.57769966,"latitude":48.15000153},"fuelLevel":0.93,"lastAddress":"Schellingstraße 18, 80799 München, Germany"}
{"timestamp":"2016-10-06T06:15:00+0200","id":124026,"name":"Eva","coordinate":{"longitude":11.57839966,"latitude":48.15370178},"fuelLevel":0.61,"lastAddress":"Türkenstraße 104, 80799 München, Germany"}
{"timestamp":"2016-10-06T06:15:00+0200","id":124033,"name":"Johanna","coordinate":{"longitude":11.58110046,"latitude":48.15200043},"fuelLevel":0.84,"lastAddress":"Adalbertstraße 10, 80799 München, Germany"}
{"timestamp":"2016-10-06T06:15:00+0200","id":124036,"name":"Liesel","coordinate":{"longitude":11.57509995,"latitude":48.15650177},"fuelLevel":0.6699999999999999,"lastAddress":"Nordendstraße 29, 80801 München, Germany"}
{"timestamp":"2016-10-06T06:15:00+0200","id":124044,"name":"Uschi","coordinate":{"longitude":11.57240009,"latitude":48.13219833},"fuelLevel":0.9199999999999999,"lastAddress":"Blumenstraße 19, 80331 München, Germany"}
{"timestamp":"2016-10-06T06:15:00+0200","id":124024,"name":"Christl","coordinate":{"longitude":11.5795002,"latitude":48.13349915},"fuelLevel":0.8,"lastAddress":"Klenzestraße 3, 80469 München, Germany"}
{"timestamp":"2016-10-06T06:15:00+0200","id":124040,"name":"Reserl","coordinate":{"longitude":11.57279968,"latitude":48.13219833},"fuelLevel":0.8999999999999999,"lastAddress":"Müllerstraße 18, 80469 München, Germany"}
{"timestamp":"2016-10-06T06:15:00+0200","id":124021,"name":"Xaver","coordinate":{"longitude":11.58160019,"latitude":48.13069916},"fuelLevel":0.9500000000000001,"lastAddress":"Erhardtstraße 27, 80469 München, Germany"}
{"timestamp":"2016-10-06T06:15:00+0200","id":124014,"name":"Quirin","coordinate":{"longitude":11.60830021,"latitude":48.13280106},"fuelLevel":0.63,"lastAddress":"Kirchenstraße 78-88, 81675 München, Germany"}
{"timestamp":"2016-10-06T06:15:00+0200","id":124030,"name":"Hedwig","coordinate":{"longitude":11.56340027,"latitude":48.12760162},"fuelLevel":0.9199999999999999,"lastAddress":"Thalkirchner Str. 56, 80337 München, Germany"}
{"timestamp":"2016-10-06T06:15:00+0200","id":124038,"name":"Magda","coordinate":{"longitude":11.60079956,"latitude":48.12939835},"fuelLevel":0.67,"lastAddress":"Wörthstraße 32, 81667 München, Germany"}
{"timestamp":"2016-10-06T06:15:00+0200","id":124022,"name":"Anne","coordinate":{"longitude":11.5965004,"latitude":48.12720108},"fuelLevel":0.8800000000000001,"lastAddress":"Rosenheimer Str. 87, 81667 München, Germany"}
{"timestamp":"2016-10-06T06:15:00+0200","id":124000,"name":"Bertl","coordinate":{"longitude":11.59689999,"latitude":48.12950134},"fuelLevel":0.82,"lastAddress":"Kellerstraße 34, 81667 München, Germany"}
{"timestamp":"2016-10-06T06:15:00+0200","id":124013,"name":"Poldi","coordinate":{"longitude":11.59430027,"latitude":48.12799835},"fuelLevel":0.79,"lastAddress":"Rosenheimer Pl. 2, 81669 München, Germany"}
{"timestamp":"2016-10-06T06:15:00+0200","id":124011,"name":"Maxl","coordinate":{"longitude":11.59329987,"latitude":48.12549973},"fuelLevel":0.7899999999999999,"lastAddress":"Barnabasstraße 1, 81669 München, Germany"}
{"timestamp":"2016-10-06T06:15:00+0200","id":124003,"name":"Franzl","coordinate":{"longitude":11.59300041,"latitude":48.12739944},"fuelLevel":0.8,"lastAddress":"Franziskanerstraße 8, 81669 München, Germany"}
{"timestamp":"2016-10-06T06:15:00+0200","id":124010,"name":"Luitpold","coordinate":{"longitude":11.58419991,"latitude":48.12799835},"fuelLevel":0.9500000000000001,"lastAddress":"Zeppelinstraße 47, 81669 München, Germany"}
{"timestamp":"2016-10-06T06:15:00+0200","id":124006,"name":"Gustl","coordinate":{"longitude":11.57699966,"latitude":48.1208992},"fuelLevel":0.9400000000000001,"lastAddress":"Falkenstraße 50, 81541 München, Germany"}
{"timestamp":"2016-10-06T06:15:00+0200","id":124020,"name":"Vinzenz","coordinate":{"longitude":11.57680035,"latitude":48.12419891},"fuelLevel":0.8999999999999999,"lastAddress":"Albanistraße 6, 81541 München, Germany"}
{"timestamp":"2016-10-06T06:15:00+0200","id":124049,"name":"Marei","coordinate":{"longitude":11.57419968,"latitude":48.11949921},"fuelLevel":0.69,"lastAddress":"Freibadstraße 25, 81543 München, Germany"}
{"timestamp":"2016-10-06T06:15:00+0200","id":124045,"name":"Vroni","coordinate":{"longitude":11.56719971,"latitude":48.12779999},"fuelLevel":0.9199999999999999,"lastAddress":"Pestalozzistraße 54, 80469 München, Germany"}
{"timestamp":"2016-10-06T06:15:00+0200","id":124018,"name":"Toni","coordinate":{"longitude":11.56970024,"latitude":48.13119888},"fuelLevel":0.9199999999999999,"lastAddress":"Müllerstraße 40, 80469 München, Germany"}
{"timestamp":"2016-10-06T06:15:00+0200","id":124012,"name":"Peter","coordinate":{"longitude":11.57229996,"latitude":48.15000153},"fuelLevel":1,"lastAddress":"Heßstraße 2, 80799 München, Germany"}
{"timestamp":"2016-10-06T06:15:00+0200","id":124004,"name":"Fridl","coordinate":{"longitude":11.56589985,"latitude":48.15670013},"fuelLevel":0.55,"lastAddress":"Hiltenspergerstraße 8/I, 80798 München, Germany"}
{"timestamp":"2016-10-06T06:15:00+0200","id":124031,"name":"Heidi","coordinate":{"longitude":11.56649971,"latitude":48.15000153},"fuelLevel":0.8,"lastAddress":"Luisenstraße 53, 80333 München, Germany"}
{"timestamp":"2016-10-06T06:15:00+0200","id":124002,"name":"Ferdl","coordinate":{"longitude":11.56480026,"latitude":48.15209961},"fuelLevel":0.9500000000000001,"lastAddress":"Augustenstraße 95, 80798 München, Germany"}
{"timestamp":"2016-10-06T06:15:00+0200","id":124048,"name":"Wiggerl","coordinate":{"longitude":11.5788002,"latitude":48.16109848},"fuelLevel":0.68,"lastAddress":"Kaiserstraße 47, 80801 München, Germany"}
{"timestamp":"2016-10-06T06:15:00+0200","id":124028,"name":"Gitte","coordinate":{"longitude":11.57759953,"latitude":48.15980148},"fuelLevel":0.75,"lastAddress":"Römerstraße 16, 80801 München, Germany"}
{"timestamp":"2016-10-06T06:15:00+0200","id":124027,"name":"Fanni","coordinate":{"longitude":11.57800007,"latitude":48.15859985},"fuelLevel":0.7899999999999999,"lastAddress":"Ainmillerstraße 31, 80801 München, Germany"}
{"timestamp":"2016-10-06T06:15:00+0200","id":124005,"name":"Georg","coordinate":{"longitude":11.58139992,"latitude":48.15850067},"fuelLevel":0.66,"lastAddress":"Ainmillerstraße 15, 80801 München, Germany"}
{"timestamp":"2016-10-06T06:15:00+0200","id":124032,"name":"Irmi","coordinate":{"longitude":11.57330036,"latitude":48.16030121},"fuelLevel":0.64,"lastAddress":"Isabellastraße 48, 80796 München, Germany"}
{"timestamp":"2016-10-06T06:15:00+0200","id":124037,"name":"Luise","coordinate":{"longitude":11.56639957,"latitude":48.15800095},"fuelLevel":0.58,"lastAddress":"Hiltenspergerstraße 18, 80798 München, Germany"}
{"timestamp":"2016-10-06T06:15:00+0200","id":124017,"name":"Siggi","coordinate":{"longitude":11.57079983,"latitude":48.16070175},"fuelLevel":0.56,"lastAddress":"Hohenzollernstraße 81, 80796 München, Germany"}
{"timestamp":"2016-10-06T06:15:00+0200","id":124029,"name":"Hannah","coordinate":{"longitude":11.51019955,"latitude":48.04539871},"fuelLevel":0.7,"lastAddress":"Gistlstraße 159, 82049 Pullach im Isartal, Germany"}
{"timestamp":"2016-10-06T06:15:00+0200","id":124008,"name":"Johann","coordinate":{"longitude":11.51000023,"latitude":48.04550171},"fuelLevel":0.87,"lastAddress":"Gistlstraße 159, 82049 Pullach im Isartal, Germany"}
{"timestamp":"2016-10-06T06:15:00+0200","id":124039,"name":"Marie","coordinate":{"longitude":11.50949955,"latitude":48.04550171},"fuelLevel":0.58,"lastAddress":"Seitnerstraße 70, 82049 Pullach im Isartal, Germany"}
{"timestamp":"2016-10-06T06:15:00+0200","id":124009,"name":"Ludwig","coordinate":{"longitude":11.5848999,"latitude":48.16199875},"fuelLevel":0.8999999999999999,"lastAddress":"Herzogstraße 3, 80803 München, Germany"}
{"timestamp":"2016-10-06T06:15:00+0200","id":124007,"name":"Jakob","coordinate":{"longitude":11.57509995,"latitude":48.16619873},"fuelLevel":0.9400000000000001,"lastAddress":"Degenfeldstraße 7, 80803 München, Germany"}