{"timestamp":"2016-09-29T10:20:00+0200","id":124041,"name":"Sophie","coordinate":{"longitude":11.57759953,"latitude":48.14960098},"fuelLevel":0.93,"lastAddress":"Schellingstraße 11, 80799 München, Germany"}
{"timestamp":"2016-09-29T10:20:00+0200","id":124026,"name":"Eva","coordinate":{"longitude":11.57839966,"latitude":48.1534996},"fuelLevel":0.61,"lastAddress":"Türkenstraße 93, 80799 München, Germany"}
{"timestamp":"2016-09-29T10:20:00+0200","id":124025,"name":"Elli","coordinate":{"longitude":11.5781002,"latitude":48.15309906},"fuelLevel":0.85,"lastAddress":"Akademiestraße 4-25, 80799 München, Germany"}
{"timestamp":"2016-09-29T10:20:00+0200","id":124033,"name":"Johanna","coordinate":{"longitude":11.57970047,"latitude":48.15650177},"fuelLevel":0.89,"lastAddress":"Friedrichstraße 13, 80801 München, Germany"}
{"timestamp":"2016-09-29T10:20:00+0200","id":124036,"name":"Liesel","coordinate":{"longitude":11.57509995,"latitude":48.15629959},"fuelLevel":0.6699999999999999,"lastAddress":"Nordendstraße 29, 80801 München, Germany"}
{"timestamp":"2016-09-29T10:20:00+0200","id":124044,"name":"Uschi","coordinate":{"longitude":11.57549953,"latitude":48.12990189},"fuelLevel":0.51,"lastAddress":"Reichenbachstraße 28, 80469 München, Germany"}
{"timestamp":"2016-09-29T10:20:00+0200","id":124024,"name":"Christl","coordinate":{"longitude":11.57759953,"latitude":48.13209915},"fuelLevel":0.8,"lastAddress":"Klenzestraße 25, 80469 München, Germany"}
{"timestamp":"2016-09-29T10:20:00+0200","id":124021,"name":"Xaver","coordinate":{"longitude":11.58090019,"latitude":48.13209915},"fuelLevel":0.52,"lastAddress":"Kohlstraße 3, 80469 München, Germany"}
{"timestamp":"2016-09-29T10:20:00+0200","id":124014,"name":"Quirin","coordinate":{"longitude":11.60910034,"latitude":48.12549973},"fuelLevel":0.62,"lastAddress":"Haager Str. 14, 81671 München, Germany"}
{"timestamp":"2016-09-29T10:20:00+0200","id":124034,"name":"Kathi","coordinate":{"longitude":11.60499954,"latitude":48.13219833},"fuelLevel":0.67,"lastAddress":"Elsässer Str. 16, 81667 München, Germany"}
{"timestamp":"2016-09-29T10:20:00+0200","id":124030,"name":"Hedwig","coordinate":{"longitude":11.56779957,"latitude":48.13100052},"fuelLevel":0.89,"lastAddress":"Pestalozzistraße 11, 80469 München, Germany"}
{"timestamp":"2016-09-29T10:20:00+0200","id":124023,"name":"Babsi","coordinate":{"longitude":11.5642004,"latitude":48.12739944},"fuelLevel":0.93,"lastAddress":"Thalkirchner Str. 52, 80337 München, Germany"}
{"timestamp":"2016-09-29T10:20:00+0200","id":124016,"name":"Sepp","coordinate":{"longitude":11.59869957,"latitude":48.12580109},"fuelLevel":0.9199999999999999,"lastAddress":"Rosenheimer Str. 125, 81667 München, Germany"}
{"timestamp":"2016-09-29T10:20:00+0200","id":124038,"name":"Magda","coordinate":{"longitude":11.60029984,"latitude":48.12810135},"fuelLevel":0.76,"lastAddress":"Gravelottestraße 1, 81667 München, Germany"}
{"timestamp":"2016-09-29T10:20:00+0200","id":124022,"name":"Anne","coordinate":{"longitude":11.59679985,"latitude":48.12670135},"fuelLevel":0.8900000000000001,"lastAddress":"Rosenheimer Str. 88, 81669 München, Germany"}
{"timestamp":"2016-09-29T10:20:00+0200","id":124000,"name":"Bertl","coordinate":{"longitude":11.59490013,"latitude":48.12960052},"fuelLevel":0.8500000000000001,"lastAddress":"Steinstraße 77, 81667 München, Germany"}
{"timestamp":"2016-09-29T10:20:00+0200","id":124013,"name":"Poldi","coordinate":{"longitude":11.5948,"latitude":48.12689972},"fuelLevel":0.83,"lastAddress":"Balanstraße 14, 81669 München, Germany"}
{"timestamp":"2016-09-29T10:20:00+0200","id":124011,"name":"Maxl","coordinate":{"longitude":11.59230042,"latitude":48.12630081},"fuelLevel":0.8099999999999999,"lastAddress":"Franziskanerstraße 14, 81669 München, Germany"}
{"timestamp":"2016-09-29T10:20:00+0200","id":124003,"name":"Franzl","coordinate":{"longitude":11.59280014,"latitude":48.12739944},"fuelLevel":0.79,"lastAddress":"Franziskanerstraße 8, 81669 München, Germany"}
{"timestamp":"2016-09-29T10:20:00+0200","id":124010,"name":"Luitpold","coordinate":{"longitude":11.58590031,"latitude":48.12580109},"fuelLevel":0.88,"lastAddress":"Gebsattelstraße 2, 81541 München, Germany"}
{"timestamp":"2016-09-29T10:20:00+0200","id":124019,"name":"Valentin","coordinate":{"longitude":11.58500004,"latitude":48.12340164},"fuelLevel":0.9199999999999999,"lastAddress":"Hochstraße 51, 81541 München, Germany"}
{"timestamp":"2016-09-29T10:20:00+0200","id":124035,"name":"Leonie","coordinate":{"longitude":11.5848999,"latitude":48.1283989},"fuelLevel":0.7899999999999999,"lastAddress":"Lilienstraße 48, 81669 München, Germany"}
{"timestamp":"2016-09-29T10:20:00+0200","id":124006,"name":"Gustl","coordinate":{"longitude":11.57719994,"latitude":48.12120056},"fuelLevel":0.93,"lastAddress":"Entenbachstraße 51, 81541 München, Germany"}
{"timestamp":"2016-09-29T10:20:00+0200","id":124020,"name":"Vinzenz","coordinate":{"longitude":11.5795002,"latitude":48.12310028},"fuelLevel":0.9299999999999999,"lastAddress":"Falkenstraße 18, 81541 München, Germany"}
{"timestamp":"2016-09-29T10:20:00+0200","id":124049,"name":"Marei","coordinate":{"longitude":11.57380009,"latitude":48.12039948},"fuelLevel":0.7200000000000001,"lastAddress":"Humboldtstraße 19, 81543 München, Germany"}
{"timestamp":"2016-09-29T10:20:00+0200","id":124045,"name":"Vroni","coordinate":{"longitude":11.56739998,"latitude":48.12749863},"fuelLevel":0.9199999999999999,"lastAddress":"Holzstraße 45, 80469 München, Germany"}
{"timestamp":"2016-09-29T10:20:00+0200","id":124018,"name":"Toni","coordinate":{"longitude":11.56900024,"latitude":48.12670135},"fuelLevel":0.9500000000000001,"lastAddress":"Jahnstraße 45, 80469 München, Germany"}
{"timestamp":"2016-09-29T10:20:00+0200","id":124031,"name":"Heidi","coordinate":{"longitude":11.56659985,"latitude":48.15110016},"fuelLevel":0.8,"lastAddress":"Luisenstraße 63A, 80798 München, Germany"}
{"timestamp":"2016-09-29T10:20:00+0200","id":124002,"name":"Ferdl","coordinate":{"longitude":11.56410027,"latitude":48.15110016},"fuelLevel":0.9500000000000001,"lastAddress":"Theresienstraße 63, 80333 München, Germany"}
{"timestamp":"2016-09-29T10:20:00+0200","id":124048,"name":"Wiggerl","coordinate":{"longitude":11.57719994,"latitude":48.15919876},"fuelLevel":0.7200000000000001,"lastAddress":"Römerstraße 9, 80801 München, Germany"}
{"timestamp":"2016-09-29T10:20:00+0200","id":124028,"name":"Gitte","coordinate":{"longitude":11.57970047,"latitude":48.1595993},"fuelLevel":0.77,"lastAddress":"Friedrichstraße 25, 80801 München, Germany"}
{"timestamp":"2016-09-29T10:20:00+0200","id":124027,"name":"Fanni","coordinate":{"longitude":11.57730007,"latitude":48.15950012},"fuelLevel":0.8099999999999999,"lastAddress":"Römerstraße 10-14, 80801 München, Germany"}
{"timestamp":"2016-09-29T10:20:00+0200","id":124005,"name":"Georg","coordinate":{"longitude":11.58119965,"latitude":48.15850067},"fuelLevel":0.69,"lastAddress":"Ainmillerstraße 17, 80801 München, Germany"}
{"timestamp":"2016-09-29T10:20:00+0200","id":124032,"name":"Irmi","coordinate":{"longitude":11.57330036,"latitude":48.16019821},"fuelLevel":0.64,"lastAddress":"Isabellastraße 46, 80796 München, Germany"}
{"timestamp":"2016-09-29T10:20:00+0200","id":124017,"name":"Siggi","coordinate":{"longitude":11.57079983,"latitude":48.16040039},"fuelLevel":0.56,"lastAddress":"Jakob-Klar-Straße 11, 80796 München, Germany"}
{"timestamp":"2016-09-29T10:20:00+0200","id":124029,"name":"Hannah","coordinate":{"longitude":11.51010036,"latitude":48.04520035},"fuelLevel":0.7,"lastAddress":"Gistlstraße 159, 82049 Pullach im Isartal, Germany"}
{"timestamp":"2016-09-29T10:20:00+0200","id":124042,"name":"Tilli","coordinate":{"longitude":11.50949955,"latitude":48.04550171},"fuelLevel":0.77,"lastAddress":"Seitnerstraße 70, 82049 Pullach im Isartal, Germany"}
{"timestamp":"2016-09-29T10:20:00+0200","id":124009,"name":"Ludwig","coordinate":{"longitude":11.57820034,"latitude":48.16410065},"fuelLevel":0.9400000000000001,"lastAddress":"Cherubinistraße 2, 80803 München, Germany"}
{"timestamp":"2016-09-29T10:20:00+0200","id":124007,"name":"Jakob","coordinate":{"longitude":11.58609962,"latitude":48.16389847},"fuelLevel":0.9500000000000001,"lastAddress":"Leopoldstraße 87, 80802 München, Germany"}