{"timestamp":"2016-10-06T20:45:00+0200","id":124041,"name":"Sophie","coordinate":{"longitude":11.57769966,"latitude":48.15000153},"fuelLevel":0.9400000000000001,"lastAddress":"Schellingstraße 18, 80799 München, Germany"}
{"timestamp":"2016-10-06T20:45:00+0200","id":124026,"name":"Eva","coordinate":{"longitude":11.57830048,"latitude":48.15380096},"fuelLevel":0.61,"lastAddress":"Türkenstraße 104, 80799 München, Germany"}
{"timestamp":"2016-10-06T20:45:00+0200","id":124025,"name":"Elli","coordinate":{"longitude":11.57610035,"latitude":48.15779877},"fuelLevel":0.9,"lastAddress":"Franz-Joseph-Straße 46, 80801 München, Germany"}
{"timestamp":"2016-10-06T20:45:00+0200","id":124033,"name":"Johanna","coordinate":{"longitude":11.58139992,"latitude":48.1515007},"fuelLevel":0.82,"lastAddress":"Adalbertstraße 6, 80799 München, Germany"}
{"timestamp":"2016-10-06T20:45:00+0200","id":124036,"name":"Liesel","coordinate":{"longitude":11.57520008,"latitude":48.15629959},"fuelLevel":0.6699999999999999,"lastAddress":"Nordendstraße 36, 80801 München, Germany"}
{"timestamp":"2016-10-06T20:45:00+0200","id":124044,"name":"Uschi","coordinate":{"longitude":11.57260036,"latitude":48.13119888},"fuelLevel":0.9199999999999999,"lastAddress":"Fraunhoferstraße 5, 80469 München, Germany"}
{"timestamp":"2016-10-06T20:45:00+0200","id":124024,"name":"Christl","coordinate":{"longitude":11.58030033,"latitude":48.13339996},"fuelLevel":0.8,"lastAddress":"Rumfordstraße 38, 80469 München, Germany"}
{"timestamp":"2016-10-06T20:45:00+0200","id":124040,"name":"Reserl","coordinate":{"longitude":11.57229996,"latitude":48.13140106},"fuelLevel":0.83,"lastAddress":"Müllerstraße 15, 80469 München, Germany"}
{"timestamp":"2016-10-06T20:45:00+0200","id":124021,"name":"Xaver","coordinate":{"longitude":11.58170033,"latitude":48.13069916},"fuelLevel":0.9500000000000001,"lastAddress":"Erhardtstraße 27, 80469 München, Germany"}
{"timestamp":"2016-10-06T20:45:00+0200","id":124014,"name":"Quirin","coordinate":{"longitude":11.60540009,"latitude":48.13249969},"fuelLevel":0.6000000000000001,"lastAddress":"Kirchenstraße 70, 81675 München, Germany"}
{"timestamp":"2016-10-06T20:45:00+0200","id":124034,"name":"Kathi","coordinate":{"longitude":11.60499954,"latitude":48.13219833},"fuelLevel":0.66,"lastAddress":"Elsässer Str. 16, 81667 München, Germany"}
{"timestamp":"2016-10-06T20:45:00+0200","id":124016,"name":"Sepp","coordinate":{"longitude":11.59910011,"latitude":48.12609863},"fuelLevel":0.9299999999999999,"lastAddress":"Lothringer Str. 28A, 81667 München, Germany"}
{"timestamp":"2016-10-06T20:45:00+0200","id":124038,"name":"Magda","coordinate":{"longitude":11.60000038,"latitude":48.12820053},"fuelLevel":0.67,"lastAddress":"Pariser Str. 38, 81667 München, Germany"}
{"timestamp":"2016-10-06T20:45:00+0200","id":124022,"name":"Anne","coordinate":{"longitude":11.59669971,"latitude":48.12739944},"fuelLevel":0.8800000000000001,"lastAddress":"Rosenheimer Str. 101, 81667 München, Germany"}
{"timestamp":"2016-10-06T20:45:00+0200","id":124000,"name":"Bertl","coordinate":{"longitude":11.59459972,"latitude":48.12810135},"fuelLevel":0.82,"lastAddress":"Rosenheimer Str. 62, 81669 München, Germany"}
{"timestamp":"2016-10-06T20:45:00+0200","id":124013,"name":"Poldi","coordinate":{"longitude":11.59440041,"latitude":48.12820053},"fuelLevel":0.79,"lastAddress":"Rosenheimer Str. 1, 81669 München, Germany"}
{"timestamp":"2016-10-06T20:45:00+0200","id":124011,"name":"Maxl","coordinate":{"longitude":11.59280014,"latitude":48.12530136},"fuelLevel":0.73,"lastAddress":"Sieboldstraße 4, 81669 München, Germany"}
{"timestamp":"2016-10-06T20:45:00+0200","id":124003,"name":"Franzl","coordinate":{"longitude":11.59300041,"latitude":48.12749863},"fuelLevel":0.8,"lastAddress":"Franziskanerstraße 8, 81669 München, Germany"}
{"timestamp":"2016-10-06T20:45:00+0200","id":124010,"name":"Luitpold","coordinate":{"longitude":11.58450031,"latitude":48.12760162},"fuelLevel":0.9500000000000001,"lastAddress":"Lilienstraße 66, 81669 München, Germany"}
{"timestamp":"2016-10-06T20:45:00+0200","id":124019,"name":"Valentin","coordinate":{"longitude":11.58520031,"latitude":48.12400055},"fuelLevel":0.87,"lastAddress":"Hochstraße 47A, 81541 München, Germany"}
{"timestamp":"2016-10-06T20:45:00+0200","id":124035,"name":"Leonie","coordinate":{"longitude":11.58640003,"latitude":48.12950134},"fuelLevel":0.7899999999999999,"lastAddress":"Lilienstraße 28, 81669 München, Germany"}
{"timestamp":"2016-10-06T20:45:00+0200","id":124006,"name":"Gustl","coordinate":{"longitude":11.57859993,"latitude":48.11949921},"fuelLevel":0.9400000000000001,"lastAddress":"Nockherstraße 47, 81541 München, Germany"}
{"timestamp":"2016-10-06T20:45:00+0200","id":124020,"name":"Vinzenz","coordinate":{"longitude":11.57670021,"latitude":48.1242981},"fuelLevel":0.8999999999999999,"lastAddress":"Albanistraße 4, 81541 München, Germany"}
{"timestamp":"2016-10-06T20:45:00+0200","id":124049,"name":"Marei","coordinate":{"longitude":11.57450008,"latitude":48.11970139},"fuelLevel":0.69,"lastAddress":"Humboldtstraße 28, 81543 München, Germany"}
{"timestamp":"2016-10-06T20:45:00+0200","id":124045,"name":"Vroni","coordinate":{"longitude":11.56709957,"latitude":48.12730026},"fuelLevel":0.9199999999999999,"lastAddress":"Holzstraße 49-51, 80469 München, Germany"}
{"timestamp":"2016-10-06T20:45:00+0200","id":124018,"name":"Toni","coordinate":{"longitude":11.56989956,"latitude":48.13059998},"fuelLevel":0.9199999999999999,"lastAddress":"Hans-Sachs-Straße 2A, 80469 München, Germany"}
{"timestamp":"2016-10-06T20:45:00+0200","id":124012,"name":"Peter","coordinate":{"longitude":11.57250023,"latitude":48.15000153},"fuelLevel":1,"lastAddress":"Barer Str. 29, 80799 München, Germany"}
{"timestamp":"2016-10-06T20:45:00+0200","id":124004,"name":"Fridl","coordinate":{"longitude":11.56599998,"latitude":48.15629959},"fuelLevel":0.55,"lastAddress":"Hiltenspergerstraße 4, 80798 München, Germany"}
{"timestamp":"2016-10-06T20:45:00+0200","id":124031,"name":"Heidi","coordinate":{"longitude":11.56610012,"latitude":48.15000153},"fuelLevel":0.8,"lastAddress":"Luisenstraße 51, 80333 München, Germany"}
{"timestamp":"2016-10-06T20:45:00+0200","id":124047,"name":"Walli","coordinate":{"longitude":11.5703001,"latitude":48.14970016},"fuelLevel":0.83,"lastAddress":"Theresienstraße, 80333 München, Germany"}
{"timestamp":"2016-10-06T20:45:00+0200","id":124002,"name":"Ferdl","coordinate":{"longitude":11.56480026,"latitude":48.15219879},"fuelLevel":0.9500000000000001,"lastAddress":"Heßstraße 39, 80798 München, Germany"}
{"timestamp":"2016-10-06T20:45:00+0200","id":124048,"name":"Wiggerl","coordinate":{"longitude":11.57870007,"latitude":48.16180038},"fuelLevel":0.68,"lastAddress":"Viktor-Scheffel-Straße 5, 80803 München, Germany"}
{"timestamp":"2016-10-06T20:45:00+0200","id":124028,"name":"Gitte","coordinate":{"longitude":11.57740021,"latitude":48.16059875},"fuelLevel":0.75,"lastAddress":"Römerstraße 23, 80801 München, Germany"}
{"timestamp":"2016-10-06T20:45:00+0200","id":124027,"name":"Fanni","coordinate":{"longitude":11.57759953,"latitude":48.15909958},"fuelLevel":0.7899999999999999,"lastAddress":"Ainmillerstraße 42, 80801 München, Germany"}
{"timestamp":"2016-10-06T20:45:00+0200","id":124005,"name":"Georg","coordinate":{"longitude":11.58170033,"latitude":48.15879822},"fuelLevel":0.66,"lastAddress":"Ainmillerstraße 18, 80801 München, Germany"}
{"timestamp":"2016-10-06T20:45:00+0200","id":124001,"name":"Edmund","coordinate":{"longitude":11.57909966,"latitude":48.15810013},"fuelLevel":0.5700000000000001,"lastAddress":"Franz-Joseph-Straße 28, 80801 München, Germany"}
{"timestamp":"2016-10-06T20:45:00+0200","id":124032,"name":"Irmi","coordinate":{"longitude":11.57320023,"latitude":48.15990067},"fuelLevel":0.64,"lastAddress":"Isabellastraße 42, 80796 München, Germany"}
{"timestamp":"2016-10-06T20:45:00+0200","id":124037,"name":"Luise","coordinate":{"longitude":11.56599998,"latitude":48.15819931},"fuelLevel":0.58,"lastAddress":"Hiltenspergerstraße 25, 80798 München, Germany"}
{"timestamp":"2016-10-06T20:45:00+0200","id":124017,"name":"Siggi","coordinate":{"longitude":11.57129955,"latitude":48.16090012},"fuelLevel":0.56,"lastAddress":"Hohenzollernstraße 110, 80796 München, Germany"}
{"timestamp":"2016-10-06T20:45:00+0200","id":124029,"name":"Hannah","coordinate":{"longitude":11.51019955,"latitude":48.04539871},"fuelLevel":0.7,"lastAddress":"Gistlstraße 159, 82049 Pullach im Isartal, Germany"}
{"timestamp":"2016-10-06T20:45:00+0200","id":124008,"name":"Johann","coordinate":{"longitude":11.50990009,"latitude":48.04539871},"fuelLevel":0.87,"lastAddress":"Gistlstraße 159, 82049 Pullach im Isartal, Germany"}
{"timestamp":"2016-10-06T20:45:00+0200","id":124039,"name":"Marie","coordinate":{"longitude":11.50959969,"latitude":48.04539871},"fuelLevel":0.58,"lastAddress":"Seitnerstraße 70, 82049 Pullach im Isartal, Germany"}
{"timestamp":"2016-10-06T20:45:00+0200","id":124009,"name":"Ludwig","coordinate":{"longitude":11.58539963,"latitude":48.16139984},"fuelLevel":0.8999999999999999,"lastAddress":"Leopoldstraße 61, 80802 München, Germany"}
{"timestamp":"2016-10-06T20:45:00+0200","id":124007,"name":"Jakob","coordinate":{"longitude":11.57470036,"latitude":48.16740036},"fuelLevel":0.9400000000000001,"lastAddress":"Karl-Theodor-Straße 82, 80803 München, Germany"}