{"timestamp":"2016-10-19T02:35:00+0200","id":124041,"name":"Sophie","coordinate":{"longitude":11.5781002,"latitude":48.15380096},"fuelLevel":0.8300000000000001,"lastAddress":"Rambergstraße 4, 80799 München, Germany"}
{"timestamp":"2016-10-19T02:35:00+0200","id":124026,"name":"Eva","coordinate":{"longitude":11.58040047,"latitude":48.14860153},"fuelLevel":0.9199999999999999,"lastAddress":"Ludwigstraße 18, 80539 München, Germany"}
{"timestamp":"2016-10-19T02:35:00+0200","id":124025,"name":"Elli","coordinate":{"longitude":11.57929993,"latitude":48.1556015},"fuelLevel":0.8300000000000001,"lastAddress":"Friedrichstraße 3, 80801 München, Germany"}
{"timestamp":"2016-10-19T02:35:00+0200","id":124044,"name":"Uschi","coordinate":{"longitude":11.57209969,"latitude":48.13159943},"fuelLevel":0.8,"lastAddress":"Müllerstraße 13, 80469 München, Germany"}
{"timestamp":"2016-10-19T02:35:00+0200","id":124040,"name":"Reserl","coordinate":{"longitude":11.57289982,"latitude":48.13209915},"fuelLevel":0.79,"lastAddress":"Müllerstraße 18, 80469 München, Germany"}
{"timestamp":"2016-10-19T02:35:00+0200","id":124014,"name":"Quirin","coordinate":{"longitude":11.59770012,"latitude":48.13499832},"fuelLevel":0.57,"lastAddress":"Innere Wiener Straße 61, 81667 München, Germany"}
{"timestamp":"2016-10-19T02:35:00+0200","id":124034,"name":"Kathi","coordinate":{"longitude":11.60879993,"latitude":48.13270187},"fuelLevel":0.57,"lastAddress":"Kirchenstraße 88, 81675 München, Germany"}
{"timestamp":"2016-10-19T02:35:00+0200","id":124016,"name":"Sepp","coordinate":{"longitude":11.59819984,"latitude":48.12620163},"fuelLevel":0.88,"lastAddress":"Rosenheimer Str. 119, 81667 München, Germany"}
{"timestamp":"2016-10-19T02:35:00+0200","id":124038,"name":"Magda","coordinate":{"longitude":11.60050011,"latitude":48.12820053},"fuelLevel":0.67,"lastAddress":"Weißenburger Str. 36, 81667 München, Germany"}
{"timestamp":"2016-10-19T02:35:00+0200","id":124022,"name":"Anne","coordinate":{"longitude":11.50599957,"latitude":48.09140015},"fuelLevel":0.7999999999999999,"lastAddress":"Meglingerstraße 40, 81477 München, Germany"}
{"timestamp":"2016-10-19T02:35:00+0200","id":124000,"name":"Bertl","coordinate":{"longitude":11.60289955,"latitude":48.12900162},"fuelLevel":0.9400000000000001,"lastAddress":"Wörthstraße 51, 81667 München, Germany"}
{"timestamp":"2016-10-19T02:35:00+0200","id":124013,"name":"Poldi","coordinate":{"longitude":11.59440041,"latitude":48.12789917},"fuelLevel":0.61,"lastAddress":"Balanstraße 2, 81669 München, Germany"}
{"timestamp":"2016-10-19T02:35:00+0200","id":124011,"name":"Maxl","coordinate":{"longitude":11.5951004,"latitude":48.12760162},"fuelLevel":0.6699999999999999,"lastAddress":"Rosenheimer Str. 68, 81669 München, Germany"}
{"timestamp":"2016-10-19T02:35:00+0200","id":124003,"name":"Franzl","coordinate":{"longitude":11.59290028,"latitude":48.12670135},"fuelLevel":0.7799999999999999,"lastAddress":"Simon-Knoll-Platz 1, 81669 München, Germany"}
{"timestamp":"2016-10-19T02:35:00+0200","id":124010,"name":"Luitpold","coordinate":{"longitude":11.58759975,"latitude":48.12779999},"fuelLevel":0.87,"lastAddress":"Hochstraße 19, 81669 München, Germany"}
{"timestamp":"2016-10-19T02:35:00+0200","id":124019,"name":"Valentin","coordinate":{"longitude":11.50580025,"latitude":48.0909996},"fuelLevel":0.8680555555555556,"lastAddress":"Meglingerstraße 30-32, 81477 München, Germany"}
{"timestamp":"2016-10-19T02:35:00+0200","id":124020,"name":"Vinzenz","coordinate":{"longitude":11.5781002,"latitude":48.12519836},"fuelLevel":0.75,"lastAddress":"Boosstraße 8, 81541 München, Germany"}
{"timestamp":"2016-10-19T02:35:00+0200","id":124049,"name":"Marei","coordinate":{"longitude":11.57419968,"latitude":48.12269974},"fuelLevel":0.9400000000000001,"lastAddress":"Eduard-Schmid-Straße 34, 81541 München, Germany"}
{"timestamp":"2016-10-19T02:35:00+0200","id":124045,"name":"Vroni","coordinate":{"longitude":11.56429958,"latitude":48.12310028},"fuelLevel":0.64,"lastAddress":"Geyerstraße 46, 80469 München, Germany"}
{"timestamp":"2016-10-19T02:35:00+0200","id":124018,"name":"Toni","coordinate":{"longitude":11.56910038,"latitude":48.12919998},"fuelLevel":0.6499999999999999,"lastAddress":"Holzstraße 27A, 80469 München, Germany"}
{"timestamp":"2016-10-19T02:35:00+0200","id":124012,"name":"Peter","coordinate":{"longitude":11.56159973,"latitude":48.15480042},"fuelLevel":0.9600000000000001,"lastAddress":"Schleißheimer Str. 86, 80797 München, Germany"}
{"timestamp":"2016-10-19T02:35:00+0200","id":124004,"name":"Fridl","coordinate":{"longitude":11.55550003,"latitude":48.15510178},"fuelLevel":0.58,"lastAddress":"Lothstraße 64, 80335 München, Germany"}
{"timestamp":"2016-10-19T02:35:00+0200","id":124031,"name":"Heidi","coordinate":{"longitude":11.5632,"latitude":48.15010071},"fuelLevel":0.62,"lastAddress":"Augustenstraße 67, 80333 München, Germany"}
{"timestamp":"2016-10-19T02:35:00+0200","id":124047,"name":"Walli","coordinate":{"longitude":11.57209969,"latitude":48.14960098},"fuelLevel":0.6499999999999999,"lastAddress":"Barer Str. 29, 80799 München, Germany"}
{"timestamp":"2016-10-19T02:35:00+0200","id":124048,"name":"Wiggerl","coordinate":{"longitude":11.58049965,"latitude":48.16279984},"fuelLevel":0.67,"lastAddress":"Herzogstraße 40, 80803 München, Germany"}
{"timestamp":"2016-10-19T02:35:00+0200","id":124028,"name":"Gitte","coordinate":{"longitude":11.57579994,"latitude":48.16019821},"fuelLevel":0.7200000000000001,"lastAddress":"Hohenzollernstraße 49, 80801 München, Germany"}
{"timestamp":"2016-10-19T02:35:00+0200","id":124032,"name":"Irmi","coordinate":{"longitude":11.57069969,"latitude":48.15909958},"fuelLevel":0.9400000000000001,"lastAddress":"Jakob-Klar-Straße 1, 80796 München, Germany"}
{"timestamp":"2016-10-19T02:35:00+0200","id":124037,"name":"Luise","coordinate":{"longitude":11.56999969,"latitude":48.15739822},"fuelLevel":0.52,"lastAddress":"Agnesstraße 15, 80798 München, Germany"}
{"timestamp":"2016-10-19T02:35:00+0200","id":124017,"name":"Siggi","coordinate":{"longitude":11.57219982,"latitude":48.16059875},"fuelLevel":0.56,"lastAddress":"Hohenzollernstraße 104, 80796 München, Germany"}
{"timestamp":"2016-10-19T02:35:00+0200","id":124029,"name":"Hannah","coordinate":{"longitude":11.51000023,"latitude":48.04560089},"fuelLevel":0.59,"lastAddress":"Gistlstraße 159, 82049 Pullach im Isartal, Germany"}
{"timestamp":"2016-10-19T02:35:00+0200","id":124039,"name":"Marie","coordinate":{"longitude":11.50940037,"latitude":48.04550171},"fuelLevel":0.63,"lastAddress":"Seitnerstraße 70, 82049 Pullach im Isartal, Germany"}
{"timestamp":"2016-10-19T02:35:00+0200","id":124007,"name":"Jakob","coordinate":{"longitude":11.57450008,"latitude":48.16730118},"fuelLevel":0.9500000000000001,"lastAddress":"Karl-Theodor-Straße 82, 80803 München, Germany"}