{"timestamp":"2016-11-18T06:50:00+0100","id":124041,"name":"Sophie","coordinate":{"longitude":11.5789032,"latitude":48.15292358},"fuelLevel":0.5599999999999999,"lastAddress":"Akademiestraße 2, 80799 München, Germany"}
{"timestamp":"2016-11-18T06:50:00+0100","id":124026,"name":"Eva","coordinate":{"longitude":11.58128357,"latitude":48.15229797},"fuelLevel":0.75,"lastAddress":"Akademiestraße 3, 80799 München, Germany"}
{"timestamp":"2016-11-18T06:50:00+0100","id":124025,"name":"Elli","coordinate":{"longitude":11.58129883,"latitude":48.15249634},"fuelLevel":0.8900000000000001,"lastAddress":"Akademiestraße 3, 80799 München, Germany"}
{"timestamp":"2016-11-18T06:50:00+0100","id":124024,"name":"Christl","coordinate":{"longitude":11.57699585,"latitude":48.1328125},"fuelLevel":0.6499999999999999,"lastAddress":"Buttermelcherstraße 4, 80469 München, Germany"}
{"timestamp":"2016-11-18T06:50:00+0100","id":124040,"name":"Reserl","coordinate":{"longitude":11.58169556,"latitude":48.13079834},"fuelLevel":0.86,"lastAddress":"Erhardtstraße 27, 80469 München, Germany"}
{"timestamp":"2016-11-18T06:50:00+0100","id":124034,"name":"Kathi","coordinate":{"longitude":11.60379028,"latitude":48.13040161},"fuelLevel":0.84,"lastAddress":"Breisacher Str. 12, 81667 München, Germany"}
{"timestamp":"2016-11-18T06:50:00+0100","id":124030,"name":"Hedwig","coordinate":{"longitude":11.56359863,"latitude":48.13453674},"fuelLevel":0.6944444444444444,"lastAddress":"Mathildenstraße 3C, 80336 München, Germany"}
{"timestamp":"2016-11-18T06:50:00+0100","id":124023,"name":"Babsi","coordinate":{"longitude":11.56669617,"latitude":48.13192749},"fuelLevel":0.62,"lastAddress":"Thalkirchner Str. 3, 80337 München, Germany"}
{"timestamp":"2016-11-18T06:50:00+0100","id":124000,"name":"Bertl","coordinate":{"longitude":11.59689331,"latitude":48.12799072},"fuelLevel":0.55,"lastAddress":"Lothringer Str. 4, 81667 München, Germany"}
{"timestamp":"2016-11-18T06:50:00+0100","id":124013,"name":"Poldi","coordinate":{"longitude":11.58959961,"latitude":48.12498474},"fuelLevel":0.79,"lastAddress":"Franziskanerstraße 47, 81669 München, Germany"}
{"timestamp":"2016-11-18T06:50:00+0100","id":124010,"name":"Luitpold","coordinate":{"longitude":11.5881958,"latitude":48.12861633},"fuelLevel":0.58,"lastAddress":"Hochstraße 15, 81669 München, Germany"}
{"timestamp":"2016-11-18T06:50:00+0100","id":124019,"name":"Valentin","coordinate":{"longitude":11.58200073,"latitude":48.1210022},"fuelLevel":0.64,"lastAddress":"Hochstraße 81, 81541 München, Germany"}
{"timestamp":"2016-11-18T06:50:00+0100","id":124035,"name":"Leonie","coordinate":{"longitude":11.58348083,"latitude":48.12770081},"fuelLevel":0.87,"lastAddress":"Zeppelinstraße 39, 81669 München, Germany"}
{"timestamp":"2016-11-18T06:50:00+0100","id":124020,"name":"Vinzenz","coordinate":{"longitude":11.57878113,"latitude":48.12350464},"fuelLevel":0.88,"lastAddress":"Entenbachstraße 15, 81541 München, Germany"}
{"timestamp":"2016-11-18T06:50:00+0100","id":124049,"name":"Marei","coordinate":{"longitude":11.57879639,"latitude":48.12336731},"fuelLevel":0.9099999999999999,"lastAddress":"Albanistraße 17, 81541 München, Germany"}
{"timestamp":"2016-11-18T06:50:00+0100","id":124018,"name":"Toni","coordinate":{"longitude":11.56907654,"latitude":48.12399292},"fuelLevel":0.56,"lastAddress":"Wittelsbacherstraße 10-11, 80469 München, Germany"}
{"timestamp":"2016-11-18T06:50:00+0100","id":124004,"name":"Fridl","coordinate":{"longitude":11.55908203,"latitude":48.15390015},"fuelLevel":0.88,"lastAddress":"Heßstraße 79, 80797 München, Germany"}
{"timestamp":"2016-11-18T06:50:00+0100","id":124031,"name":"Heidi","coordinate":{"longitude":11.56950378,"latitude":48.1493988},"fuelLevel":0.45999999999999996,"lastAddress":"Arcisstraße 21, 80333 München, Germany"}
{"timestamp":"2016-11-18T06:50:00+0100","id":124047,"name":"Walli","coordinate":{"longitude":11.56700134,"latitude":48.15029907},"fuelLevel":0.76,"lastAddress":"Theresienstraße 100-102, 80333 München, Germany"}
{"timestamp":"2016-11-18T06:50:00+0100","id":124002,"name":"Ferdl","coordinate":{"longitude":11.563797,"latitude":48.15039062},"fuelLevel":0.8999999999999999,"lastAddress":"Augustenstraße 76, 80333 München, Germany"}
{"timestamp":"2016-11-18T06:50:00+0100","id":124028,"name":"Gitte","coordinate":{"longitude":11.57919312,"latitude":48.15791321},"fuelLevel":0.9099999999999999,"lastAddress":"Franz-Joseph-Straße 28, 80801 München, Germany"}
{"timestamp":"2016-11-18T06:50:00+0100","id":124001,"name":"Edmund","coordinate":{"longitude":11.57669067,"latitude":48.16130066},"fuelLevel":0.63,"lastAddress":"Kaiserstraße 59-61, 80801 München, Germany"}
{"timestamp":"2016-11-18T06:50:00+0100","id":124032,"name":"Irmi","coordinate":{"longitude":11.57269287,"latitude":48.15809631},"fuelLevel":0.89,"lastAddress":"Elisabethstraße 8, 80796 München, Germany"}
{"timestamp":"2016-11-18T06:50:00+0100","id":124037,"name":"Luise","coordinate":{"longitude":11.56640625,"latitude":48.15725708},"fuelLevel":0.59,"lastAddress":"Agnesstraße 31, 80798 München, Germany"}
{"timestamp":"2016-11-18T06:50:00+0100","id":124017,"name":"Siggi","coordinate":{"longitude":11.56919956,"latitude":48.15930176},"fuelLevel":0.64,"lastAddress":"Tengstraße 30, 80796 München, Germany"}
{"timestamp":"2016-11-18T06:50:00+0100","id":124029,"name":"Hannah","coordinate":{"longitude":11.50959778,"latitude":48.04551697},"fuelLevel":0.89,"lastAddress":"Seitnerstraße 70, 82049 Pullach im Isartal, Germany"}
{"timestamp":"2016-11-18T06:50:00+0100","id":124008,"name":"Johann","coordinate":{"longitude":11.50952148,"latitude":48.04550171},"fuelLevel":0.81,"lastAddress":"Seitnerstraße 70, 82049 Pullach im Isartal, Germany"}
{"timestamp":"2016-11-18T06:50:00+0100","id":124009,"name":"Ludwig","coordinate":{"longitude":11.58140564,"latitude":48.16639709},"fuelLevel":0.89,"lastAddress":"Karl-Theodor-Straße 44, 80803 München, Germany"}
{"timestamp":"2016-11-18T06:50:00+0100","id":124007,"name":"Jakob","coordinate":{"longitude":11.57409668,"latitude":48.16430664},"fuelLevel":0.84,"lastAddress":"Belgradstraße 37, 80796 München, Germany"}