{"timestamp":"2016-10-05T03:25:00+0200","id":124041,"name":"Sophie","coordinate":{"longitude":11.57759953,"latitude":48.14979935},"fuelLevel":0.93,"lastAddress":"Schellingstraße 11-13, 80799 München, Germany"}
{"timestamp":"2016-10-05T03:25:00+0200","id":124026,"name":"Eva","coordinate":{"longitude":11.57830048,"latitude":48.15380096},"fuelLevel":0.61,"lastAddress":"Türkenstraße 104, 80799 München, Germany"}
{"timestamp":"2016-10-05T03:25:00+0200","id":124033,"name":"Johanna","coordinate":{"longitude":11.58170033,"latitude":48.15190125},"fuelLevel":0.84,"lastAddress":"Leopoldstraße 4, 80802 München, Germany"}
{"timestamp":"2016-10-05T03:25:00+0200","id":124036,"name":"Liesel","coordinate":{"longitude":11.57530022,"latitude":48.15610123},"fuelLevel":0.6699999999999999,"lastAddress":"Nordendstraße 32, 80801 München, Germany"}
{"timestamp":"2016-10-05T03:25:00+0200","id":124044,"name":"Uschi","coordinate":{"longitude":11.57310009,"latitude":48.13219833},"fuelLevel":0.9199999999999999,"lastAddress":"Müllerstraße 18, 80469 München, Germany"}
{"timestamp":"2016-10-05T03:25:00+0200","id":124024,"name":"Christl","coordinate":{"longitude":11.57979965,"latitude":48.13399887},"fuelLevel":0.8,"lastAddress":"Rumfordstraße 35, 80469 München, Germany"}
{"timestamp":"2016-10-05T03:25:00+0200","id":124040,"name":"Reserl","coordinate":{"longitude":11.57279968,"latitude":48.13199997},"fuelLevel":0.8999999999999999,"lastAddress":"Müllerstraße 7, 80469 München, Germany"}
{"timestamp":"2016-10-05T03:25:00+0200","id":124021,"name":"Xaver","coordinate":{"longitude":11.58160019,"latitude":48.13069916},"fuelLevel":0.9500000000000001,"lastAddress":"Erhardtstraße 27, 80469 München, Germany"}
{"timestamp":"2016-10-05T03:25:00+0200","id":124014,"name":"Quirin","coordinate":{"longitude":11.60849953,"latitude":48.13280106},"fuelLevel":0.63,"lastAddress":"Kirchenstraße 88-90, 81675 München, Germany"}
{"timestamp":"2016-10-05T03:25:00+0200","id":124034,"name":"Kathi","coordinate":{"longitude":11.60529995,"latitude":48.13219833},"fuelLevel":0.67,"lastAddress":"Spicherenstraße 1, 81667 München, Germany"}
{"timestamp":"2016-10-05T03:25:00+0200","id":124030,"name":"Hedwig","coordinate":{"longitude":11.56379986,"latitude":48.12749863},"fuelLevel":0.9199999999999999,"lastAddress":"Thalkirchner Str. 52, 80337 München, Germany"}
{"timestamp":"2016-10-05T03:25:00+0200","id":124023,"name":"Babsi","coordinate":{"longitude":11.56330013,"latitude":48.12720108},"fuelLevel":0.93,"lastAddress":"Thalkirchner Str. 54, 80337 München, Germany"}
{"timestamp":"2016-10-05T03:25:00+0200","id":124016,"name":"Sepp","coordinate":{"longitude":11.59850025,"latitude":48.12540054},"fuelLevel":0.9199999999999999,"lastAddress":"Rosenheimer Str. 104, 81669 München, Germany"}
{"timestamp":"2016-10-05T03:25:00+0200","id":124038,"name":"Magda","coordinate":{"longitude":11.60009956,"latitude":48.12889862},"fuelLevel":0.67,"lastAddress":"Sedanstraße 39, 81667 München, Germany"}
{"timestamp":"2016-10-05T03:25:00+0200","id":124022,"name":"Anne","coordinate":{"longitude":11.59640026,"latitude":48.12680054},"fuelLevel":0.87,"lastAddress":"Rosenheimer Str. 86, 81669 München, Germany"}
{"timestamp":"2016-10-05T03:25:00+0200","id":124000,"name":"Bertl","coordinate":{"longitude":11.59710026,"latitude":48.12939835},"fuelLevel":0.82,"lastAddress":"Kellerstraße 36, 81667 München, Germany"}
{"timestamp":"2016-10-05T03:25:00+0200","id":124013,"name":"Poldi","coordinate":{"longitude":11.59430027,"latitude":48.12789917},"fuelLevel":0.79,"lastAddress":"Balanstraße 2, 81669 München, Germany"}
{"timestamp":"2016-10-05T03:25:00+0200","id":124011,"name":"Maxl","coordinate":{"longitude":11.59300041,"latitude":48.12580109},"fuelLevel":0.7899999999999999,"lastAddress":"Sieboldstraße 5, 81669 München, Germany"}
{"timestamp":"2016-10-05T03:25:00+0200","id":124003,"name":"Franzl","coordinate":{"longitude":11.59300041,"latitude":48.12720108},"fuelLevel":0.79,"lastAddress":"Franziskanerstraße 17, 81669 München, Germany"}
{"timestamp":"2016-10-05T03:25:00+0200","id":124010,"name":"Luitpold","coordinate":{"longitude":11.58469963,"latitude":48.12749863},"fuelLevel":0.37,"lastAddress":"Lilienstraße 73, 81669 München, Germany"}
{"timestamp":"2016-10-05T03:25:00+0200","id":124035,"name":"Leonie","coordinate":{"longitude":11.58590031,"latitude":48.12929916},"fuelLevel":0.7899999999999999,"lastAddress":"Schwarzstraße 1, 81669 München, Germany"}
{"timestamp":"2016-10-05T03:25:00+0200","id":124006,"name":"Gustl","coordinate":{"longitude":11.57730007,"latitude":48.12099838},"fuelLevel":0.9400000000000001,"lastAddress":"Falkenstraße 46, 81541 München, Germany"}
{"timestamp":"2016-10-05T03:25:00+0200","id":124020,"name":"Vinzenz","coordinate":{"longitude":11.57660007,"latitude":48.12450027},"fuelLevel":0.8999999999999999,"lastAddress":"Albanistraße 2-4, 81541 München, Germany"}
{"timestamp":"2016-10-05T03:25:00+0200","id":124049,"name":"Marei","coordinate":{"longitude":11.57439995,"latitude":48.11980057},"fuelLevel":0.69,"lastAddress":"Humboldtstraße 26, 81543 München, Germany"}
{"timestamp":"2016-10-05T03:25:00+0200","id":124045,"name":"Vroni","coordinate":{"longitude":11.56719971,"latitude":48.12779999},"fuelLevel":0.9199999999999999,"lastAddress":"Pestalozzistraße 54, 80469 München, Germany"}
{"timestamp":"2016-10-05T03:25:00+0200","id":124018,"name":"Toni","coordinate":{"longitude":11.56999969,"latitude":48.13119888},"fuelLevel":0.9099999999999999,"lastAddress":"Angertorstraße 4, 80469 München, Germany"}
{"timestamp":"2016-10-05T03:25:00+0200","id":124012,"name":"Peter","coordinate":{"longitude":11.57269955,"latitude":48.14989853},"fuelLevel":1,"lastAddress":"Barer Str. 54A, 80799 München, Germany"}
{"timestamp":"2016-10-05T03:25:00+0200","id":124004,"name":"Fridl","coordinate":{"longitude":11.56540012,"latitude":48.15629959},"fuelLevel":0.55,"lastAddress":"Hiltenspergerstraße 13, 80798 München, Germany"}
{"timestamp":"2016-10-05T03:25:00+0200","id":124031,"name":"Heidi","coordinate":{"longitude":11.56620026,"latitude":48.15010071},"fuelLevel":0.8,"lastAddress":"Luisenstraße 55, 80333 München, Germany"}
{"timestamp":"2016-10-05T03:25:00+0200","id":124047,"name":"Walli","coordinate":{"longitude":11.56989956,"latitude":48.15060043},"fuelLevel":0.83,"lastAddress":"Arcisstraße 32, 80799 München, Germany"}
{"timestamp":"2016-10-05T03:25:00+0200","id":124002,"name":"Ferdl","coordinate":{"longitude":11.56470013,"latitude":48.15190125},"fuelLevel":0.9500000000000001,"lastAddress":"Augustenstraße 93, 80798 München, Germany"}
{"timestamp":"2016-10-05T03:25:00+0200","id":124048,"name":"Wiggerl","coordinate":{"longitude":11.57859993,"latitude":48.16109848},"fuelLevel":0.68,"lastAddress":"Kaiserstraße 47, 80801 München, Germany"}
{"timestamp":"2016-10-05T03:25:00+0200","id":124028,"name":"Gitte","coordinate":{"longitude":11.5770998,"latitude":48.16009903},"fuelLevel":0.75,"lastAddress":"Hohenzollernstraße 41, 80801 München, Germany"}
{"timestamp":"2016-10-05T03:25:00+0200","id":124027,"name":"Fanni","coordinate":{"longitude":11.57800007,"latitude":48.15890121},"fuelLevel":0.7899999999999999,"lastAddress":"Ainmillerstraße 31-33, 80801 München, Germany"}
{"timestamp":"2016-10-05T03:25:00+0200","id":124005,"name":"Georg","coordinate":{"longitude":11.58139992,"latitude":48.15840149},"fuelLevel":0.66,"lastAddress":"Ainmillerstraße 15, 80801 München, Germany"}
{"timestamp":"2016-10-05T03:25:00+0200","id":124032,"name":"Irmi","coordinate":{"longitude":11.57320023,"latitude":48.16040039},"fuelLevel":0.64,"lastAddress":"Isabellastraße 49, 80796 München, Germany"}
{"timestamp":"2016-10-05T03:25:00+0200","id":124037,"name":"Luise","coordinate":{"longitude":11.56630039,"latitude":48.15779877},"fuelLevel":0.58,"lastAddress":"Agnesstraße 35, 80798 München, Germany"}
{"timestamp":"2016-10-05T03:25:00+0200","id":124017,"name":"Siggi","coordinate":{"longitude":11.57089996,"latitude":48.16080093},"fuelLevel":0.56,"lastAddress":"Hohenzollernstraße 79-81, 80796 München, Germany"}
{"timestamp":"2016-10-05T03:25:00+0200","id":124029,"name":"Hannah","coordinate":{"longitude":11.51010036,"latitude":48.04539871},"fuelLevel":0.71,"lastAddress":"Gistlstraße 159, 82049 Pullach im Isartal, Germany"}
{"timestamp":"2016-10-05T03:25:00+0200","id":124008,"name":"Johann","coordinate":{"longitude":11.50990009,"latitude":48.04539871},"fuelLevel":0.87,"lastAddress":"Gistlstraße 159, 82049 Pullach im Isartal, Germany"}
{"timestamp":"2016-10-05T03:25:00+0200","id":124039,"name":"Marie","coordinate":{"longitude":11.50940037,"latitude":48.04539871},"fuelLevel":0.58,"lastAddress":"Seitnerstraße 70, 82049 Pullach im Isartal, Germany"}
{"timestamp":"2016-10-05T03:25:00+0200","id":124009,"name":"Ludwig","coordinate":{"longitude":11.58479977,"latitude":48.16220093},"fuelLevel":0.8999999999999999,"lastAddress":"Herzogstraße 4, 80803 München, Germany"}
{"timestamp":"2016-10-05T03:25:00+0200","id":124007,"name":"Jakob","coordinate":{"longitude":11.57479954,"latitude":48.16730118},"fuelLevel":0.9400000000000001,"lastAddress":"Karl-Theodor-Straße 80, 80803 München, Germany"}