{"timestamp":"2016-09-29T01:15:00+0200","id":124041,"name":"Sophie","coordinate":{"longitude":11.57789993,"latitude":48.1493988},"fuelLevel":0.93,"lastAddress":"Amalienstraße 46, 80799 München, Germany"}
{"timestamp":"2016-09-29T01:15:00+0200","id":124026,"name":"Eva","coordinate":{"longitude":11.57820034,"latitude":48.15399933},"fuelLevel":0.61,"lastAddress":"Türkenstraße 97, 80799 München, Germany"}
{"timestamp":"2016-09-29T01:15:00+0200","id":124025,"name":"Elli","coordinate":{"longitude":11.5781002,"latitude":48.15299988},"fuelLevel":0.85,"lastAddress":"Akademiestraße 23, 80799 München, Germany"}
{"timestamp":"2016-09-29T01:15:00+0200","id":124033,"name":"Johanna","coordinate":{"longitude":11.57909966,"latitude":48.15610123},"fuelLevel":0.89,"lastAddress":"Konradstraße 11, 80801 München, Germany"}
{"timestamp":"2016-09-29T01:15:00+0200","id":124036,"name":"Liesel","coordinate":{"longitude":11.57499981,"latitude":48.15620041},"fuelLevel":0.6699999999999999,"lastAddress":"Nordendstraße 29, 80801 München, Germany"}
{"timestamp":"2016-09-29T01:15:00+0200","id":124044,"name":"Uschi","coordinate":{"longitude":11.57569981,"latitude":48.13029861},"fuelLevel":0.51,"lastAddress":"Reichenbachstraße 22, 80469 München, Germany"}
{"timestamp":"2016-09-29T01:15:00+0200","id":124024,"name":"Christl","coordinate":{"longitude":11.5795002,"latitude":48.13389969},"fuelLevel":0.8,"lastAddress":"Klenzestraße 2, 80469 München, Germany"}
{"timestamp":"2016-09-29T01:15:00+0200","id":124040,"name":"Reserl","coordinate":{"longitude":11.58279991,"latitude":48.13199997},"fuelLevel":0.9099999999999999,"lastAddress":"Morassistraße 14, 80469 München, Germany"}
{"timestamp":"2016-09-29T01:15:00+0200","id":124021,"name":"Xaver","coordinate":{"longitude":11.58059978,"latitude":48.13199997},"fuelLevel":0.52,"lastAddress":"Kohlstraße 3, 80469 München, Germany"}
{"timestamp":"2016-09-29T01:15:00+0200","id":124014,"name":"Quirin","coordinate":{"longitude":11.60929966,"latitude":48.12639999},"fuelLevel":0.62,"lastAddress":"Haager Str. 9, 81671 München, Germany"}
{"timestamp":"2016-09-29T01:15:00+0200","id":124034,"name":"Kathi","coordinate":{"longitude":11.60499954,"latitude":48.13230133},"fuelLevel":0.67,"lastAddress":"Elsässer Str. 6, 81667 München, Germany"}
{"timestamp":"2016-09-29T01:15:00+0200","id":124030,"name":"Hedwig","coordinate":{"longitude":11.56709957,"latitude":48.13199997},"fuelLevel":0.89,"lastAddress":"Müllerstraße 53, 80469 München, Germany"}
{"timestamp":"2016-09-29T01:15:00+0200","id":124023,"name":"Babsi","coordinate":{"longitude":11.56330013,"latitude":48.12730026},"fuelLevel":0.93,"lastAddress":"Thalkirchner Str. 54, 80337 München, Germany"}
{"timestamp":"2016-09-29T01:15:00+0200","id":124038,"name":"Magda","coordinate":{"longitude":11.60000038,"latitude":48.12820053},"fuelLevel":0.76,"lastAddress":"Pariser Str. 38, 81667 München, Germany"}
{"timestamp":"2016-09-29T01:15:00+0200","id":124022,"name":"Anne","coordinate":{"longitude":11.59659958,"latitude":48.12649918},"fuelLevel":0.8900000000000001,"lastAddress":"Pariser Str. 12-14, 81669 München, Germany"}
{"timestamp":"2016-09-29T01:15:00+0200","id":124000,"name":"Bertl","coordinate":{"longitude":11.59449959,"latitude":48.12969971},"fuelLevel":0.8500000000000001,"lastAddress":"Steinstraße 68, 81667 München, Germany"}
{"timestamp":"2016-09-29T01:15:00+0200","id":124013,"name":"Poldi","coordinate":{"longitude":11.59490013,"latitude":48.12680054},"fuelLevel":0.83,"lastAddress":"Balanstraße 16, 81669 München, Germany"}
{"timestamp":"2016-09-29T01:15:00+0200","id":124011,"name":"Maxl","coordinate":{"longitude":11.59309959,"latitude":48.12590027},"fuelLevel":0.8099999999999999,"lastAddress":"Sieboldstraße 5, 81669 München, Germany"}
{"timestamp":"2016-09-29T01:15:00+0200","id":124003,"name":"Franzl","coordinate":{"longitude":11.59290028,"latitude":48.1271019},"fuelLevel":0.79,"lastAddress":"Rablstraße 37, 81669 München, Germany"}
{"timestamp":"2016-09-29T01:15:00+0200","id":124010,"name":"Luitpold","coordinate":{"longitude":11.58600044,"latitude":48.12559891},"fuelLevel":0.88,"lastAddress":"Hochstraße 33, 81541 München, Germany"}
{"timestamp":"2016-09-29T01:15:00+0200","id":124019,"name":"Valentin","coordinate":{"longitude":11.58500004,"latitude":48.12350082},"fuelLevel":0.9199999999999999,"lastAddress":"Hochstraße 49C, 81541 München, Germany"}
{"timestamp":"2016-09-29T01:15:00+0200","id":124035,"name":"Leonie","coordinate":{"longitude":11.58570004,"latitude":48.1291008},"fuelLevel":0.7899999999999999,"lastAddress":"Schwarzstraße 4, 81669 München, Germany"}
{"timestamp":"2016-09-29T01:15:00+0200","id":124006,"name":"Gustl","coordinate":{"longitude":11.57759953,"latitude":48.1208992},"fuelLevel":0.93,"lastAddress":"Falkenstraße 44, 81541 München, Germany"}
{"timestamp":"2016-09-29T01:15:00+0200","id":124020,"name":"Vinzenz","coordinate":{"longitude":11.57979965,"latitude":48.12310028},"fuelLevel":0.9299999999999999,"lastAddress":"Falkenstraße 8A, 81541 München, Germany"}
{"timestamp":"2016-09-29T01:15:00+0200","id":124049,"name":"Marei","coordinate":{"longitude":11.57409954,"latitude":48.12030029},"fuelLevel":0.7200000000000001,"lastAddress":"Oefelestraße 12, 81543 München, Germany"}
{"timestamp":"2016-09-29T01:15:00+0200","id":124045,"name":"Vroni","coordinate":{"longitude":11.56739998,"latitude":48.12799835},"fuelLevel":0.9199999999999999,"lastAddress":"Pestalozzistraße 52A, 80469 München, Germany"}
{"timestamp":"2016-09-29T01:15:00+0200","id":124018,"name":"Toni","coordinate":{"longitude":11.56890011,"latitude":48.12649918},"fuelLevel":0.9500000000000001,"lastAddress":"Baumstraße 21, 80469 München, Germany"}
{"timestamp":"2016-09-29T01:15:00+0200","id":124004,"name":"Fridl","coordinate":{"longitude":11.56620026,"latitude":48.1568985},"fuelLevel":0.9500000000000001,"lastAddress":"Georgenstraße 116, 80798 München, Germany"}
{"timestamp":"2016-09-29T01:15:00+0200","id":124031,"name":"Heidi","coordinate":{"longitude":11.56669998,"latitude":48.15000153},"fuelLevel":0.8,"lastAddress":"Luisenstraße 55, 80333 München, Germany"}
{"timestamp":"2016-09-29T01:15:00+0200","id":124047,"name":"Walli","coordinate":{"longitude":11.5710001,"latitude":48.15589905},"fuelLevel":0.8999999999999999,"lastAddress":"Isabellastraße 8, 80798 München, Germany"}
{"timestamp":"2016-09-29T01:15:00+0200","id":124002,"name":"Ferdl","coordinate":{"longitude":11.5642004,"latitude":48.15090179},"fuelLevel":0.9500000000000001,"lastAddress":"Theresienstraße 61, 80333 München, Germany"}
{"timestamp":"2016-09-29T01:15:00+0200","id":124048,"name":"Wiggerl","coordinate":{"longitude":11.57680035,"latitude":48.15969849},"fuelLevel":0.7200000000000001,"lastAddress":"Römerstraße 15, 80801 München, Germany"}
{"timestamp":"2016-09-29T01:15:00+0200","id":124028,"name":"Gitte","coordinate":{"longitude":11.57989979,"latitude":48.16009903},"fuelLevel":0.77,"lastAddress":"Hohenzollernstraße 44, 80801 München, Germany"}
{"timestamp":"2016-09-29T01:15:00+0200","id":124027,"name":"Fanni","coordinate":{"longitude":11.5770998,"latitude":48.15969849},"fuelLevel":0.8099999999999999,"lastAddress":"Römerstraße 15, 80801 München, Germany"}
{"timestamp":"2016-09-29T01:15:00+0200","id":124005,"name":"Georg","coordinate":{"longitude":11.58119965,"latitude":48.15840149},"fuelLevel":0.69,"lastAddress":"Ainmillerstraße 17, 80801 München, Germany"}
{"timestamp":"2016-09-29T01:15:00+0200","id":124032,"name":"Irmi","coordinate":{"longitude":11.57339954,"latitude":48.16040039},"fuelLevel":0.64,"lastAddress":"Isabellastraße 48, 80796 München, Germany"}
{"timestamp":"2016-09-29T01:15:00+0200","id":124037,"name":"Luise","coordinate":{"longitude":11.56529999,"latitude":48.1595993},"fuelLevel":0.9400000000000001,"lastAddress":"Elisabethstraße 52, 80796 München, Germany"}
{"timestamp":"2016-09-29T01:15:00+0200","id":124017,"name":"Siggi","coordinate":{"longitude":11.57129955,"latitude":48.1609993},"fuelLevel":0.56,"lastAddress":"Hohenzollernstraße 110, 80796 München, Germany"}
{"timestamp":"2016-09-29T01:15:00+0200","id":124029,"name":"Hannah","coordinate":{"longitude":11.51019955,"latitude":48.04539871},"fuelLevel":0.7,"lastAddress":"Gistlstraße 159, 82049 Pullach im Isartal, Germany"}
{"timestamp":"2016-09-29T01:15:00+0200","id":124042,"name":"Tilli","coordinate":{"longitude":11.50940037,"latitude":48.04529953},"fuelLevel":0.77,"lastAddress":"Seitnerstraße 70, 82049 Pullach im Isartal, Germany"}
{"timestamp":"2016-09-29T01:15:00+0200","id":124009,"name":"Ludwig","coordinate":{"longitude":11.57789993,"latitude":48.16410065},"fuelLevel":0.9400000000000001,"lastAddress":"Cherubinistraße 3, 80803 München, Germany"}
{"timestamp":"2016-09-29T01:15:00+0200","id":124007,"name":"Jakob","coordinate":{"longitude":11.5862999,"latitude":48.16379929},"fuelLevel":0.9500000000000001,"lastAddress":"Leopoldstraße 85, 80802 München, Germany"}