{"timestamp":"2016-10-01T12:10:00+0200","id":124041,"name":"Sophie","coordinate":{"longitude":11.5777998,"latitude":48.14979935},"fuelLevel":0.93,"lastAddress":"Schellingstraße 16, 80799 München, Germany"}
{"timestamp":"2016-10-01T12:10:00+0200","id":124026,"name":"Eva","coordinate":{"longitude":11.57830048,"latitude":48.15359879},"fuelLevel":0.61,"lastAddress":"Türkenstraße 95, 80799 München, Germany"}
{"timestamp":"2016-10-01T12:10:00+0200","id":124025,"name":"Elli","coordinate":{"longitude":11.57619953,"latitude":48.15520096},"fuelLevel":0.77,"lastAddress":"Kurfürstenstraße 14, 80801 München, Germany"}
{"timestamp":"2016-10-01T12:10:00+0200","id":124033,"name":"Johanna","coordinate":{"longitude":11.58119965,"latitude":48.15250015},"fuelLevel":0.88,"lastAddress":"Akademiestraße 5, 80799 München, Germany"}
{"timestamp":"2016-10-01T12:10:00+0200","id":124036,"name":"Liesel","coordinate":{"longitude":11.57549953,"latitude":48.15650177},"fuelLevel":0.6699999999999999,"lastAddress":"Nordendstraße 38, 80801 München, Germany"}
{"timestamp":"2016-10-01T12:10:00+0200","id":124024,"name":"Christl","coordinate":{"longitude":11.57919979,"latitude":48.13389969},"fuelLevel":0.8,"lastAddress":"Rumfordstraße 11, 80469 München, Germany"}
{"timestamp":"2016-10-01T12:10:00+0200","id":124021,"name":"Xaver","coordinate":{"longitude":11.58059978,"latitude":48.13190079},"fuelLevel":0.52,"lastAddress":"Kohlstraße 3, 80469 München, Germany"}
{"timestamp":"2016-10-01T12:10:00+0200","id":124014,"name":"Quirin","coordinate":{"longitude":11.60709953,"latitude":48.13079834},"fuelLevel":0.9099999999999999,"lastAddress":"Orleansstraße 69, 81667 München, Germany"}
{"timestamp":"2016-10-01T12:10:00+0200","id":124034,"name":"Kathi","coordinate":{"longitude":11.60499954,"latitude":48.13230133},"fuelLevel":0.67,"lastAddress":"Elsässer Str. 6, 81667 München, Germany"}
{"timestamp":"2016-10-01T12:10:00+0200","id":124023,"name":"Babsi","coordinate":{"longitude":11.56340027,"latitude":48.1271019},"fuelLevel":0.93,"lastAddress":"Thalkirchner Str. 54, 80337 München, Germany"}
{"timestamp":"2016-10-01T12:10:00+0200","id":124016,"name":"Sepp","coordinate":{"longitude":11.59930038,"latitude":48.12620163},"fuelLevel":0.9199999999999999,"lastAddress":"Lothringer Str. 28, 81667 München, Germany"}
{"timestamp":"2016-10-01T12:10:00+0200","id":124022,"name":"Anne","coordinate":{"longitude":11.59679985,"latitude":48.1269989},"fuelLevel":0.8900000000000001,"lastAddress":"Rosenheimer Str. 103, 81667 München, Germany"}
{"timestamp":"2016-10-01T12:10:00+0200","id":124000,"name":"Bertl","coordinate":{"longitude":11.59459972,"latitude":48.12960052},"fuelLevel":0.84,"lastAddress":"Steinstraße 68, 81667 München, Germany"}
{"timestamp":"2016-10-01T12:10:00+0200","id":124013,"name":"Poldi","coordinate":{"longitude":11.59399986,"latitude":48.12829971},"fuelLevel":0.79,"lastAddress":"Rosenheimer Pl. 1, 81669 München, Germany"}
{"timestamp":"2016-10-01T12:10:00+0200","id":124011,"name":"Maxl","coordinate":{"longitude":11.5927,"latitude":48.12580109},"fuelLevel":0.8099999999999999,"lastAddress":"Sieboldstraße 2, 81669 München, Germany"}
{"timestamp":"2016-10-01T12:10:00+0200","id":124003,"name":"Franzl","coordinate":{"longitude":11.59280014,"latitude":48.12720108},"fuelLevel":0.79,"lastAddress":"Rablstraße 37, 81669 München, Germany"}
{"timestamp":"2016-10-01T12:10:00+0200","id":124010,"name":"Luitpold","coordinate":{"longitude":11.58580017,"latitude":48.12599945},"fuelLevel":0.88,"lastAddress":"Gebsattelstraße 2, 81541 München, Germany"}
{"timestamp":"2016-10-01T12:10:00+0200","id":124019,"name":"Valentin","coordinate":{"longitude":11.58539963,"latitude":48.12340164},"fuelLevel":0.9199999999999999,"lastAddress":"Hochstraße 49C, 81541 München, Germany"}
{"timestamp":"2016-10-01T12:10:00+0200","id":124035,"name":"Leonie","coordinate":{"longitude":11.5855999,"latitude":48.12919998},"fuelLevel":0.7899999999999999,"lastAddress":"Schwarzstraße 2, 81669 München, Germany"}
{"timestamp":"2016-10-01T12:10:00+0200","id":124006,"name":"Gustl","coordinate":{"longitude":11.57769966,"latitude":48.1208992},"fuelLevel":0.9400000000000001,"lastAddress":"Falkenstraße 43, 81541 München, Germany"}
{"timestamp":"2016-10-01T12:10:00+0200","id":124020,"name":"Vinzenz","coordinate":{"longitude":11.57859993,"latitude":48.12390137},"fuelLevel":0.9099999999999999,"lastAddress":"Albanistraße 13, 81541 München, Germany"}
{"timestamp":"2016-10-01T12:10:00+0200","id":124049,"name":"Marei","coordinate":{"longitude":11.57359982,"latitude":48.11999893},"fuelLevel":0.7200000000000001,"lastAddress":"Oefelestraße 14, 81543 München, Germany"}
{"timestamp":"2016-10-01T12:10:00+0200","id":124045,"name":"Vroni","coordinate":{"longitude":11.56770039,"latitude":48.12739944},"fuelLevel":0.9199999999999999,"lastAddress":"Holzstraße 45, 80469 München, Germany"}
{"timestamp":"2016-10-01T12:10:00+0200","id":124012,"name":"Peter","coordinate":{"longitude":11.57250023,"latitude":48.14989853},"fuelLevel":1,"lastAddress":"Barer Str. 29, 80799 München, Germany"}
{"timestamp":"2016-10-01T12:10:00+0200","id":124004,"name":"Fridl","coordinate":{"longitude":11.56579971,"latitude":48.15639877},"fuelLevel":0.55,"lastAddress":"Hiltenspergerstraße 6, 80798 München, Germany"}
{"timestamp":"2016-10-01T12:10:00+0200","id":124031,"name":"Heidi","coordinate":{"longitude":11.56639957,"latitude":48.14979935},"fuelLevel":0.8,"lastAddress":"Luisenstraße 51-53, 80333 München, Germany"}
{"timestamp":"2016-10-01T12:10:00+0200","id":124002,"name":"Ferdl","coordinate":{"longitude":11.56379986,"latitude":48.15090179},"fuelLevel":0.9500000000000001,"lastAddress":"Augustenstraße 83, 80333 München, Germany"}
{"timestamp":"2016-10-01T12:10:00+0200","id":124048,"name":"Wiggerl","coordinate":{"longitude":11.5770998,"latitude":48.15919876},"fuelLevel":0.7200000000000001,"lastAddress":"Römerstraße 9, 80801 München, Germany"}
{"timestamp":"2016-10-01T12:10:00+0200","id":124028,"name":"Gitte","coordinate":{"longitude":11.57979965,"latitude":48.15999985},"fuelLevel":0.77,"lastAddress":"Hohenzollernstraße 44, 80801 München, Germany"}
{"timestamp":"2016-10-01T12:10:00+0200","id":124027,"name":"Fanni","coordinate":{"longitude":11.57730007,"latitude":48.15969849},"fuelLevel":0.8099999999999999,"lastAddress":"Römerstraße 15, 80801 München, Germany"}
{"timestamp":"2016-10-01T12:10:00+0200","id":124005,"name":"Georg","coordinate":{"longitude":11.58129978,"latitude":48.15890121},"fuelLevel":0.69,"lastAddress":"Ainmillerstraße 20, 80801 München, Germany"}
{"timestamp":"2016-10-01T12:10:00+0200","id":124001,"name":"Edmund","coordinate":{"longitude":11.57800007,"latitude":48.15819931},"fuelLevel":0.62,"lastAddress":"Franz-Joseph-Straße 36, 80801 München, Germany"}
{"timestamp":"2016-10-01T12:10:00+0200","id":124032,"name":"Irmi","coordinate":{"longitude":11.57310009,"latitude":48.16030121},"fuelLevel":0.64,"lastAddress":"Isabellastraße 49, 80796 München, Germany"}
{"timestamp":"2016-10-01T12:10:00+0200","id":124017,"name":"Siggi","coordinate":{"longitude":11.57129955,"latitude":48.16120148},"fuelLevel":0.56,"lastAddress":"Emanuelstraße 13, 80796 München, Germany"}
{"timestamp":"2016-10-01T12:10:00+0200","id":124029,"name":"Hannah","coordinate":{"longitude":11.51019955,"latitude":48.04539871},"fuelLevel":0.71,"lastAddress":"Gistlstraße 159, 82049 Pullach im Isartal, Germany"}
{"timestamp":"2016-10-01T12:10:00+0200","id":124042,"name":"Tilli","coordinate":{"longitude":11.5092001,"latitude":48.04570007},"fuelLevel":0.77,"lastAddress":"Franz-Höllriegel-Straße, 82049 Pullach im Isartal, Germany"}
{"timestamp":"2016-10-01T12:10:00+0200","id":124008,"name":"Johann","coordinate":{"longitude":11.50949955,"latitude":48.04550171},"fuelLevel":0.87,"lastAddress":"Seitnerstraße 70, 82049 Pullach im Isartal, Germany"}
{"timestamp":"2016-10-01T12:10:00+0200","id":124009,"name":"Ludwig","coordinate":{"longitude":11.5848999,"latitude":48.16210175},"fuelLevel":0.8999999999999999,"lastAddress":"Herzogstraße 4, 80803 München, Germany"}
{"timestamp":"2016-10-01T12:10:00+0200","id":124007,"name":"Jakob","coordinate":{"longitude":11.58670044,"latitude":48.16360092},"fuelLevel":0.9500000000000001,"lastAddress":"Leopoldstraße 85, 80802 München, Germany"}