{"timestamp":"2016-10-09T01:45:00+0200","id":124041,"name":"Sophie","coordinate":{"longitude":11.57759953,"latitude":48.15000153},"fuelLevel":0.9400000000000001,"lastAddress":"Schellingstraße 18, 80799 München, Germany"}
{"timestamp":"2016-10-09T01:45:00+0200","id":124026,"name":"Eva","coordinate":{"longitude":11.57830048,"latitude":48.15370178},"fuelLevel":0.61,"lastAddress":"Türkenstraße 104, 80799 München, Germany"}
{"timestamp":"2016-10-09T01:45:00+0200","id":124025,"name":"Elli","coordinate":{"longitude":11.57610035,"latitude":48.15779877},"fuelLevel":0.9,"lastAddress":"Franz-Joseph-Straße 46, 80801 München, Germany"}
{"timestamp":"2016-10-09T01:45:00+0200","id":124033,"name":"Johanna","coordinate":{"longitude":11.58090019,"latitude":48.15230179},"fuelLevel":0.76,"lastAddress":"Akademiestraße 5, 80799 München, Germany"}
{"timestamp":"2016-10-09T01:45:00+0200","id":124036,"name":"Liesel","coordinate":{"longitude":11.60859966,"latitude":48.12639999},"fuelLevel":0.6699999999999999,"lastAddress":"Haager Str. 12, 81671 München, Germany"}
{"timestamp":"2016-10-09T01:45:00+0200","id":124044,"name":"Uschi","coordinate":{"longitude":11.57250023,"latitude":48.13219833},"fuelLevel":0.9199999999999999,"lastAddress":"Blumenstraße 19, 80331 München, Germany"}
{"timestamp":"2016-10-09T01:45:00+0200","id":124024,"name":"Christl","coordinate":{"longitude":11.57859993,"latitude":48.13330078},"fuelLevel":0.8,"lastAddress":"Klenzestraße 4, 80469 München, Germany"}
{"timestamp":"2016-10-09T01:45:00+0200","id":124040,"name":"Reserl","coordinate":{"longitude":11.57199955,"latitude":48.13169861},"fuelLevel":0.83,"lastAddress":"Müllerstraße 24, 80469 München, Germany"}
{"timestamp":"2016-10-09T01:45:00+0200","id":124021,"name":"Xaver","coordinate":{"longitude":11.58030033,"latitude":48.12990189},"fuelLevel":0.9199999999999999,"lastAddress":"Erhardtstraße 27, 80469 München, Germany"}
{"timestamp":"2016-10-09T01:45:00+0200","id":124014,"name":"Quirin","coordinate":{"longitude":11.60529995,"latitude":48.13290024},"fuelLevel":0.6000000000000001,"lastAddress":"Kirchenstraße 66, 81675 München, Germany"}
{"timestamp":"2016-10-09T01:45:00+0200","id":124034,"name":"Kathi","coordinate":{"longitude":11.60499954,"latitude":48.13249969},"fuelLevel":0.66,"lastAddress":"Elsässer Str. 4, 81667 München, Germany"}
{"timestamp":"2016-10-09T01:45:00+0200","id":124016,"name":"Sepp","coordinate":{"longitude":11.59860039,"latitude":48.1257019},"fuelLevel":0.9299999999999999,"lastAddress":"Rosenheimer Str. 102, 81669 München, Germany"}
{"timestamp":"2016-10-09T01:45:00+0200","id":124038,"name":"Magda","coordinate":{"longitude":11.60039997,"latitude":48.1283989},"fuelLevel":0.67,"lastAddress":"Pariser Pl., 81667 München, Germany"}
{"timestamp":"2016-10-09T01:45:00+0200","id":124022,"name":"Anne","coordinate":{"longitude":11.59459972,"latitude":48.12810135},"fuelLevel":0.86,"lastAddress":"Rosenheimer Str. 62, 81669 München, Germany"}
{"timestamp":"2016-10-09T01:45:00+0200","id":124000,"name":"Bertl","coordinate":{"longitude":11.59640026,"latitude":48.13800049},"fuelLevel":0.82,"lastAddress":"Maria-Theresia-Straße 4, 81675 München, Germany"}
{"timestamp":"2016-10-09T01:45:00+0200","id":124013,"name":"Poldi","coordinate":{"longitude":11.59440041,"latitude":48.12779999},"fuelLevel":0.79,"lastAddress":"Balanstraße 4, 81669 München, Germany"}
{"timestamp":"2016-10-09T01:45:00+0200","id":124011,"name":"Maxl","coordinate":{"longitude":11.59300041,"latitude":48.12540054},"fuelLevel":0.73,"lastAddress":"Barnabasstraße 1, 81669 München, Germany"}
{"timestamp":"2016-10-09T01:45:00+0200","id":124003,"name":"Franzl","coordinate":{"longitude":11.59300041,"latitude":48.12689972},"fuelLevel":0.8,"lastAddress":"Franziskanerstraße 19, 81669 München, Germany"}
{"timestamp":"2016-10-09T01:45:00+0200","id":124010,"name":"Luitpold","coordinate":{"longitude":11.58450031,"latitude":48.12739944},"fuelLevel":0.9500000000000001,"lastAddress":"Lilienstraße 75, 81669 München, Germany"}
{"timestamp":"2016-10-09T01:45:00+0200","id":124019,"name":"Valentin","coordinate":{"longitude":11.58530045,"latitude":48.12390137},"fuelLevel":0.87,"lastAddress":"Hochstraße 47A, 81541 München, Germany"}
{"timestamp":"2016-10-09T01:45:00+0200","id":124035,"name":"Leonie","coordinate":{"longitude":11.5862999,"latitude":48.12939835},"fuelLevel":0.7899999999999999,"lastAddress":"Lilienstraße 36, 81669 München, Germany"}
{"timestamp":"2016-10-09T01:45:00+0200","id":124006,"name":"Gustl","coordinate":{"longitude":11.57769966,"latitude":48.11980057},"fuelLevel":0.9400000000000001,"lastAddress":"Dollmannstraße 15, 81541 München, Germany"}
{"timestamp":"2016-10-09T01:45:00+0200","id":124020,"name":"Vinzenz","coordinate":{"longitude":11.5777998,"latitude":48.12319946},"fuelLevel":0.8999999999999999,"lastAddress":"Schlotthauerstraße 17, 81541 München, Germany"}
{"timestamp":"2016-10-09T01:45:00+0200","id":124049,"name":"Marei","coordinate":{"longitude":11.57199955,"latitude":48.12080002},"fuelLevel":0.52,"lastAddress":"Humboldtstraße 6, 81543 München, Germany"}
{"timestamp":"2016-10-09T01:45:00+0200","id":124045,"name":"Vroni","coordinate":{"longitude":11.56809998,"latitude":48.13190079},"fuelLevel":0.71,"lastAddress":"Pestalozzistraße 3, 80469 München, Germany"}
{"timestamp":"2016-10-09T01:45:00+0200","id":124018,"name":"Toni","coordinate":{"longitude":11.56999969,"latitude":48.1310997},"fuelLevel":0.9199999999999999,"lastAddress":"Angertorstraße 4, 80469 München, Germany"}
{"timestamp":"2016-10-09T01:45:00+0200","id":124004,"name":"Fridl","coordinate":{"longitude":11.56579971,"latitude":48.15629959},"fuelLevel":0.55,"lastAddress":"Hiltenspergerstraße 4, 80798 München, Germany"}
{"timestamp":"2016-10-09T01:45:00+0200","id":124031,"name":"Heidi","coordinate":{"longitude":11.5685997,"latitude":48.15299988},"fuelLevel":0.8,"lastAddress":"Luisenstraße 72, 80798 München, Germany"}
{"timestamp":"2016-10-09T01:45:00+0200","id":124047,"name":"Walli","coordinate":{"longitude":11.5703001,"latitude":48.1495018},"fuelLevel":0.71,"lastAddress":"Theresienstraße, 80333 München, Germany"}
{"timestamp":"2016-10-09T01:45:00+0200","id":124002,"name":"Ferdl","coordinate":{"longitude":11.56190014,"latitude":48.14929962},"fuelLevel":0.63,"lastAddress":"Gabelsbergerstraße 46-52, 80333 München, Germany"}
{"timestamp":"2016-10-09T01:45:00+0200","id":124048,"name":"Wiggerl","coordinate":{"longitude":11.5788002,"latitude":48.16139984},"fuelLevel":0.68,"lastAddress":"Kaiserstraße 38, 80801 München, Germany"}
{"timestamp":"2016-10-09T01:45:00+0200","id":124028,"name":"Gitte","coordinate":{"longitude":11.57660007,"latitude":48.1590004},"fuelLevel":0.75,"lastAddress":"Ainmillerstraße 35, 80801 München, Germany"}
{"timestamp":"2016-10-09T01:45:00+0200","id":124027,"name":"Fanni","coordinate":{"longitude":11.5781002,"latitude":48.15850067},"fuelLevel":0.7899999999999999,"lastAddress":"Ainmillerstraße 31, 80801 München, Germany"}
{"timestamp":"2016-10-09T01:45:00+0200","id":124005,"name":"Georg","coordinate":{"longitude":11.57540035,"latitude":48.16220093},"fuelLevel":0.56,"lastAddress":"Viktor-Scheffel-Straße 20, 80803 München, Germany"}
{"timestamp":"2016-10-09T01:45:00+0200","id":124001,"name":"Edmund","coordinate":{"longitude":11.57929993,"latitude":48.15790176},"fuelLevel":0.5700000000000001,"lastAddress":"Franz-Joseph-Straße 28, 80801 München, Germany"}
{"timestamp":"2016-10-09T01:45:00+0200","id":124032,"name":"Irmi","coordinate":{"longitude":11.57349968,"latitude":48.16030121},"fuelLevel":0.64,"lastAddress":"Isabellastraße 48, 80796 München, Germany"}
{"timestamp":"2016-10-09T01:45:00+0200","id":124037,"name":"Luise","coordinate":{"longitude":11.56999969,"latitude":48.15729904},"fuelLevel":0.52,"lastAddress":"Agnesstraße 15, 80798 München, Germany"}
{"timestamp":"2016-10-09T01:45:00+0200","id":124017,"name":"Siggi","coordinate":{"longitude":11.57069969,"latitude":48.16040039},"fuelLevel":0.56,"lastAddress":"Jakob-Klar-Straße 11, 80796 München, Germany"}
{"timestamp":"2016-10-09T01:45:00+0200","id":124029,"name":"Hannah","coordinate":{"longitude":11.51029968,"latitude":48.04550171},"fuelLevel":0.7,"lastAddress":"Gistlstraße 159, 82049 Pullach im Isartal, Germany"}
{"timestamp":"2016-10-09T01:45:00+0200","id":124008,"name":"Johann","coordinate":{"longitude":11.51000023,"latitude":48.04550171},"fuelLevel":0.87,"lastAddress":"Gistlstraße 159, 82049 Pullach im Isartal, Germany"}
{"timestamp":"2016-10-09T01:45:00+0200","id":124039,"name":"Marie","coordinate":{"longitude":11.50959969,"latitude":48.04550171},"fuelLevel":0.58,"lastAddress":"Seitnerstraße 70, 82049 Pullach im Isartal, Germany"}
{"timestamp":"2016-10-09T01:45:00+0200","id":124009,"name":"Ludwig","coordinate":{"longitude":11.5848999,"latitude":48.16210175},"fuelLevel":0.8999999999999999,"lastAddress":"Herzogstraße 4, 80803 München, Germany"}
{"timestamp":"2016-10-09T01:45:00+0200","id":124007,"name":"Jakob","coordinate":{"longitude":11.57460022,"latitude":48.16749954},"fuelLevel":0.88,"lastAddress":"Karl-Theodor-Straße 82, 80803 München, Germany"}