{"timestamp":"2016-10-08T03:20:00+0200","id":124041,"name":"Sophie","coordinate":{"longitude":11.5788002,"latitude":48.14979935},"fuelLevel":0.9400000000000001,"lastAddress":"Schellingstraße 12, 80799 München, Germany"}
{"timestamp":"2016-10-08T03:20:00+0200","id":124026,"name":"Eva","coordinate":{"longitude":11.57820034,"latitude":48.15380096},"fuelLevel":0.61,"lastAddress":"Türkenstraße 97, 80799 München, Germany"}
{"timestamp":"2016-10-08T03:20:00+0200","id":124025,"name":"Elli","coordinate":{"longitude":11.57619953,"latitude":48.15769958},"fuelLevel":0.9,"lastAddress":"Franz-Joseph-Straße 46, 80801 München, Germany"}
{"timestamp":"2016-10-08T03:20:00+0200","id":124033,"name":"Johanna","coordinate":{"longitude":11.5802002,"latitude":48.15159988},"fuelLevel":0.82,"lastAddress":"Hauptgebäude, Geschwister-Scholl-Platz 1, 80539 München, Germany"}
{"timestamp":"2016-10-08T03:20:00+0200","id":124036,"name":"Liesel","coordinate":{"longitude":11.60890007,"latitude":48.12630081},"fuelLevel":0.6699999999999999,"lastAddress":"Haager Str. 12-14, 81671 München, Germany"}
{"timestamp":"2016-10-08T03:20:00+0200","id":124044,"name":"Uschi","coordinate":{"longitude":11.57279968,"latitude":48.13159943},"fuelLevel":0.9199999999999999,"lastAddress":"Müllerstraße 9, 80469 München, Germany"}
{"timestamp":"2016-10-08T03:20:00+0200","id":124024,"name":"Christl","coordinate":{"longitude":11.57919979,"latitude":48.13380051},"fuelLevel":0.8,"lastAddress":"Rumfordstraße 11, 80469 München, Germany"}
{"timestamp":"2016-10-08T03:20:00+0200","id":124040,"name":"Reserl","coordinate":{"longitude":11.57180023,"latitude":48.13190079},"fuelLevel":0.83,"lastAddress":"Müllerstraße 24, 80469 München, Germany"}
{"timestamp":"2016-10-08T03:20:00+0200","id":124021,"name":"Xaver","coordinate":{"longitude":11.58170033,"latitude":48.13069916},"fuelLevel":0.9500000000000001,"lastAddress":"Erhardtstraße 27, 80469 München, Germany"}
{"timestamp":"2016-10-08T03:20:00+0200","id":124014,"name":"Quirin","coordinate":{"longitude":11.60509968,"latitude":48.13240051},"fuelLevel":0.6000000000000001,"lastAddress":"Elsässer Str. 4, 81667 München, Germany"}
{"timestamp":"2016-10-08T03:20:00+0200","id":124034,"name":"Kathi","coordinate":{"longitude":11.60509968,"latitude":48.13209915},"fuelLevel":0.66,"lastAddress":"Elsässer Str. 16, 81667 München, Germany"}
{"timestamp":"2016-10-08T03:20:00+0200","id":124016,"name":"Sepp","coordinate":{"longitude":11.59829998,"latitude":48.12580109},"fuelLevel":0.9299999999999999,"lastAddress":"Rosenheimer Str. 100, 81669 München, Germany"}
{"timestamp":"2016-10-08T03:20:00+0200","id":124038,"name":"Magda","coordinate":{"longitude":11.60050011,"latitude":48.12829971},"fuelLevel":0.67,"lastAddress":"Weißenburger Str. 36, 81667 München, Germany"}
{"timestamp":"2016-10-08T03:20:00+0200","id":124022,"name":"Anne","coordinate":{"longitude":11.59490013,"latitude":48.12799835},"fuelLevel":0.86,"lastAddress":"Rosenheimer Str. 64, 81667 München, Germany"}
{"timestamp":"2016-10-08T03:20:00+0200","id":124000,"name":"Bertl","coordinate":{"longitude":11.59459972,"latitude":48.12810135},"fuelLevel":0.82,"lastAddress":"Rosenheimer Str. 62, 81669 München, Germany"}
{"timestamp":"2016-10-08T03:20:00+0200","id":124013,"name":"Poldi","coordinate":{"longitude":11.59440041,"latitude":48.12770081},"fuelLevel":0.79,"lastAddress":"Balanstraße 6A, 81669 München, Germany"}
{"timestamp":"2016-10-08T03:20:00+0200","id":124011,"name":"Maxl","coordinate":{"longitude":11.59319973,"latitude":48.12549973},"fuelLevel":0.73,"lastAddress":"Barnabasstraße 1, 81669 München, Germany"}
{"timestamp":"2016-10-08T03:20:00+0200","id":124003,"name":"Franzl","coordinate":{"longitude":11.5927,"latitude":48.12739944},"fuelLevel":0.8,"lastAddress":"Rablstraße 37, 81669 München, Germany"}
{"timestamp":"2016-10-08T03:20:00+0200","id":124010,"name":"Luitpold","coordinate":{"longitude":11.58460045,"latitude":48.12730026},"fuelLevel":0.9500000000000001,"lastAddress":"Lilienstraße 77, 81669 München, Germany"}
{"timestamp":"2016-10-08T03:20:00+0200","id":124019,"name":"Valentin","coordinate":{"longitude":11.58590031,"latitude":48.12329865},"fuelLevel":0.87,"lastAddress":"Hochstraße 49B, 81541 München, Germany"}
{"timestamp":"2016-10-08T03:20:00+0200","id":124035,"name":"Leonie","coordinate":{"longitude":11.58670044,"latitude":48.12929916},"fuelLevel":0.7899999999999999,"lastAddress":"Lilienstraße 49, 81669 München, Germany"}
{"timestamp":"2016-10-08T03:20:00+0200","id":124006,"name":"Gustl","coordinate":{"longitude":11.57719994,"latitude":48.1208992},"fuelLevel":0.9400000000000001,"lastAddress":"Falkenstraße 46, 81541 München, Germany"}
{"timestamp":"2016-10-08T03:20:00+0200","id":124020,"name":"Vinzenz","coordinate":{"longitude":11.57680035,"latitude":48.12450027},"fuelLevel":0.8999999999999999,"lastAddress":"Albanistraße 3, 81541 München, Germany"}
{"timestamp":"2016-10-08T03:20:00+0200","id":124049,"name":"Marei","coordinate":{"longitude":11.57460022,"latitude":48.12009811},"fuelLevel":0.69,"lastAddress":"Humboldtstraße 23, 81543 München, Germany"}
{"timestamp":"2016-10-08T03:20:00+0200","id":124045,"name":"Vroni","coordinate":{"longitude":11.56739998,"latitude":48.12730026},"fuelLevel":0.9199999999999999,"lastAddress":"Holzstraße 47, 80469 München, Germany"}
{"timestamp":"2016-10-08T03:20:00+0200","id":124018,"name":"Toni","coordinate":{"longitude":11.57009983,"latitude":48.13090134},"fuelLevel":0.9199999999999999,"lastAddress":"Müllerstraße 31, 80469 München, Germany"}
{"timestamp":"2016-10-08T03:20:00+0200","id":124012,"name":"Peter","coordinate":{"longitude":11.57260036,"latitude":48.14989853},"fuelLevel":1,"lastAddress":"Barer Str. 50-52, 80799 München, Germany"}
{"timestamp":"2016-10-08T03:20:00+0200","id":124004,"name":"Fridl","coordinate":{"longitude":11.56599998,"latitude":48.15639877},"fuelLevel":0.55,"lastAddress":"Hiltenspergerstraße 6, 80798 München, Germany"}
{"timestamp":"2016-10-08T03:20:00+0200","id":124031,"name":"Heidi","coordinate":{"longitude":11.5685997,"latitude":48.15309906},"fuelLevel":0.8,"lastAddress":"Luisenstraße 72, 80798 München, Germany"}
{"timestamp":"2016-10-08T03:20:00+0200","id":124047,"name":"Walli","coordinate":{"longitude":11.56980038,"latitude":48.1507988},"fuelLevel":0.83,"lastAddress":"Heßstraße 22, 80799 München, Germany"}
{"timestamp":"2016-10-08T03:20:00+0200","id":124002,"name":"Ferdl","coordinate":{"longitude":11.56459999,"latitude":48.15190125},"fuelLevel":0.63,"lastAddress":"Augustenstraße 91, 80798 München, Germany"}
{"timestamp":"2016-10-08T03:20:00+0200","id":124048,"name":"Wiggerl","coordinate":{"longitude":11.57900047,"latitude":48.16109848},"fuelLevel":0.68,"lastAddress":"Kaiserstraße 45, 80801 München, Germany"}
{"timestamp":"2016-10-08T03:20:00+0200","id":124028,"name":"Gitte","coordinate":{"longitude":11.57719994,"latitude":48.16019821},"fuelLevel":0.75,"lastAddress":"Hohenzollernstraße 70, 80801 München, Germany"}
{"timestamp":"2016-10-08T03:20:00+0200","id":124027,"name":"Fanni","coordinate":{"longitude":11.57769966,"latitude":48.1590004},"fuelLevel":0.7899999999999999,"lastAddress":"Ainmillerstraße 40, 80801 München, Germany"}
{"timestamp":"2016-10-08T03:20:00+0200","id":124005,"name":"Georg","coordinate":{"longitude":11.58150005,"latitude":48.15869904},"fuelLevel":0.66,"lastAddress":"Ainmillerstraße 15, 80801 München, Germany"}
{"timestamp":"2016-10-08T03:20:00+0200","id":124001,"name":"Edmund","coordinate":{"longitude":11.57909966,"latitude":48.15800095},"fuelLevel":0.5700000000000001,"lastAddress":"Franz-Joseph-Straße 28, 80801 München, Germany"}
{"timestamp":"2016-10-08T03:20:00+0200","id":124032,"name":"Irmi","coordinate":{"longitude":11.57349968,"latitude":48.16030121},"fuelLevel":0.64,"lastAddress":"Isabellastraße 48, 80796 München, Germany"}
{"timestamp":"2016-10-08T03:20:00+0200","id":124037,"name":"Luise","coordinate":{"longitude":11.57050037,"latitude":48.15810013},"fuelLevel":0.52,"lastAddress":"Elisabethstraße 15, 80796 München, Germany"}
{"timestamp":"2016-10-08T03:20:00+0200","id":124017,"name":"Siggi","coordinate":{"longitude":11.5710001,"latitude":48.16080093},"fuelLevel":0.56,"lastAddress":"Hohenzollernstraße 112, 80796 München, Germany"}
{"timestamp":"2016-10-08T03:20:00+0200","id":124029,"name":"Hannah","coordinate":{"longitude":11.51010036,"latitude":48.04570007},"fuelLevel":0.7,"lastAddress":"Gistlstraße 159, 82049 Pullach im Isartal, Germany"}
{"timestamp":"2016-10-08T03:20:00+0200","id":124008,"name":"Johann","coordinate":{"longitude":11.50979996,"latitude":48.04529953},"fuelLevel":0.87,"lastAddress":"Seitnerstraße 70, 82049 Pullach im Isartal, Germany"}
{"timestamp":"2016-10-08T03:20:00+0200","id":124039,"name":"Marie","coordinate":{"longitude":11.50969982,"latitude":48.04539871},"fuelLevel":0.58,"lastAddress":"Seitnerstraße 70, 82049 Pullach im Isartal, Germany"}
{"timestamp":"2016-10-08T03:20:00+0200","id":124009,"name":"Ludwig","coordinate":{"longitude":11.58500004,"latitude":48.16239929},"fuelLevel":0.8999999999999999,"lastAddress":"Siegfriedstraße 3, 80803 München, Germany"}
{"timestamp":"2016-10-08T03:20:00+0200","id":124007,"name":"Jakob","coordinate":{"longitude":11.57439995,"latitude":48.16669846},"fuelLevel":0.9400000000000001,"lastAddress":"Belgradstraße 56, 80796 München, Germany"}