{"timestamp":"2016-10-21T02:25:32+0200","id":124041,"name":"Sophie","coordinate":{"longitude":11.58049965,"latitude":48.15140152},"fuelLevel":0.78,"lastAddress":"Hauptgebäude, Geschwister-Scholl-Platz 1, 80539 München, Germany"}
{"timestamp":"2016-10-21T02:25:32+0200","id":124026,"name":"Eva","coordinate":{"longitude":11.58069992,"latitude":48.15000153},"fuelLevel":0.9199999999999999,"lastAddress":"Hauptgebäude, Geschwister-Scholl-Platz 1, 80539 München, Germany"}
{"timestamp":"2016-10-21T02:25:32+0200","id":124025,"name":"Elli","coordinate":{"longitude":11.5795002,"latitude":48.15589905},"fuelLevel":0.8300000000000001,"lastAddress":"Friedrichstraße 9, 80801 München, Germany"}
{"timestamp":"2016-10-21T02:25:32+0200","id":124044,"name":"Uschi","coordinate":{"longitude":11.57229996,"latitude":48.13199997},"fuelLevel":0.71,"lastAddress":"Müllerstraße 20, 80469 München, Germany"}
{"timestamp":"2016-10-21T02:25:32+0200","id":124040,"name":"Reserl","coordinate":{"longitude":11.57269955,"latitude":48.13259888},"fuelLevel":0.77,"lastAddress":"Theklastraße 1, 80469 München, Germany"}
{"timestamp":"2016-10-21T02:25:32+0200","id":124014,"name":"Quirin","coordinate":{"longitude":11.59710026,"latitude":48.13430023},"fuelLevel":0.5299999999999999,"lastAddress":"Innere Wiener Straße 52, 81667 München, Germany"}
{"timestamp":"2016-10-21T02:25:32+0200","id":124034,"name":"Kathi","coordinate":{"longitude":11.60900021,"latitude":48.13299942},"fuelLevel":0.57,"lastAddress":"Kirchenstraße 89, 81675 München, Germany"}
{"timestamp":"2016-10-21T02:25:32+0200","id":124016,"name":"Sepp","coordinate":{"longitude":11.59749985,"latitude":48.12649918},"fuelLevel":0.86,"lastAddress":"Rosenheimer Str. 113, 81669 München, Germany"}
{"timestamp":"2016-10-21T02:25:32+0200","id":124013,"name":"Poldi","coordinate":{"longitude":11.59430027,"latitude":48.12799835},"fuelLevel":0.61,"lastAddress":"Rosenheimer Pl. 2, 81669 München, Germany"}
{"timestamp":"2016-10-21T02:25:32+0200","id":124011,"name":"Maxl","coordinate":{"longitude":11.59759998,"latitude":48.12400055},"fuelLevel":0.61,"lastAddress":"Orleansstraße 4, 81669 München, Germany"}
{"timestamp":"2016-10-21T02:25:32+0200","id":124003,"name":"Franzl","coordinate":{"longitude":11.59329987,"latitude":48.1271019},"fuelLevel":0.7799999999999999,"lastAddress":"Franziskanerstraße 17, 81669 München, Germany"}
{"timestamp":"2016-10-21T02:25:32+0200","id":124010,"name":"Luitpold","coordinate":{"longitude":11.58759975,"latitude":48.12770081},"fuelLevel":0.87,"lastAddress":"Hochstraße 19, 81669 München, Germany"}
{"timestamp":"2016-10-21T02:25:32+0200","id":124020,"name":"Vinzenz","coordinate":{"longitude":11.57800007,"latitude":48.12540054},"fuelLevel":0.75,"lastAddress":"Boosstraße 7, 81541 München, Germany"}
{"timestamp":"2016-10-21T02:25:32+0200","id":124049,"name":"Marei","coordinate":{"longitude":11.57409954,"latitude":48.12229919},"fuelLevel":0.9400000000000001,"lastAddress":"Sommerstraße 8, 81543 München, Germany"}
{"timestamp":"2016-10-21T02:25:32+0200","id":124045,"name":"Vroni","coordinate":{"longitude":11.56529999,"latitude":48.12409973},"fuelLevel":0.64,"lastAddress":"Kapuzinerstraße 39, 80469 München, Germany"}
{"timestamp":"2016-10-21T02:25:32+0200","id":124018,"name":"Toni","coordinate":{"longitude":11.56970024,"latitude":48.12900162},"fuelLevel":0.6499999999999999,"lastAddress":"Hans-Sachs-Straße 15-17, 80469 München, Germany"}
{"timestamp":"2016-10-21T02:25:32+0200","id":124004,"name":"Fridl","coordinate":{"longitude":11.55550003,"latitude":48.15539932},"fuelLevel":0.58,"lastAddress":"Lothstraße 34, 80335 München, Germany"}
{"timestamp":"2016-10-21T02:25:32+0200","id":124031,"name":"Heidi","coordinate":{"longitude":11.56309986,"latitude":48.14989853},"fuelLevel":0.62,"lastAddress":"Augustenstraße 63, 80333 München, Germany"}
{"timestamp":"2016-10-21T02:25:32+0200","id":124048,"name":"Wiggerl","coordinate":{"longitude":11.58310032,"latitude":48.15840149},"fuelLevel":0.63,"lastAddress":"Ainmillerstraße 7, 80801 München, Germany"}
{"timestamp":"2016-10-21T02:25:32+0200","id":124028,"name":"Gitte","coordinate":{"longitude":11.57549953,"latitude":48.16059875},"fuelLevel":0.7200000000000001,"lastAddress":"Hohenzollernstraße 84, 80801 München, Germany"}
{"timestamp":"2016-10-21T02:25:32+0200","id":124017,"name":"Siggi","coordinate":{"longitude":11.56779957,"latitude":48.15940094},"fuelLevel":0.54,"lastAddress":"Elisabethstraße 40, 80796 München, Germany"}
{"timestamp":"2016-10-21T02:25:32+0200","id":124024,"name":"Christl","coordinate":{"longitude":11.50570011,"latitude":48.04439926},"fuelLevel":0.125,"lastAddress":"Dr.-Carl-von-Linde-Straße 6-14, 82049 Pullach im Isartal, Germany"}
{"timestamp":"2016-10-21T02:25:32+0200","id":124009,"name":"Ludwig","coordinate":{"longitude":11.5862999,"latitude":48.1651001},"fuelLevel":0.59,"lastAddress":"Leopoldstraße 104-106, 80802 München, Germany"}
{"timestamp":"2016-10-21T02:25:32+0200","id":124007,"name":"Jakob","coordinate":{"longitude":11.57369995,"latitude":48.16749573},"fuelLevel":0.8999999999999999,"lastAddress":"Belgradstraße 71, 80804 München, Germany"}