{"timestamp":"2016-10-19T21:15:00+0200","id":124041,"name":"Sophie","coordinate":{"longitude":11.58100033,"latitude":48.1515007},"fuelLevel":0.78,"lastAddress":"Adalbertstraße 8A, 80799 München, Germany"}
{"timestamp":"2016-10-19T21:15:00+0200","id":124026,"name":"Eva","coordinate":{"longitude":11.58090019,"latitude":48.14989853},"fuelLevel":0.9199999999999999,"lastAddress":"Ludwigstraße 24, 80539 München, Germany"}
{"timestamp":"2016-10-19T21:15:00+0200","id":124025,"name":"Elli","coordinate":{"longitude":11.57940006,"latitude":48.15620041},"fuelLevel":0.8300000000000001,"lastAddress":"Friedrichstraße 9, 80801 München, Germany"}
{"timestamp":"2016-10-19T21:15:00+0200","id":124044,"name":"Uschi","coordinate":{"longitude":11.57260036,"latitude":48.13180161},"fuelLevel":0.71,"lastAddress":"Müllerstraße 9, 80469 München, Germany"}
{"timestamp":"2016-10-19T21:15:00+0200","id":124040,"name":"Reserl","coordinate":{"longitude":11.57250023,"latitude":48.13270187},"fuelLevel":0.77,"lastAddress":"Theklastraße 1, 80469 München, Germany"}
{"timestamp":"2016-10-19T21:15:00+0200","id":124014,"name":"Quirin","coordinate":{"longitude":11.59749985,"latitude":48.13460159},"fuelLevel":0.57,"lastAddress":"Innere Wiener Straße 58, 81667 München, Germany"}
{"timestamp":"2016-10-19T21:15:00+0200","id":124034,"name":"Kathi","coordinate":{"longitude":11.60890007,"latitude":48.13299942},"fuelLevel":0.57,"lastAddress":"Kirchenstraße 89, 81675 München, Germany"}
{"timestamp":"2016-10-19T21:15:00+0200","id":124013,"name":"Poldi","coordinate":{"longitude":11.59440041,"latitude":48.12760162},"fuelLevel":0.61,"lastAddress":"Balanstraße 6A, 81669 München, Germany"}
{"timestamp":"2016-10-19T21:15:00+0200","id":124011,"name":"Maxl","coordinate":{"longitude":11.59500027,"latitude":48.12760162},"fuelLevel":0.6699999999999999,"lastAddress":"Rosenheimer Str. 66, 81669 München, Germany"}
{"timestamp":"2016-10-19T21:15:00+0200","id":124003,"name":"Franzl","coordinate":{"longitude":11.59300041,"latitude":48.12689972},"fuelLevel":0.7799999999999999,"lastAddress":"Franziskanerstraße 19, 81669 München, Germany"}
{"timestamp":"2016-10-19T21:15:00+0200","id":124010,"name":"Luitpold","coordinate":{"longitude":11.58759975,"latitude":48.12760162},"fuelLevel":0.87,"lastAddress":"Hochstraße 19, 81669 München, Germany"}
{"timestamp":"2016-10-19T21:15:00+0200","id":124020,"name":"Vinzenz","coordinate":{"longitude":11.57820034,"latitude":48.12530136},"fuelLevel":0.75,"lastAddress":"Asamstraße 6, 81541 München, Germany"}
{"timestamp":"2016-10-19T21:15:00+0200","id":124049,"name":"Marei","coordinate":{"longitude":11.57409954,"latitude":48.12250137},"fuelLevel":0.9400000000000001,"lastAddress":"Eduard-Schmid-Straße 34, 81541 München, Germany"}
{"timestamp":"2016-10-19T21:15:00+0200","id":124045,"name":"Vroni","coordinate":{"longitude":11.56509972,"latitude":48.12379837},"fuelLevel":0.64,"lastAddress":"Kapuzinerstraße 46, 80469 München, Germany"}
{"timestamp":"2016-10-19T21:15:00+0200","id":124018,"name":"Toni","coordinate":{"longitude":11.57050037,"latitude":48.1291008},"fuelLevel":0.6499999999999999,"lastAddress":"Jahnstraße 21, 80469 München, Germany"}
{"timestamp":"2016-10-19T21:15:00+0200","id":124004,"name":"Fridl","coordinate":{"longitude":11.55580044,"latitude":48.15510178},"fuelLevel":0.58,"lastAddress":"Lothstraße 64, 80335 München, Germany"}
{"timestamp":"2016-10-19T21:15:00+0200","id":124031,"name":"Heidi","coordinate":{"longitude":11.56369972,"latitude":48.14960098},"fuelLevel":0.62,"lastAddress":"Augustenstraße 72, 80333 München, Germany"}
{"timestamp":"2016-10-19T21:15:00+0200","id":124047,"name":"Walli","coordinate":{"longitude":11.57209969,"latitude":48.1495018},"fuelLevel":0.6499999999999999,"lastAddress":"Barer Str. 29, 80799 München, Germany"}
{"timestamp":"2016-10-19T21:15:00+0200","id":124028,"name":"Gitte","coordinate":{"longitude":11.57590008,"latitude":48.16030121},"fuelLevel":0.7200000000000001,"lastAddress":"Hohenzollernstraße 76-78, 80801 München, Germany"}
{"timestamp":"2016-10-19T21:15:00+0200","id":124032,"name":"Irmi","coordinate":{"longitude":11.57059956,"latitude":48.1590004},"fuelLevel":0.9400000000000001,"lastAddress":"Jakob-Klar-Straße 1A, 80796 München, Germany"}
{"timestamp":"2016-10-19T21:15:00+0200","id":124037,"name":"Luise","coordinate":{"longitude":11.57199955,"latitude":48.15719986},"fuelLevel":0.9500000000000001,"lastAddress":"Agnesstraße 6, 80801 München, Germany"}
{"timestamp":"2016-10-19T21:15:00+0200","id":124017,"name":"Siggi","coordinate":{"longitude":11.57250023,"latitude":48.16059875},"fuelLevel":0.56,"lastAddress":"Hohenzollernstraße 102, 80796 München, Germany"}
{"timestamp":"2016-10-19T21:15:00+0200","id":124029,"name":"Hannah","coordinate":{"longitude":11.51000023,"latitude":48.04560089},"fuelLevel":0.59,"lastAddress":"Gistlstraße 159, 82049 Pullach im Isartal, Germany"}
{"timestamp":"2016-10-19T21:15:00+0200","id":124009,"name":"Ludwig","coordinate":{"longitude":11.58619976,"latitude":48.16490173},"fuelLevel":0.59,"lastAddress":"Leopoldstraße 102, 80802 München, Germany"}
{"timestamp":"2016-10-19T21:15:00+0200","id":124007,"name":"Jakob","coordinate":{"longitude":11.57450008,"latitude":48.16730118},"fuelLevel":0.9500000000000001,"lastAddress":"Karl-Theodor-Straße 82, 80803 München, Germany"}