{"timestamp":"2016-10-11T09:05:00+0200","id":124041,"name":"Sophie","coordinate":{"longitude":11.57849979,"latitude":48.15029907},"fuelLevel":0.9400000000000001,"lastAddress":"Amalienstraße 54, 80799 München, Germany"}
{"timestamp":"2016-10-11T09:05:00+0200","id":124026,"name":"Eva","coordinate":{"longitude":11.57839966,"latitude":48.15359879},"fuelLevel":0.61,"lastAddress":"Türkenstraße 95, 80799 München, Germany"}
{"timestamp":"2016-10-11T09:05:00+0200","id":124025,"name":"Elli","coordinate":{"longitude":11.57610035,"latitude":48.1576004},"fuelLevel":0.9,"lastAddress":"Franz-Joseph-Straße 43, 80801 München, Germany"}
{"timestamp":"2016-10-11T09:05:00+0200","id":124033,"name":"Johanna","coordinate":{"longitude":11.58080006,"latitude":48.15219879},"fuelLevel":0.76,"lastAddress":"Akademiestraße 5, 80799 München, Germany"}
{"timestamp":"2016-10-11T09:05:00+0200","id":124036,"name":"Liesel","coordinate":{"longitude":11.58139992,"latitude":48.15069962},"fuelLevel":0.5900000000000001,"lastAddress":"Ludwigstraße 29, 80539 München, Germany"}
{"timestamp":"2016-10-11T09:05:00+0200","id":124044,"name":"Uschi","coordinate":{"longitude":11.57250023,"latitude":48.13209915},"fuelLevel":0.9199999999999999,"lastAddress":"Müllerstraße 20, 80469 München, Germany"}
{"timestamp":"2016-10-11T09:05:00+0200","id":124024,"name":"Christl","coordinate":{"longitude":11.57520008,"latitude":48.13439941},"fuelLevel":0.69,"lastAddress":"Blumenstraße 1a, 80469 München, Germany"}
{"timestamp":"2016-10-11T09:05:00+0200","id":124040,"name":"Reserl","coordinate":{"longitude":11.57190037,"latitude":48.13150024},"fuelLevel":0.83,"lastAddress":"Müllerstraße 17, 80469 München, Germany"}
{"timestamp":"2016-10-11T09:05:00+0200","id":124021,"name":"Xaver","coordinate":{"longitude":11.58030033,"latitude":48.13010025},"fuelLevel":0.9199999999999999,"lastAddress":"Erhardtstraße 27, 80469 München, Germany"}
{"timestamp":"2016-10-11T09:05:00+0200","id":124014,"name":"Quirin","coordinate":{"longitude":11.60499954,"latitude":48.13270187},"fuelLevel":0.6000000000000001,"lastAddress":"Elsässer Str. 2, 81667 München, Germany"}
{"timestamp":"2016-10-11T09:05:00+0200","id":124034,"name":"Kathi","coordinate":{"longitude":11.60459995,"latitude":48.13000107},"fuelLevel":0.81,"lastAddress":"Elsässer Str. 28, 81667 München, Germany"}
{"timestamp":"2016-10-11T09:05:00+0200","id":124023,"name":"Babsi","coordinate":{"longitude":11.56169987,"latitude":48.12630081},"fuelLevel":0.9,"lastAddress":"Thalkirchner Str. 78, 80337 München, Germany"}
{"timestamp":"2016-10-11T09:05:00+0200","id":124016,"name":"Sepp","coordinate":{"longitude":11.60249996,"latitude":48.12929916},"fuelLevel":0.9099999999999999,"lastAddress":"Wörthstraße 47, 81667 München, Germany"}
{"timestamp":"2016-10-11T09:05:00+0200","id":124038,"name":"Magda","coordinate":{"longitude":11.60029984,"latitude":48.12829971},"fuelLevel":0.67,"lastAddress":"Pariser Pl., 81667 München, Germany"}
{"timestamp":"2016-10-11T09:05:00+0200","id":124022,"name":"Anne","coordinate":{"longitude":11.59609985,"latitude":48.12670135},"fuelLevel":0.8300000000000001,"lastAddress":"Pariser Str. 5, 81669 München, Germany"}
{"timestamp":"2016-10-11T09:05:00+0200","id":124000,"name":"Bertl","coordinate":{"longitude":11.59739971,"latitude":48.12480164},"fuelLevel":0.8,"lastAddress":"Orleansstraße 3, 81669 München, Germany"}
{"timestamp":"2016-10-11T09:05:00+0200","id":124013,"name":"Poldi","coordinate":{"longitude":11.59430027,"latitude":48.12779999},"fuelLevel":0.79,"lastAddress":"Balanstraße 4, 81669 München, Germany"}
{"timestamp":"2016-10-11T09:05:00+0200","id":124011,"name":"Maxl","coordinate":{"longitude":11.59500027,"latitude":48.12749863},"fuelLevel":0.6699999999999999,"lastAddress":"Balanstraße 9, 81669 München, Germany"}
{"timestamp":"2016-10-11T09:05:00+0200","id":124003,"name":"Franzl","coordinate":{"longitude":11.59290028,"latitude":48.12730026},"fuelLevel":0.8,"lastAddress":"Rablstraße 37, 81669 München, Germany"}
{"timestamp":"2016-10-11T09:05:00+0200","id":124010,"name":"Luitpold","coordinate":{"longitude":11.58450031,"latitude":48.12749863},"fuelLevel":0.9500000000000001,"lastAddress":"Lilienstraße 75, 81669 München, Germany"}
{"timestamp":"2016-10-11T09:05:00+0200","id":124019,"name":"Valentin","coordinate":{"longitude":11.58520031,"latitude":48.12350082},"fuelLevel":0.87,"lastAddress":"Hochstraße 49C, 81541 München, Germany"}
{"timestamp":"2016-10-11T09:05:00+0200","id":124035,"name":"Leonie","coordinate":{"longitude":11.5855999,"latitude":48.12929916},"fuelLevel":0.76,"lastAddress":"Schwarzstraße 1, 81669 München, Germany"}
{"timestamp":"2016-10-11T09:05:00+0200","id":124006,"name":"Gustl","coordinate":{"longitude":11.57460022,"latitude":48.12020111},"fuelLevel":0.9500000000000001,"lastAddress":"Oefelestraße 5, 81543 München, Germany"}
{"timestamp":"2016-10-11T09:05:00+0200","id":124020,"name":"Vinzenz","coordinate":{"longitude":11.57789993,"latitude":48.1228981},"fuelLevel":0.8999999999999999,"lastAddress":"Entenbachstraße 26, 81541 München, Germany"}
{"timestamp":"2016-10-11T09:05:00+0200","id":124049,"name":"Marei","coordinate":{"longitude":11.57229996,"latitude":48.12049866},"fuelLevel":0.52,"lastAddress":"Sommerstraße 26, 81543 München, Germany"}
{"timestamp":"2016-10-11T09:05:00+0200","id":124045,"name":"Vroni","coordinate":{"longitude":11.5649004,"latitude":48.12409973},"fuelLevel":0.6499999999999999,"lastAddress":"Kapuzinerstraße 37, 80469 München, Germany"}
{"timestamp":"2016-10-11T09:05:00+0200","id":124018,"name":"Toni","coordinate":{"longitude":11.56989956,"latitude":48.12950134},"fuelLevel":0.66,"lastAddress":"Hans-Sachs-Straße 9-11, 80469 München, Germany"}
{"timestamp":"2016-10-11T09:05:00+0200","id":124012,"name":"Peter","coordinate":{"longitude":11.55720043,"latitude":48.15629959},"fuelLevel":0.9600000000000001,"lastAddress":"Lothstraße 21, 80797 München, Germany"}
{"timestamp":"2016-10-11T09:05:00+0200","id":124004,"name":"Fridl","coordinate":{"longitude":11.55650043,"latitude":48.15470123},"fuelLevel":0.9600000000000001,"lastAddress":"Heßstraße 110, 80797 München, Germany"}
{"timestamp":"2016-10-11T09:05:00+0200","id":124031,"name":"Heidi","coordinate":{"longitude":11.56669998,"latitude":48.15169907},"fuelLevel":0.6499999999999999,"lastAddress":"Heßstraße 23, 80798 München, Germany"}
{"timestamp":"2016-10-11T09:05:00+0200","id":124047,"name":"Walli","coordinate":{"longitude":11.5703001,"latitude":48.14960098},"fuelLevel":0.71,"lastAddress":"Theresienstraße, 80333 München, Germany"}
{"timestamp":"2016-10-11T09:05:00+0200","id":124002,"name":"Ferdl","coordinate":{"longitude":11.56709957,"latitude":48.15179825},"fuelLevel":0.9861111111111112,"lastAddress":"Heßstraße 38, 80798 München, Germany"}
{"timestamp":"2016-10-11T09:05:00+0200","id":124048,"name":"Wiggerl","coordinate":{"longitude":11.57890034,"latitude":48.16149902},"fuelLevel":0.68,"lastAddress":"Kaiserstraße 38, 80801 München, Germany"}
{"timestamp":"2016-10-11T09:05:00+0200","id":124028,"name":"Gitte","coordinate":{"longitude":11.57740021,"latitude":48.16080093},"fuelLevel":0.75,"lastAddress":"Römerstraße 23, 80801 München, Germany"}
{"timestamp":"2016-10-11T09:05:00+0200","id":124027,"name":"Fanni","coordinate":{"longitude":11.57769966,"latitude":48.15909958},"fuelLevel":0.7899999999999999,"lastAddress":"Ainmillerstraße 42, 80801 München, Germany"}
{"timestamp":"2016-10-11T09:05:00+0200","id":124005,"name":"Georg","coordinate":{"longitude":11.57540035,"latitude":48.16189957},"fuelLevel":0.56,"lastAddress":"Viktor-Scheffel-Straße 21, 80803 München, Germany"}
{"timestamp":"2016-10-11T09:05:00+0200","id":124001,"name":"Edmund","coordinate":{"longitude":11.57900047,"latitude":48.15769958},"fuelLevel":0.5700000000000001,"lastAddress":"Franz-Joseph-Straße 27, 80801 München, Germany"}
{"timestamp":"2016-10-11T09:05:00+0200","id":124037,"name":"Luise","coordinate":{"longitude":11.57040024,"latitude":48.15739822},"fuelLevel":0.52,"lastAddress":"Agnesstraße 12, 80798 München, Germany"}
{"timestamp":"2016-10-11T09:05:00+0200","id":124017,"name":"Siggi","coordinate":{"longitude":11.57089996,"latitude":48.16130066},"fuelLevel":0.56,"lastAddress":"Emanuelstraße 17, 80796 München, Germany"}
{"timestamp":"2016-10-11T09:05:00+0200","id":124029,"name":"Hannah","coordinate":{"longitude":11.51019955,"latitude":48.04539871},"fuelLevel":0.7,"lastAddress":"Gistlstraße 159, 82049 Pullach im Isartal, Germany"}
{"timestamp":"2016-10-11T09:05:00+0200","id":124008,"name":"Johann","coordinate":{"longitude":11.50990009,"latitude":48.04550171},"fuelLevel":0.87,"lastAddress":"Gistlstraße 159, 82049 Pullach im Isartal, Germany"}
{"timestamp":"2016-10-11T09:05:00+0200","id":124039,"name":"Marie","coordinate":{"longitude":11.50959969,"latitude":48.04550171},"fuelLevel":0.58,"lastAddress":"Seitnerstraße 70, 82049 Pullach im Isartal, Germany"}
{"timestamp":"2016-10-11T09:05:00+0200","id":124009,"name":"Ludwig","coordinate":{"longitude":11.5848999,"latitude":48.16139984},"fuelLevel":0.8999999999999999,"lastAddress":"Leopoldstraße 61, 80802 München, Germany"}
{"timestamp":"2016-10-11T09:05:00+0200","id":124007,"name":"Jakob","coordinate":{"longitude":11.57450008,"latitude":48.16740036},"fuelLevel":0.68,"lastAddress":"Karl-Theodor-Straße 82, 80803 München, Germany"}