{"timestamp":"2016-09-29T17:25:00+0200","id":124041,"name":"Sophie","coordinate":{"longitude":11.57769966,"latitude":48.14979935},"fuelLevel":0.93,"lastAddress":"Schellingstraße 16, 80799 München, Germany"}
{"timestamp":"2016-09-29T17:25:00+0200","id":124026,"name":"Eva","coordinate":{"longitude":11.5781002,"latitude":48.15380096},"fuelLevel":0.61,"lastAddress":"Rambergstraße 4, 80799 München, Germany"}
{"timestamp":"2016-09-29T17:25:00+0200","id":124033,"name":"Johanna","coordinate":{"longitude":11.58119965,"latitude":48.15259933},"fuelLevel":0.88,"lastAddress":"Akademiestraße 5, 80799 München, Germany"}
{"timestamp":"2016-09-29T17:25:00+0200","id":124036,"name":"Liesel","coordinate":{"longitude":11.57520008,"latitude":48.15629959},"fuelLevel":0.6699999999999999,"lastAddress":"Nordendstraße 36, 80801 München, Germany"}
{"timestamp":"2016-09-29T17:25:00+0200","id":124024,"name":"Christl","coordinate":{"longitude":11.57929993,"latitude":48.13370132},"fuelLevel":0.8,"lastAddress":"Klenzestraße 2, 80469 München, Germany"}
{"timestamp":"2016-09-29T17:25:00+0200","id":124040,"name":"Reserl","coordinate":{"longitude":11.57890034,"latitude":48.1310997},"fuelLevel":0.79,"lastAddress":"Baaderstraße 38, 80469 München, Germany"}
{"timestamp":"2016-09-29T17:25:00+0200","id":124021,"name":"Xaver","coordinate":{"longitude":11.58049965,"latitude":48.13209915},"fuelLevel":0.52,"lastAddress":"Baaderstraße 2, 80469 München, Germany"}
{"timestamp":"2016-09-29T17:25:00+0200","id":124034,"name":"Kathi","coordinate":{"longitude":11.60519981,"latitude":48.13230133},"fuelLevel":0.67,"lastAddress":"Elsässer Str. 4, 81667 München, Germany"}
{"timestamp":"2016-09-29T17:25:00+0200","id":124030,"name":"Hedwig","coordinate":{"longitude":11.56739998,"latitude":48.13119888},"fuelLevel":0.89,"lastAddress":"Pestalozzistraße 12, 80469 München, Germany"}
{"timestamp":"2016-09-29T17:25:00+0200","id":124023,"name":"Babsi","coordinate":{"longitude":11.5635004,"latitude":48.1271019},"fuelLevel":0.93,"lastAddress":"Thalkirchner Str. 54, 80337 München, Germany"}
{"timestamp":"2016-09-29T17:25:00+0200","id":124016,"name":"Sepp","coordinate":{"longitude":11.59889984,"latitude":48.12590027},"fuelLevel":0.9199999999999999,"lastAddress":"Rosenheimer Str. 125, 81667 München, Germany"}
{"timestamp":"2016-09-29T17:25:00+0200","id":124038,"name":"Magda","coordinate":{"longitude":11.60079956,"latitude":48.12810135},"fuelLevel":0.76,"lastAddress":"Weißenburger Str. 38, 81667 München, Germany"}
{"timestamp":"2016-09-29T17:25:00+0200","id":124022,"name":"Anne","coordinate":{"longitude":11.59720039,"latitude":48.12659836},"fuelLevel":0.8900000000000001,"lastAddress":"Rosenheimer Str. 90, 81667 München, Germany"}
{"timestamp":"2016-09-29T17:25:00+0200","id":124000,"name":"Bertl","coordinate":{"longitude":11.59490013,"latitude":48.12960052},"fuelLevel":0.84,"lastAddress":"Steinstraße 77, 81667 München, Germany"}
{"timestamp":"2016-09-29T17:25:00+0200","id":124011,"name":"Maxl","coordinate":{"longitude":11.59280014,"latitude":48.12580109},"fuelLevel":0.8099999999999999,"lastAddress":"Sieboldstraße 2, 81669 München, Germany"}
{"timestamp":"2016-09-29T17:25:00+0200","id":124003,"name":"Franzl","coordinate":{"longitude":11.59290028,"latitude":48.12749863},"fuelLevel":0.79,"lastAddress":"Franziskanerstraße 8, 81669 München, Germany"}
{"timestamp":"2016-09-29T17:25:00+0200","id":124010,"name":"Luitpold","coordinate":{"longitude":11.58609962,"latitude":48.12580109},"fuelLevel":0.88,"lastAddress":"Gebsattelstraße 2, 81541 München, Germany"}
{"timestamp":"2016-09-29T17:25:00+0200","id":124019,"name":"Valentin","coordinate":{"longitude":11.5848999,"latitude":48.12369919},"fuelLevel":0.9199999999999999,"lastAddress":"Hochstraße 49C, 81541 München, Germany"}
{"timestamp":"2016-09-29T17:25:00+0200","id":124035,"name":"Leonie","coordinate":{"longitude":11.58580017,"latitude":48.12939835},"fuelLevel":0.7899999999999999,"lastAddress":"Schwarzstraße 1, 81669 München, Germany"}
{"timestamp":"2016-09-29T17:25:00+0200","id":124006,"name":"Gustl","coordinate":{"longitude":11.57740021,"latitude":48.12080002},"fuelLevel":0.93,"lastAddress":"Falkenstraße 46, 81541 München, Germany"}
{"timestamp":"2016-09-29T17:25:00+0200","id":124049,"name":"Marei","coordinate":{"longitude":11.57409954,"latitude":48.12020111},"fuelLevel":0.7200000000000001,"lastAddress":"Oefelestraße 12, 81543 München, Germany"}
{"timestamp":"2016-09-29T17:25:00+0200","id":124045,"name":"Vroni","coordinate":{"longitude":11.56709957,"latitude":48.12779999},"fuelLevel":0.9199999999999999,"lastAddress":"Pestalozzistraße 54, 80469 München, Germany"}
{"timestamp":"2016-09-29T17:25:00+0200","id":124018,"name":"Toni","coordinate":{"longitude":11.56879997,"latitude":48.12630081},"fuelLevel":0.9500000000000001,"lastAddress":"Baumstraße 21, 80469 München, Germany"}
{"timestamp":"2016-09-29T17:25:00+0200","id":124004,"name":"Fridl","coordinate":{"longitude":11.56579971,"latitude":48.15650177},"fuelLevel":0.55,"lastAddress":"Hiltenspergerstraße 15, 80798 München, Germany"}
{"timestamp":"2016-09-29T17:25:00+0200","id":124031,"name":"Heidi","coordinate":{"longitude":11.56659985,"latitude":48.15010071},"fuelLevel":0.8,"lastAddress":"Luisenstraße 55, 80333 München, Germany"}
{"timestamp":"2016-09-29T17:25:00+0200","id":124002,"name":"Ferdl","coordinate":{"longitude":11.56379986,"latitude":48.15129852},"fuelLevel":0.9500000000000001,"lastAddress":"Theresienstraße 128, 80333 München, Germany"}
{"timestamp":"2016-09-29T17:25:00+0200","id":124048,"name":"Wiggerl","coordinate":{"longitude":11.57670021,"latitude":48.15890121},"fuelLevel":0.7200000000000001,"lastAddress":"Ainmillerstraße 35, 80801 München, Germany"}
{"timestamp":"2016-09-29T17:25:00+0200","id":124028,"name":"Gitte","coordinate":{"longitude":11.57989979,"latitude":48.15990067},"fuelLevel":0.77,"lastAddress":"Friedrichstraße 27, 80801 München, Germany"}
{"timestamp":"2016-09-29T17:25:00+0200","id":124027,"name":"Fanni","coordinate":{"longitude":11.5770998,"latitude":48.15980148},"fuelLevel":0.8099999999999999,"lastAddress":"Römerstraße 17, 80801 München, Germany"}
{"timestamp":"2016-09-29T17:25:00+0200","id":124005,"name":"Georg","coordinate":{"longitude":11.58090019,"latitude":48.15869904},"fuelLevel":0.69,"lastAddress":"Ainmillerstraße 17, 80801 München, Germany"}
{"timestamp":"2016-09-29T17:25:00+0200","id":124001,"name":"Edmund","coordinate":{"longitude":11.57830048,"latitude":48.15769958},"fuelLevel":0.62,"lastAddress":"Franz-Joseph-Straße 33, 80801 München, Germany"}
{"timestamp":"2016-09-29T17:25:00+0200","id":124032,"name":"Irmi","coordinate":{"longitude":11.57299995,"latitude":48.16030121},"fuelLevel":0.64,"lastAddress":"Isabellastraße 49, 80796 München, Germany"}
{"timestamp":"2016-09-29T17:25:00+0200","id":124037,"name":"Luise","coordinate":{"longitude":11.56620026,"latitude":48.15810013},"fuelLevel":0.9027777777777778,"lastAddress":"Hiltenspergerstraße 25, 80798 München, Germany"}
{"timestamp":"2016-09-29T17:25:00+0200","id":124017,"name":"Siggi","coordinate":{"longitude":11.57069969,"latitude":48.16080093},"fuelLevel":0.56,"lastAddress":"Hohenzollernstraße 81, 80796 München, Germany"}
{"timestamp":"2016-09-29T17:25:00+0200","id":124029,"name":"Hannah","coordinate":{"longitude":11.51010036,"latitude":48.04539871},"fuelLevel":0.7,"lastAddress":"Gistlstraße 159, 82049 Pullach im Isartal, Germany"}
{"timestamp":"2016-09-29T17:25:00+0200","id":124042,"name":"Tilli","coordinate":{"longitude":11.50940037,"latitude":48.04560089},"fuelLevel":0.77,"lastAddress":"Franz-Höllriegel-Straße, 82049 Pullach im Isartal, Germany"}
{"timestamp":"2016-09-29T17:25:00+0200","id":124009,"name":"Ludwig","coordinate":{"longitude":11.57890034,"latitude":48.16379929},"fuelLevel":0.9400000000000001,"lastAddress":"Clemensstraße 43, 80803 München, Germany"}
{"timestamp":"2016-09-29T17:25:00+0200","id":124007,"name":"Jakob","coordinate":{"longitude":11.58609962,"latitude":48.16389847},"fuelLevel":0.9500000000000001,"lastAddress":"Leopoldstraße 87, 80802 München, Germany"}