{"timestamp":"2016-10-05T06:00:00+0200","id":124041,"name":"Sophie","coordinate":{"longitude":11.57769966,"latitude":48.15010071},"fuelLevel":0.93,"lastAddress":"Schellingstraße 18, 80799 München, Germany"}
{"timestamp":"2016-10-05T06:00:00+0200","id":124026,"name":"Eva","coordinate":{"longitude":11.57820034,"latitude":48.15370178},"fuelLevel":0.61,"lastAddress":"Türkenstraße 95, 80799 München, Germany"}
{"timestamp":"2016-10-05T06:00:00+0200","id":124033,"name":"Johanna","coordinate":{"longitude":11.58180046,"latitude":48.15169907},"fuelLevel":0.84,"lastAddress":"Leopoldstraße 4, 80802 München, Germany"}
{"timestamp":"2016-10-05T06:00:00+0200","id":124036,"name":"Liesel","coordinate":{"longitude":11.57530022,"latitude":48.15629959},"fuelLevel":0.6699999999999999,"lastAddress":"Nordendstraße 36, 80801 München, Germany"}
{"timestamp":"2016-10-05T06:00:00+0200","id":124044,"name":"Uschi","coordinate":{"longitude":11.57250023,"latitude":48.13240051},"fuelLevel":0.9199999999999999,"lastAddress":"Blumenstraße 19, 80331 München, Germany"}
{"timestamp":"2016-10-05T06:00:00+0200","id":124024,"name":"Christl","coordinate":{"longitude":11.57940006,"latitude":48.13380051},"fuelLevel":0.8,"lastAddress":"Klenzestraße 2, 80469 München, Germany"}
{"timestamp":"2016-10-05T06:00:00+0200","id":124040,"name":"Reserl","coordinate":{"longitude":11.57339954,"latitude":48.13169861},"fuelLevel":0.8999999999999999,"lastAddress":"Müllerstraße 7, 80469 München, Germany"}
{"timestamp":"2016-10-05T06:00:00+0200","id":124021,"name":"Xaver","coordinate":{"longitude":11.58160019,"latitude":48.13069916},"fuelLevel":0.9500000000000001,"lastAddress":"Erhardtstraße 27, 80469 München, Germany"}
{"timestamp":"2016-10-05T06:00:00+0200","id":124014,"name":"Quirin","coordinate":{"longitude":11.60840034,"latitude":48.13259888},"fuelLevel":0.63,"lastAddress":"Kirchenstraße 88, 81675 München, Germany"}
{"timestamp":"2016-10-05T06:00:00+0200","id":124034,"name":"Kathi","coordinate":{"longitude":11.60480022,"latitude":48.13259888},"fuelLevel":0.67,"lastAddress":"Elsässer Str. 4, 81667 München, Germany"}
{"timestamp":"2016-10-05T06:00:00+0200","id":124030,"name":"Hedwig","coordinate":{"longitude":11.56330013,"latitude":48.12770081},"fuelLevel":0.9199999999999999,"lastAddress":"Waltherstraße 3, 80337 München, Germany"}
{"timestamp":"2016-10-05T06:00:00+0200","id":124023,"name":"Babsi","coordinate":{"longitude":11.56359959,"latitude":48.12730026},"fuelLevel":0.93,"lastAddress":"Thalkirchner Str. 54, 80337 München, Germany"}
{"timestamp":"2016-10-05T06:00:00+0200","id":124016,"name":"Sepp","coordinate":{"longitude":11.59799957,"latitude":48.12580109},"fuelLevel":0.9199999999999999,"lastAddress":"Bazeillesstraße 8, 81669 München, Germany"}
{"timestamp":"2016-10-05T06:00:00+0200","id":124038,"name":"Magda","coordinate":{"longitude":11.60050011,"latitude":48.12810135},"fuelLevel":0.67,"lastAddress":"Gravelottestraße 1, 81667 München, Germany"}
{"timestamp":"2016-10-05T06:00:00+0200","id":124022,"name":"Anne","coordinate":{"longitude":11.59640026,"latitude":48.1271019},"fuelLevel":0.87,"lastAddress":"Rosenheimer Str. 82, 81669 München, Germany"}
{"timestamp":"2016-10-05T06:00:00+0200","id":124000,"name":"Bertl","coordinate":{"longitude":11.59679985,"latitude":48.12960052},"fuelLevel":0.82,"lastAddress":"Kellerstraße 34, 81667 München, Germany"}
{"timestamp":"2016-10-05T06:00:00+0200","id":124013,"name":"Poldi","coordinate":{"longitude":11.59469986,"latitude":48.12770081},"fuelLevel":0.79,"lastAddress":"Metzstraße 1, 81667 München, Germany"}
{"timestamp":"2016-10-05T06:00:00+0200","id":124011,"name":"Maxl","coordinate":{"longitude":11.59290028,"latitude":48.12590027},"fuelLevel":0.7899999999999999,"lastAddress":"Sieboldstraße 5, 81669 München, Germany"}
{"timestamp":"2016-10-05T06:00:00+0200","id":124003,"name":"Franzl","coordinate":{"longitude":11.59309959,"latitude":48.12720108},"fuelLevel":0.79,"lastAddress":"Franziskanerstraße 17, 81669 München, Germany"}
{"timestamp":"2016-10-05T06:00:00+0200","id":124010,"name":"Luitpold","coordinate":{"longitude":11.58460045,"latitude":48.12779999},"fuelLevel":0.37,"lastAddress":"Lilienstraße 58, 81669 München, Germany"}
{"timestamp":"2016-10-05T06:00:00+0200","id":124035,"name":"Leonie","coordinate":{"longitude":11.58570004,"latitude":48.12929916},"fuelLevel":0.7899999999999999,"lastAddress":"Schwarzstraße 1, 81669 München, Germany"}
{"timestamp":"2016-10-05T06:00:00+0200","id":124006,"name":"Gustl","coordinate":{"longitude":11.5777998,"latitude":48.12120056},"fuelLevel":0.9400000000000001,"lastAddress":"Falkenstraße 42A, 81541 München, Germany"}
{"timestamp":"2016-10-05T06:00:00+0200","id":124020,"name":"Vinzenz","coordinate":{"longitude":11.57660007,"latitude":48.12440109},"fuelLevel":0.8999999999999999,"lastAddress":"Albanistraße 4, 81541 München, Germany"}
{"timestamp":"2016-10-05T06:00:00+0200","id":124049,"name":"Marei","coordinate":{"longitude":11.57460022,"latitude":48.11930084},"fuelLevel":0.69,"lastAddress":"Freibadstraße 23, 81543 München, Germany"}
{"timestamp":"2016-10-05T06:00:00+0200","id":124045,"name":"Vroni","coordinate":{"longitude":11.56719971,"latitude":48.12770081},"fuelLevel":0.9199999999999999,"lastAddress":"Pestalozzistraße 54, 80469 München, Germany"}
{"timestamp":"2016-10-05T06:00:00+0200","id":124018,"name":"Toni","coordinate":{"longitude":11.57040024,"latitude":48.13090134},"fuelLevel":0.9099999999999999,"lastAddress":"Müllerstraße 34, 80469 München, Germany"}
{"timestamp":"2016-10-05T06:00:00+0200","id":124012,"name":"Peter","coordinate":{"longitude":11.57240009,"latitude":48.15000153},"fuelLevel":1,"lastAddress":"Barer Str. 29, 80799 München, Germany"}
{"timestamp":"2016-10-05T06:00:00+0200","id":124004,"name":"Fridl","coordinate":{"longitude":11.56599998,"latitude":48.15660095},"fuelLevel":0.55,"lastAddress":"Hiltenspergerstraße 8, 80798 München, Germany"}
{"timestamp":"2016-10-05T06:00:00+0200","id":124031,"name":"Heidi","coordinate":{"longitude":11.56659985,"latitude":48.15000153},"fuelLevel":0.8,"lastAddress":"Luisenstraße 55, 80333 München, Germany"}
{"timestamp":"2016-10-05T06:00:00+0200","id":124047,"name":"Walli","coordinate":{"longitude":11.56989956,"latitude":48.15050125},"fuelLevel":0.83,"lastAddress":"Arcisstraße 32, 80799 München, Germany"}
{"timestamp":"2016-10-05T06:00:00+0200","id":124002,"name":"Ferdl","coordinate":{"longitude":11.56470013,"latitude":48.15200043},"fuelLevel":0.9500000000000001,"lastAddress":"Augustenstraße 93, 80798 München, Germany"}
{"timestamp":"2016-10-05T06:00:00+0200","id":124048,"name":"Wiggerl","coordinate":{"longitude":11.57890034,"latitude":48.16139984},"fuelLevel":0.68,"lastAddress":"Kaiserstraße 36, 80801 München, Germany"}
{"timestamp":"2016-10-05T06:00:00+0200","id":124028,"name":"Gitte","coordinate":{"longitude":11.57730007,"latitude":48.16019821},"fuelLevel":0.75,"lastAddress":"Hohenzollernstraße 70, 80801 München, Germany"}
{"timestamp":"2016-10-05T06:00:00+0200","id":124027,"name":"Fanni","coordinate":{"longitude":11.5777998,"latitude":48.15819931},"fuelLevel":0.7899999999999999,"lastAddress":"Franz-Joseph-Straße 36A, 80801 München, Germany"}
{"timestamp":"2016-10-05T06:00:00+0200","id":124005,"name":"Georg","coordinate":{"longitude":11.58150005,"latitude":48.1590004},"fuelLevel":0.66,"lastAddress":"Ainmillerstraße 20, 80801 München, Germany"}
{"timestamp":"2016-10-05T06:00:00+0200","id":124032,"name":"Irmi","coordinate":{"longitude":11.57320023,"latitude":48.16080093},"fuelLevel":0.64,"lastAddress":"Fallmerayerstraße 1, 80796 München, Germany"}
{"timestamp":"2016-10-05T06:00:00+0200","id":124037,"name":"Luise","coordinate":{"longitude":11.56630039,"latitude":48.15790176},"fuelLevel":0.58,"lastAddress":"Agnesstraße 38, 80798 München, Germany"}
{"timestamp":"2016-10-05T06:00:00+0200","id":124017,"name":"Siggi","coordinate":{"longitude":11.57089996,"latitude":48.16059875},"fuelLevel":0.56,"lastAddress":"Hohenzollernstraße 81, 80796 München, Germany"}
{"timestamp":"2016-10-05T06:00:00+0200","id":124029,"name":"Hannah","coordinate":{"longitude":11.51019955,"latitude":48.04520035},"fuelLevel":0.71,"lastAddress":"Gistlstraße 159, 82049 Pullach im Isartal, Germany"}
{"timestamp":"2016-10-05T06:00:00+0200","id":124008,"name":"Johann","coordinate":{"longitude":11.50979996,"latitude":48.04539871},"fuelLevel":0.87,"lastAddress":"Seitnerstraße 70, 82049 Pullach im Isartal, Germany"}
{"timestamp":"2016-10-05T06:00:00+0200","id":124039,"name":"Marie","coordinate":{"longitude":11.50930023,"latitude":48.04570007},"fuelLevel":0.58,"lastAddress":"Franz-Höllriegel-Straße, 82049 Pullach im Isartal, Germany"}
{"timestamp":"2016-10-05T06:00:00+0200","id":124009,"name":"Ludwig","coordinate":{"longitude":11.58469963,"latitude":48.16210175},"fuelLevel":0.8999999999999999,"lastAddress":"Herzogstraße 5-7, 80803 München, Germany"}
{"timestamp":"2016-10-05T06:00:00+0200","id":124007,"name":"Jakob","coordinate":{"longitude":11.57429981,"latitude":48.16730118},"fuelLevel":0.9400000000000001,"lastAddress":"Karl-Theodor-Straße 84, 80803 München, Germany"}