{"timestamp":"2016-10-15T21:05:00+0200","id":124041,"name":"Sophie","coordinate":{"longitude":11.5781002,"latitude":48.1534996},"fuelLevel":0.8300000000000001,"lastAddress":"Türkenstraße 93, 80799 München, Germany"}
{"timestamp":"2016-10-15T21:05:00+0200","id":124026,"name":"Eva","coordinate":{"longitude":11.57909966,"latitude":48.15209961},"fuelLevel":0.9400000000000001,"lastAddress":"Adalbertstraße 30, 80799 München, Germany"}
{"timestamp":"2016-10-15T21:05:00+0200","id":124033,"name":"Johanna","coordinate":{"longitude":11.57660007,"latitude":48.15019989},"fuelLevel":0.73,"lastAddress":"Schellingstraße 26-28, 80799 München, Germany"}
{"timestamp":"2016-10-15T21:05:00+0200","id":124040,"name":"Reserl","coordinate":{"longitude":11.57250023,"latitude":48.13209915},"fuelLevel":0.79,"lastAddress":"Müllerstraße 20, 80469 München, Germany"}
{"timestamp":"2016-10-15T21:05:00+0200","id":124021,"name":"Xaver","coordinate":{"longitude":11.5802002,"latitude":48.13019943},"fuelLevel":0.9199999999999999,"lastAddress":"Erhardtstraße 27, 80469 München, Germany"}
{"timestamp":"2016-10-15T21:05:00+0200","id":124014,"name":"Quirin","coordinate":{"longitude":11.59759998,"latitude":48.1344986},"fuelLevel":0.57,"lastAddress":"Innere Wiener Straße 56, 81667 München, Germany"}
{"timestamp":"2016-10-15T21:05:00+0200","id":124034,"name":"Kathi","coordinate":{"longitude":11.60910034,"latitude":48.1332016},"fuelLevel":0.57,"lastAddress":"Kirchenstraße 89A, 81675 München, Germany"}
{"timestamp":"2016-10-15T21:05:00+0200","id":124016,"name":"Sepp","coordinate":{"longitude":11.59809971,"latitude":48.12620163},"fuelLevel":0.88,"lastAddress":"Rosenheimer Str. 119, 81667 München, Germany"}
{"timestamp":"2016-10-15T21:05:00+0200","id":124038,"name":"Magda","coordinate":{"longitude":11.59990025,"latitude":48.1283989},"fuelLevel":0.67,"lastAddress":"Pariser Pl., 81667 München, Germany"}
{"timestamp":"2016-10-15T21:05:00+0200","id":124022,"name":"Anne","coordinate":{"longitude":11.60000038,"latitude":48.12590027},"fuelLevel":0.7999999999999999,"lastAddress":"Lothringer Str., 81667 München, Germany"}
{"timestamp":"2016-10-15T21:05:00+0200","id":124013,"name":"Poldi","coordinate":{"longitude":11.59449959,"latitude":48.12760162},"fuelLevel":0.61,"lastAddress":"Balanstraße 6A, 81669 München, Germany"}
{"timestamp":"2016-10-15T21:05:00+0200","id":124011,"name":"Maxl","coordinate":{"longitude":11.59490013,"latitude":48.12749863},"fuelLevel":0.6699999999999999,"lastAddress":"Balanstraße 9, 81669 München, Germany"}
{"timestamp":"2016-10-15T21:05:00+0200","id":124003,"name":"Franzl","coordinate":{"longitude":11.59290028,"latitude":48.12730026},"fuelLevel":0.8,"lastAddress":"Rablstraße 37, 81669 München, Germany"}
{"timestamp":"2016-10-15T21:05:00+0200","id":124010,"name":"Luitpold","coordinate":{"longitude":11.58469963,"latitude":48.12749863},"fuelLevel":0.9400000000000001,"lastAddress":"Lilienstraße 73, 81669 München, Germany"}
{"timestamp":"2016-10-15T21:05:00+0200","id":124020,"name":"Vinzenz","coordinate":{"longitude":11.57789993,"latitude":48.1228981},"fuelLevel":0.81,"lastAddress":"Entenbachstraße 26, 81541 München, Germany"}
{"timestamp":"2016-10-15T21:05:00+0200","id":124049,"name":"Marei","coordinate":{"longitude":11.57419968,"latitude":48.12229919},"fuelLevel":0.9400000000000001,"lastAddress":"Sommerstraße 9, 81543 München, Germany"}
{"timestamp":"2016-10-15T21:05:00+0200","id":124045,"name":"Vroni","coordinate":{"longitude":11.56439972,"latitude":48.1242981},"fuelLevel":0.64,"lastAddress":"Kapuzinerstraße 33, 80469 München, Germany"}
{"timestamp":"2016-10-15T21:05:00+0200","id":124018,"name":"Toni","coordinate":{"longitude":11.56970024,"latitude":48.12969971},"fuelLevel":0.6499999999999999,"lastAddress":"Hans-Sachs-Straße 14, 80469 München, Germany"}
{"timestamp":"2016-10-15T21:05:00+0200","id":124012,"name":"Peter","coordinate":{"longitude":11.56130028,"latitude":48.1548996},"fuelLevel":0.9600000000000001,"lastAddress":"Schleißheimer Str. 53, 80797 München, Germany"}
{"timestamp":"2016-10-15T21:05:00+0200","id":124004,"name":"Fridl","coordinate":{"longitude":11.55529976,"latitude":48.15510178},"fuelLevel":0.58,"lastAddress":"Lothstraße 34, 80335 München, Germany"}
{"timestamp":"2016-10-15T21:05:00+0200","id":124031,"name":"Heidi","coordinate":{"longitude":11.56669998,"latitude":48.15179825},"fuelLevel":0.63,"lastAddress":"Heßstraße 42, 80798 München, Germany"}
{"timestamp":"2016-10-15T21:05:00+0200","id":124047,"name":"Walli","coordinate":{"longitude":11.5703001,"latitude":48.14960098},"fuelLevel":0.71,"lastAddress":"Theresienstraße, 80333 München, Germany"}
{"timestamp":"2016-10-15T21:05:00+0200","id":124048,"name":"Wiggerl","coordinate":{"longitude":11.58080006,"latitude":48.16320038},"fuelLevel":0.67,"lastAddress":"Herzogstraße 38, 80803 München, Germany"}
{"timestamp":"2016-10-15T21:05:00+0200","id":124028,"name":"Gitte","coordinate":{"longitude":11.57559967,"latitude":48.16180038},"fuelLevel":0.7200000000000001,"lastAddress":"Viktor-Scheffel-Straße 19, 80803 München, Germany"}
{"timestamp":"2016-10-15T21:05:00+0200","id":124027,"name":"Fanni","coordinate":{"longitude":11.58460045,"latitude":48.16059875},"fuelLevel":0.7899999999999999,"lastAddress":"Kaiserstraße 7-9, 80801 München, Germany"}
{"timestamp":"2016-10-15T21:05:00+0200","id":124005,"name":"Georg","coordinate":{"longitude":11.57569981,"latitude":48.16220093},"fuelLevel":0.56,"lastAddress":"Viktor-Scheffel-Straße 13, 80803 München, Germany"}
{"timestamp":"2016-10-15T21:05:00+0200","id":124032,"name":"Irmi","coordinate":{"longitude":11.57299995,"latitude":48.16019821},"fuelLevel":0.64,"lastAddress":"Isabellastraße 47, 80796 München, Germany"}
{"timestamp":"2016-10-15T21:05:00+0200","id":124037,"name":"Luise","coordinate":{"longitude":11.57019997,"latitude":48.15719986},"fuelLevel":0.52,"lastAddress":"Daimlerstraße 12, 80798 München, Germany"}
{"timestamp":"2016-10-15T21:05:00+0200","id":124017,"name":"Siggi","coordinate":{"longitude":11.57240009,"latitude":48.16030121},"fuelLevel":0.56,"lastAddress":"Hohenzollernstraße 69, 80796 München, Germany"}
{"timestamp":"2016-10-15T21:05:00+0200","id":124029,"name":"Hannah","coordinate":{"longitude":11.51029968,"latitude":48.04539871},"fuelLevel":0.68,"lastAddress":"Gistlstraße 159, 82049 Pullach im Isartal, Germany"}
{"timestamp":"2016-10-15T21:05:00+0200","id":124039,"name":"Marie","coordinate":{"longitude":11.50469971,"latitude":48.03710175},"fuelLevel":0.9099999999999999,"lastAddress":"Zugspitzstraße 15, 82049 Pullach im Isartal, Germany"}
{"timestamp":"2016-10-15T21:05:00+0200","id":124009,"name":"Ludwig","coordinate":{"longitude":11.58380032,"latitude":48.16239929},"fuelLevel":0.6499999999999999,"lastAddress":"Herzogstraße 14, 80803 München, Germany"}