{"timestamp":"2016-09-27T22:45:00+0200","id":124041,"name":"Sophie","coordinate":{"longitude":11.5777998,"latitude":48.14979935},"fuelLevel":0.93,"lastAddress":"Schellingstraße 16, 80799 München, Germany"}
{"timestamp":"2016-09-27T22:45:00+0200","id":124026,"name":"Eva","coordinate":{"longitude":11.57849979,"latitude":48.1534996},"fuelLevel":0.61,"lastAddress":"Türkenstraße 93, 80799 München, Germany"}
{"timestamp":"2016-09-27T22:45:00+0200","id":124025,"name":"Elli","coordinate":{"longitude":11.5777998,"latitude":48.15319824},"fuelLevel":0.85,"lastAddress":"Türkenstraße 91, 80799 München, Germany"}
{"timestamp":"2016-09-27T22:45:00+0200","id":124033,"name":"Johanna","coordinate":{"longitude":11.57849979,"latitude":48.15670013},"fuelLevel":0.89,"lastAddress":"Hohenstaufenstraße 10, 80801 München, Germany"}
{"timestamp":"2016-09-27T22:45:00+0200","id":124036,"name":"Liesel","coordinate":{"longitude":11.57509995,"latitude":48.15639877},"fuelLevel":0.6699999999999999,"lastAddress":"Nordendstraße 29, 80801 München, Germany"}
{"timestamp":"2016-09-27T22:45:00+0200","id":124044,"name":"Uschi","coordinate":{"longitude":11.57629967,"latitude":48.1310997},"fuelLevel":0.51,"lastAddress":"Reichenbachstraße 23, 80469 München, Germany"}
{"timestamp":"2016-09-27T22:45:00+0200","id":124024,"name":"Christl","coordinate":{"longitude":11.58030033,"latitude":48.13169861},"fuelLevel":0.83,"lastAddress":"Kohlstraße 4, 80469 München, Germany"}
{"timestamp":"2016-09-27T22:45:00+0200","id":124021,"name":"Xaver","coordinate":{"longitude":11.58049965,"latitude":48.13180161},"fuelLevel":0.52,"lastAddress":"Kohlstraße 4, 80469 München, Germany"}
{"timestamp":"2016-09-27T22:45:00+0200","id":124014,"name":"Quirin","coordinate":{"longitude":11.60929966,"latitude":48.1257019},"fuelLevel":0.62,"lastAddress":"Haager Str. 14, 81671 München, Germany"}
{"timestamp":"2016-09-27T22:45:00+0200","id":124034,"name":"Kathi","coordinate":{"longitude":11.60490036,"latitude":48.13240051},"fuelLevel":0.67,"lastAddress":"Elsässer Str. 6, 81667 München, Germany"}
{"timestamp":"2016-09-27T22:45:00+0200","id":124030,"name":"Hedwig","coordinate":{"longitude":11.56280041,"latitude":48.12670135},"fuelLevel":0.9099999999999999,"lastAddress":"Thalkirchner Str. 66-68, 80337 München, Germany"}
{"timestamp":"2016-09-27T22:45:00+0200","id":124023,"name":"Babsi","coordinate":{"longitude":11.56379986,"latitude":48.1271019},"fuelLevel":0.93,"lastAddress":"Thalkirchner Str. 54, 80337 München, Germany"}
{"timestamp":"2016-09-27T22:45:00+0200","id":124016,"name":"Sepp","coordinate":{"longitude":11.59850025,"latitude":48.12580109},"fuelLevel":0.9199999999999999,"lastAddress":"Rosenheimer Str. 100, 81669 München, Germany"}
{"timestamp":"2016-09-27T22:45:00+0200","id":124022,"name":"Anne","coordinate":{"longitude":11.59689999,"latitude":48.12680054},"fuelLevel":0.8900000000000001,"lastAddress":"Rosenheimer Str. 88-90, 81667 München, Germany"}
{"timestamp":"2016-09-27T22:45:00+0200","id":124000,"name":"Bertl","coordinate":{"longitude":11.59449959,"latitude":48.12950134},"fuelLevel":0.8500000000000001,"lastAddress":"Steinstraße 70, 81667 München, Germany"}
{"timestamp":"2016-09-27T22:45:00+0200","id":124013,"name":"Poldi","coordinate":{"longitude":11.59469986,"latitude":48.12649918},"fuelLevel":0.83,"lastAddress":"Rablstraße 48, 81669 München, Germany"}
{"timestamp":"2016-09-27T22:45:00+0200","id":124011,"name":"Maxl","coordinate":{"longitude":11.59300041,"latitude":48.1257019},"fuelLevel":0.8099999999999999,"lastAddress":"Sieboldstraße 7, 81669 München, Germany"}
{"timestamp":"2016-09-27T22:45:00+0200","id":124003,"name":"Franzl","coordinate":{"longitude":11.58920002,"latitude":48.12549973},"fuelLevel":0.88,"lastAddress":"Franziskanerstraße 36, 81669 München, Germany"}
{"timestamp":"2016-09-27T22:45:00+0200","id":124010,"name":"Luitpold","coordinate":{"longitude":11.5855999,"latitude":48.12630081},"fuelLevel":0.88,"lastAddress":"Quellenstraße 44, 81669 München, Germany"}
{"timestamp":"2016-09-27T22:45:00+0200","id":124019,"name":"Valentin","coordinate":{"longitude":11.58520031,"latitude":48.12350082},"fuelLevel":0.9199999999999999,"lastAddress":"Hochstraße 49C, 81541 München, Germany"}
{"timestamp":"2016-09-27T22:45:00+0200","id":124035,"name":"Leonie","coordinate":{"longitude":11.58600044,"latitude":48.12950134},"fuelLevel":0.7899999999999999,"lastAddress":"Zeppelinstraße 65, 81669 München, Germany"}
{"timestamp":"2016-09-27T22:45:00+0200","id":124006,"name":"Gustl","coordinate":{"longitude":11.57750034,"latitude":48.12099838},"fuelLevel":0.93,"lastAddress":"Falkenstraße 44, 81541 München, Germany"}
{"timestamp":"2016-09-27T22:45:00+0200","id":124020,"name":"Vinzenz","coordinate":{"longitude":11.57940006,"latitude":48.1230011},"fuelLevel":0.9299999999999999,"lastAddress":"Falkenstraße 18, 81541 München, Germany"}
{"timestamp":"2016-09-27T22:45:00+0200","id":124049,"name":"Marei","coordinate":{"longitude":11.57390022,"latitude":48.12030029},"fuelLevel":0.7200000000000001,"lastAddress":"Humboldtstraße 21, 81543 München, Germany"}
{"timestamp":"2016-09-27T22:45:00+0200","id":124045,"name":"Vroni","coordinate":{"longitude":11.56750011,"latitude":48.12770081},"fuelLevel":0.9199999999999999,"lastAddress":"Holzstraße 43, 80469 München, Germany"}
{"timestamp":"2016-09-27T22:45:00+0200","id":124018,"name":"Toni","coordinate":{"longitude":11.56900024,"latitude":48.12649918},"fuelLevel":0.9500000000000001,"lastAddress":"Baumstraße 18, 80469 München, Germany"}
{"timestamp":"2016-09-27T22:45:00+0200","id":124012,"name":"Peter","coordinate":{"longitude":11.57289982,"latitude":48.14979935},"fuelLevel":1,"lastAddress":"Barer Str. 54, 80799 München, Germany"}
{"timestamp":"2016-09-27T22:45:00+0200","id":124031,"name":"Heidi","coordinate":{"longitude":11.56669998,"latitude":48.14799881},"fuelLevel":0.8500000000000001,"lastAddress":"Gabelsbergerstraße 47, 80333 München, Germany"}
{"timestamp":"2016-09-27T22:45:00+0200","id":124047,"name":"Walli","coordinate":{"longitude":11.57129955,"latitude":48.15610123},"fuelLevel":0.8999999999999999,"lastAddress":"Georgenstraße 63, 80799 München, Germany"}
{"timestamp":"2016-09-27T22:45:00+0200","id":124002,"name":"Ferdl","coordinate":{"longitude":11.56379986,"latitude":48.15029907},"fuelLevel":0.48000000000000004,"lastAddress":"Augustenstraße 74, 80333 München, Germany"}
{"timestamp":"2016-09-27T22:45:00+0200","id":124048,"name":"Wiggerl","coordinate":{"longitude":11.57660007,"latitude":48.15940094},"fuelLevel":0.7200000000000001,"lastAddress":"Ainmillerstraße 44, 80801 München, Germany"}
{"timestamp":"2016-09-27T22:45:00+0200","id":124028,"name":"Gitte","coordinate":{"longitude":11.57970047,"latitude":48.15810013},"fuelLevel":0.81,"lastAddress":"Franz-Joseph-Straße 26, 80801 München, Germany"}
{"timestamp":"2016-09-27T22:45:00+0200","id":124027,"name":"Fanni","coordinate":{"longitude":11.57719994,"latitude":48.15919876},"fuelLevel":0.85,"lastAddress":"Römerstraße 9, 80801 München, Germany"}
{"timestamp":"2016-09-27T22:45:00+0200","id":124005,"name":"Georg","coordinate":{"longitude":11.58110046,"latitude":48.15879822},"fuelLevel":0.69,"lastAddress":"Ainmillerstraße 22, 80801 München, Germany"}
{"timestamp":"2016-09-27T22:45:00+0200","id":124032,"name":"Irmi","coordinate":{"longitude":11.57269955,"latitude":48.16019821},"fuelLevel":0.64,"lastAddress":"Isabellastraße 47, 80796 München, Germany"}
{"timestamp":"2016-09-27T22:45:00+0200","id":124037,"name":"Luise","coordinate":{"longitude":11.56540012,"latitude":48.15950012},"fuelLevel":0.9400000000000001,"lastAddress":"Elisabethstraße 45, 80796 München, Germany"}
{"timestamp":"2016-09-27T22:45:00+0200","id":124017,"name":"Siggi","coordinate":{"longitude":11.57110023,"latitude":48.16040039},"fuelLevel":0.56,"lastAddress":"Jakob-Klar-Straße 11, 80796 München, Germany"}
{"timestamp":"2016-09-27T22:45:00+0200","id":124029,"name":"Hannah","coordinate":{"longitude":11.50990009,"latitude":48.04510117},"fuelLevel":0.7,"lastAddress":"Seitnerstraße 70, 82049 Pullach im Isartal, Germany"}
{"timestamp":"2016-09-27T22:45:00+0200","id":124039,"name":"Marie","coordinate":{"longitude":11.50959969,"latitude":48.04550171},"fuelLevel":0.89,"lastAddress":"Seitnerstraße 70, 82049 Pullach im Isartal, Germany"}
{"timestamp":"2016-09-27T22:45:00+0200","id":124009,"name":"Ludwig","coordinate":{"longitude":11.5781002,"latitude":48.16410065},"fuelLevel":0.9400000000000001,"lastAddress":"Cherubinistraße 3, 80803 München, Germany"}
{"timestamp":"2016-09-27T22:45:00+0200","id":124007,"name":"Jakob","coordinate":{"longitude":11.58640003,"latitude":48.16379929},"fuelLevel":0.9500000000000001,"lastAddress":"Leopoldstraße 85, 80802 München, Germany"}