{"timestamp":"2016-10-10T23:35:00+0200","id":124041,"name":"Sophie","coordinate":{"longitude":11.5781002,"latitude":48.15060043},"fuelLevel":0.9400000000000001,"lastAddress":"Amalienstraße 71, 80799 München, Germany"}
{"timestamp":"2016-10-10T23:35:00+0200","id":124026,"name":"Eva","coordinate":{"longitude":11.57830048,"latitude":48.15370178},"fuelLevel":0.61,"lastAddress":"Türkenstraße 104, 80799 München, Germany"}
{"timestamp":"2016-10-10T23:35:00+0200","id":124025,"name":"Elli","coordinate":{"longitude":11.57619953,"latitude":48.15790176},"fuelLevel":0.9,"lastAddress":"Franz-Joseph-Straße 46, 80801 München, Germany"}
{"timestamp":"2016-10-10T23:35:00+0200","id":124033,"name":"Johanna","coordinate":{"longitude":11.58100033,"latitude":48.15200043},"fuelLevel":0.76,"lastAddress":"Adalbertstraße 10, 80799 München, Germany"}
{"timestamp":"2016-10-10T23:35:00+0200","id":124036,"name":"Liesel","coordinate":{"longitude":11.58129978,"latitude":48.15100098},"fuelLevel":0.5900000000000001,"lastAddress":"Ludwigstraße 29, 80539 München, Germany"}
{"timestamp":"2016-10-10T23:35:00+0200","id":124044,"name":"Uschi","coordinate":{"longitude":11.57310009,"latitude":48.13130188},"fuelLevel":0.9199999999999999,"lastAddress":"Müllerstraße 7, 80469 München, Germany"}
{"timestamp":"2016-10-10T23:35:00+0200","id":124024,"name":"Christl","coordinate":{"longitude":11.57479954,"latitude":48.13349915},"fuelLevel":0.69,"lastAddress":"Am Einlaß 5, 80469 München, Germany"}
{"timestamp":"2016-10-10T23:35:00+0200","id":124040,"name":"Reserl","coordinate":{"longitude":11.57260036,"latitude":48.13130188},"fuelLevel":0.83,"lastAddress":"Müllerstraße 15, 80469 München, Germany"}
{"timestamp":"2016-10-10T23:35:00+0200","id":124021,"name":"Xaver","coordinate":{"longitude":11.58030033,"latitude":48.13010025},"fuelLevel":0.9199999999999999,"lastAddress":"Erhardtstraße 27, 80469 München, Germany"}
{"timestamp":"2016-10-10T23:35:00+0200","id":124014,"name":"Quirin","coordinate":{"longitude":11.60509968,"latitude":48.13240051},"fuelLevel":0.6000000000000001,"lastAddress":"Elsässer Str. 4, 81667 München, Germany"}
{"timestamp":"2016-10-10T23:35:00+0200","id":124034,"name":"Kathi","coordinate":{"longitude":11.60480022,"latitude":48.13029861},"fuelLevel":0.81,"lastAddress":"Breisacher Str. 18, 81667 München, Germany"}
{"timestamp":"2016-10-10T23:35:00+0200","id":124023,"name":"Babsi","coordinate":{"longitude":11.56229973,"latitude":48.12620163},"fuelLevel":0.9,"lastAddress":"Thalkirchner Str. 76, 80337 München, Germany"}
{"timestamp":"2016-10-10T23:35:00+0200","id":124016,"name":"Sepp","coordinate":{"longitude":11.6026001,"latitude":48.12929916},"fuelLevel":0.9099999999999999,"lastAddress":"Wörthstraße 47, 81667 München, Germany"}
{"timestamp":"2016-10-10T23:35:00+0200","id":124038,"name":"Magda","coordinate":{"longitude":11.60029984,"latitude":48.12820053},"fuelLevel":0.67,"lastAddress":"Pariser Pl., 81667 München, Germany"}
{"timestamp":"2016-10-10T23:35:00+0200","id":124022,"name":"Anne","coordinate":{"longitude":11.59640026,"latitude":48.12730026},"fuelLevel":0.8300000000000001,"lastAddress":"Rosenheimer Str. 87, 81667 München, Germany"}
{"timestamp":"2016-10-10T23:35:00+0200","id":124000,"name":"Bertl","coordinate":{"longitude":11.59790039,"latitude":48.12630081},"fuelLevel":0.8,"lastAddress":"Rosenheimer Str. 117, 81667 München, Germany"}
{"timestamp":"2016-10-10T23:35:00+0200","id":124013,"name":"Poldi","coordinate":{"longitude":11.59420013,"latitude":48.12770081},"fuelLevel":0.79,"lastAddress":"Balanstraße 6A, 81669 München, Germany"}
{"timestamp":"2016-10-10T23:35:00+0200","id":124011,"name":"Maxl","coordinate":{"longitude":11.59490013,"latitude":48.12749863},"fuelLevel":0.6699999999999999,"lastAddress":"Balanstraße 9, 81669 München, Germany"}
{"timestamp":"2016-10-10T23:35:00+0200","id":124003,"name":"Franzl","coordinate":{"longitude":11.59300041,"latitude":48.12739944},"fuelLevel":0.8,"lastAddress":"Franziskanerstraße 8, 81669 München, Germany"}
{"timestamp":"2016-10-10T23:35:00+0200","id":124010,"name":"Luitpold","coordinate":{"longitude":11.58450031,"latitude":48.12760162},"fuelLevel":0.9500000000000001,"lastAddress":"Lilienstraße 66, 81669 München, Germany"}
{"timestamp":"2016-10-10T23:35:00+0200","id":124019,"name":"Valentin","coordinate":{"longitude":11.58510017,"latitude":48.12379837},"fuelLevel":0.87,"lastAddress":"Hochstraße 47A, 81541 München, Germany"}
{"timestamp":"2016-10-10T23:35:00+0200","id":124035,"name":"Leonie","coordinate":{"longitude":11.58570004,"latitude":48.1291008},"fuelLevel":0.76,"lastAddress":"Schwarzstraße 4, 81669 München, Germany"}
{"timestamp":"2016-10-10T23:35:00+0200","id":124006,"name":"Gustl","coordinate":{"longitude":11.57470036,"latitude":48.12020111},"fuelLevel":0.9500000000000001,"lastAddress":"Oefelestraße 5, 81543 München, Germany"}
{"timestamp":"2016-10-10T23:35:00+0200","id":124020,"name":"Vinzenz","coordinate":{"longitude":11.57820034,"latitude":48.12269974},"fuelLevel":0.8999999999999999,"lastAddress":"Entenbachstraße 27, 81541 München, Germany"}
{"timestamp":"2016-10-10T23:35:00+0200","id":124049,"name":"Marei","coordinate":{"longitude":11.57209969,"latitude":48.12110138},"fuelLevel":0.52,"lastAddress":"Humboldtstraße 3, 81543 München, Germany"}
{"timestamp":"2016-10-10T23:35:00+0200","id":124045,"name":"Vroni","coordinate":{"longitude":11.56459999,"latitude":48.12409973},"fuelLevel":0.6499999999999999,"lastAddress":"Kapuzinerstraße 42, 80469 München, Germany"}
{"timestamp":"2016-10-10T23:35:00+0200","id":124043,"name":"Traudl","coordinate":{"longitude":11.50269985,"latitude":48.10129929},"fuelLevel":0.71,"lastAddress":"Boschetsrieder Str., 81475 München, Germany"}
{"timestamp":"2016-10-10T23:35:00+0200","id":124018,"name":"Toni","coordinate":{"longitude":11.57079983,"latitude":48.12929916},"fuelLevel":0.66,"lastAddress":"Jahnstraße 17, 80469 München, Germany"}
{"timestamp":"2016-10-10T23:35:00+0200","id":124012,"name":"Peter","coordinate":{"longitude":11.55729961,"latitude":48.15620041},"fuelLevel":0.9600000000000001,"lastAddress":"Lothstraße 21, 80797 München, Germany"}
{"timestamp":"2016-10-10T23:35:00+0200","id":124004,"name":"Fridl","coordinate":{"longitude":11.55659962,"latitude":48.15459824},"fuelLevel":0.9600000000000001,"lastAddress":"Heßstraße 85, 80797 München, Germany"}
{"timestamp":"2016-10-10T23:35:00+0200","id":124031,"name":"Heidi","coordinate":{"longitude":11.56700039,"latitude":48.15100098},"fuelLevel":0.6499999999999999,"lastAddress":"Luisenstraße 61, 80798 München, Germany"}
{"timestamp":"2016-10-10T23:35:00+0200","id":124047,"name":"Walli","coordinate":{"longitude":11.56999969,"latitude":48.1495018},"fuelLevel":0.71,"lastAddress":"Theresienstraße 90, 80333 München, Germany"}
{"timestamp":"2016-10-10T23:35:00+0200","id":124002,"name":"Ferdl","coordinate":{"longitude":11.56770039,"latitude":48.15140152},"fuelLevel":0.9861111111111112,"lastAddress":"Heßstraße 34, 80799 München, Germany"}
{"timestamp":"2016-10-10T23:35:00+0200","id":124048,"name":"Wiggerl","coordinate":{"longitude":11.57870007,"latitude":48.16130066},"fuelLevel":0.68,"lastAddress":"Kaiserstraße 38, 80801 München, Germany"}
{"timestamp":"2016-10-10T23:35:00+0200","id":124028,"name":"Gitte","coordinate":{"longitude":11.57740021,"latitude":48.1609993},"fuelLevel":0.75,"lastAddress":"Römerstraße 27, 80801 München, Germany"}
{"timestamp":"2016-10-10T23:35:00+0200","id":124027,"name":"Fanni","coordinate":{"longitude":11.5781002,"latitude":48.15890121},"fuelLevel":0.7899999999999999,"lastAddress":"Ainmillerstraße 31-33, 80801 München, Germany"}
{"timestamp":"2016-10-10T23:35:00+0200","id":124005,"name":"Georg","coordinate":{"longitude":11.57530022,"latitude":48.1617012},"fuelLevel":0.56,"lastAddress":"Viktor-Scheffel-Straße 21, 80803 München, Germany"}
{"timestamp":"2016-10-10T23:35:00+0200","id":124001,"name":"Edmund","coordinate":{"longitude":11.57929993,"latitude":48.1576004},"fuelLevel":0.5700000000000001,"lastAddress":"Franz-Joseph-Straße 25, 80801 München, Germany"}
{"timestamp":"2016-10-10T23:35:00+0200","id":124032,"name":"Irmi","coordinate":{"longitude":11.57310009,"latitude":48.16030121},"fuelLevel":0.64,"lastAddress":"Isabellastraße 49, 80796 München, Germany"}
{"timestamp":"2016-10-10T23:35:00+0200","id":124037,"name":"Luise","coordinate":{"longitude":11.57009983,"latitude":48.15710068},"fuelLevel":0.52,"lastAddress":"Daimlerstraße 12, 80798 München, Germany"}
{"timestamp":"2016-10-10T23:35:00+0200","id":124017,"name":"Siggi","coordinate":{"longitude":11.57129955,"latitude":48.16019821},"fuelLevel":0.56,"lastAddress":"Jakob-Klar-Straße 9, 80796 München, Germany"}
{"timestamp":"2016-10-10T23:35:00+0200","id":124029,"name":"Hannah","coordinate":{"longitude":11.51049995,"latitude":48.04510117},"fuelLevel":0.7,"lastAddress":"Gistlstraße 159, 82049 Pullach im Isartal, Germany"}
{"timestamp":"2016-10-10T23:35:00+0200","id":124008,"name":"Johann","coordinate":{"longitude":11.50969982,"latitude":48.04539871},"fuelLevel":0.87,"lastAddress":"Seitnerstraße 70, 82049 Pullach im Isartal, Germany"}
{"timestamp":"2016-10-10T23:35:00+0200","id":124039,"name":"Marie","coordinate":{"longitude":11.50990009,"latitude":48.04560089},"fuelLevel":0.58,"lastAddress":"Gistlstraße 159, 82049 Pullach im Isartal, Germany"}
{"timestamp":"2016-10-10T23:35:00+0200","id":124009,"name":"Ludwig","coordinate":{"longitude":11.5848999,"latitude":48.16230011},"fuelLevel":0.8999999999999999,"lastAddress":"Herzogstraße 4, 80803 München, Germany"}
{"timestamp":"2016-10-10T23:35:00+0200","id":124007,"name":"Jakob","coordinate":{"longitude":11.57429981,"latitude":48.167099},"fuelLevel":0.68,"lastAddress":"Karl-Theodor-Straße 79, 80803 München, Germany"}