{"timestamp":"2016-09-29T23:45:00+0200","id":124041,"name":"Sophie","coordinate":{"longitude":11.5777998,"latitude":48.15000153},"fuelLevel":0.93,"lastAddress":"Schellingstraße 16, 80799 München, Germany"}
{"timestamp":"2016-09-29T23:45:00+0200","id":124026,"name":"Eva","coordinate":{"longitude":11.5781002,"latitude":48.15380096},"fuelLevel":0.61,"lastAddress":"Rambergstraße 4, 80799 München, Germany"}
{"timestamp":"2016-09-29T23:45:00+0200","id":124025,"name":"Elli","coordinate":{"longitude":11.57610035,"latitude":48.15510178},"fuelLevel":0.77,"lastAddress":"Kurfürstenstraße 21, 80801 München, Germany"}
{"timestamp":"2016-09-29T23:45:00+0200","id":124033,"name":"Johanna","coordinate":{"longitude":11.58119965,"latitude":48.15250015},"fuelLevel":0.88,"lastAddress":"Akademiestraße 5, 80799 München, Germany"}
{"timestamp":"2016-09-29T23:45:00+0200","id":124036,"name":"Liesel","coordinate":{"longitude":11.57470036,"latitude":48.15679932},"fuelLevel":0.6699999999999999,"lastAddress":"Elisabethpl. 17, 80796 München, Germany"}
{"timestamp":"2016-09-29T23:45:00+0200","id":124024,"name":"Christl","coordinate":{"longitude":11.57929993,"latitude":48.13359833},"fuelLevel":0.8,"lastAddress":"Klenzestraße 3, 80469 München, Germany"}
{"timestamp":"2016-09-29T23:45:00+0200","id":124040,"name":"Reserl","coordinate":{"longitude":11.57890034,"latitude":48.13090134},"fuelLevel":0.79,"lastAddress":"Baaderstraße 25, 80469 München, Germany"}
{"timestamp":"2016-09-29T23:45:00+0200","id":124021,"name":"Xaver","coordinate":{"longitude":11.58069992,"latitude":48.13219833},"fuelLevel":0.52,"lastAddress":"Baaderstraße 2, 80469 München, Germany"}
{"timestamp":"2016-09-29T23:45:00+0200","id":124034,"name":"Kathi","coordinate":{"longitude":11.60449982,"latitude":48.13230133},"fuelLevel":0.67,"lastAddress":"Elsässer Str. 6, 81667 München, Germany"}
{"timestamp":"2016-09-29T23:45:00+0200","id":124030,"name":"Hedwig","coordinate":{"longitude":11.56739998,"latitude":48.1310997},"fuelLevel":0.89,"lastAddress":"Pestalozzistraße 9-11, 80469 München, Germany"}
{"timestamp":"2016-09-29T23:45:00+0200","id":124023,"name":"Babsi","coordinate":{"longitude":11.56359959,"latitude":48.1271019},"fuelLevel":0.93,"lastAddress":"Thalkirchner Str. 54, 80337 München, Germany"}
{"timestamp":"2016-09-29T23:45:00+0200","id":124016,"name":"Sepp","coordinate":{"longitude":11.59860039,"latitude":48.12580109},"fuelLevel":0.9199999999999999,"lastAddress":"Rosenheimer Str. 125, 81667 München, Germany"}
{"timestamp":"2016-09-29T23:45:00+0200","id":124038,"name":"Magda","coordinate":{"longitude":11.60000038,"latitude":48.12829971},"fuelLevel":0.76,"lastAddress":"Pariser Pl. 4, 81667 München, Germany"}
{"timestamp":"2016-09-29T23:45:00+0200","id":124022,"name":"Anne","coordinate":{"longitude":11.59710026,"latitude":48.12720108},"fuelLevel":0.8900000000000001,"lastAddress":"Rosenheimer Str. 101, 81667 München, Germany"}
{"timestamp":"2016-09-29T23:45:00+0200","id":124000,"name":"Bertl","coordinate":{"longitude":11.5948,"latitude":48.12950134},"fuelLevel":0.84,"lastAddress":"Steinstraße 79, 81667 München, Germany"}
{"timestamp":"2016-09-29T23:45:00+0200","id":124013,"name":"Poldi","coordinate":{"longitude":11.59449959,"latitude":48.12749863},"fuelLevel":0.79,"lastAddress":"Balanstraße 8, 81669 München, Germany"}
{"timestamp":"2016-09-29T23:45:00+0200","id":124011,"name":"Maxl","coordinate":{"longitude":11.59360027,"latitude":48.12559891},"fuelLevel":0.8099999999999999,"lastAddress":"St.-Wolfgangs-Platz 1, 81669 München, Germany"}
{"timestamp":"2016-09-29T23:45:00+0200","id":124003,"name":"Franzl","coordinate":{"longitude":11.59309959,"latitude":48.12730026},"fuelLevel":0.79,"lastAddress":"Franziskanerstraße 15, 81669 München, Germany"}
{"timestamp":"2016-09-29T23:45:00+0200","id":124010,"name":"Luitpold","coordinate":{"longitude":11.58600044,"latitude":48.12580109},"fuelLevel":0.88,"lastAddress":"Gebsattelstraße 2, 81541 München, Germany"}
{"timestamp":"2016-09-29T23:45:00+0200","id":124019,"name":"Valentin","coordinate":{"longitude":11.58520031,"latitude":48.1230011},"fuelLevel":0.9199999999999999,"lastAddress":"Hochstraße 53, 81541 München, Germany"}
{"timestamp":"2016-09-29T23:45:00+0200","id":124035,"name":"Leonie","coordinate":{"longitude":11.58549976,"latitude":48.12929916},"fuelLevel":0.7899999999999999,"lastAddress":"Schwarzstraße 2, 81669 München, Germany"}
{"timestamp":"2016-09-29T23:45:00+0200","id":124006,"name":"Gustl","coordinate":{"longitude":11.5777998,"latitude":48.12049866},"fuelLevel":0.93,"lastAddress":"Dollmannstraße 5-7, 81541 München, Germany"}
{"timestamp":"2016-09-29T23:45:00+0200","id":124020,"name":"Vinzenz","coordinate":{"longitude":11.57870007,"latitude":48.12369919},"fuelLevel":0.9099999999999999,"lastAddress":"Entenbachstraße 16, 81541 München, Germany"}
{"timestamp":"2016-09-29T23:45:00+0200","id":124049,"name":"Marei","coordinate":{"longitude":11.57419968,"latitude":48.11999893},"fuelLevel":0.7200000000000001,"lastAddress":"Humboldtstraße 23, 81543 München, Germany"}
{"timestamp":"2016-09-29T23:45:00+0200","id":124045,"name":"Vroni","coordinate":{"longitude":11.56739998,"latitude":48.12760162},"fuelLevel":0.9199999999999999,"lastAddress":"Holzstraße 34, 80469 München, Germany"}
{"timestamp":"2016-09-29T23:45:00+0200","id":124018,"name":"Toni","coordinate":{"longitude":11.57269955,"latitude":48.12969971},"fuelLevel":0.9299999999999999,"lastAddress":"Klenzestraße 46A, 80469 München, Germany"}
{"timestamp":"2016-09-29T23:45:00+0200","id":124012,"name":"Peter","coordinate":{"longitude":11.57240009,"latitude":48.15039825},"fuelLevel":1,"lastAddress":"Heßstraße 2, 80799 München, Germany"}
{"timestamp":"2016-09-29T23:45:00+0200","id":124004,"name":"Fridl","coordinate":{"longitude":11.56589985,"latitude":48.15639877},"fuelLevel":0.55,"lastAddress":"Hiltenspergerstraße 6, 80798 München, Germany"}
{"timestamp":"2016-09-29T23:45:00+0200","id":124031,"name":"Heidi","coordinate":{"longitude":11.56569958,"latitude":48.14979935},"fuelLevel":0.8,"lastAddress":"Steinheilstraße 4, 80333 München, Germany"}
{"timestamp":"2016-09-29T23:45:00+0200","id":124002,"name":"Ferdl","coordinate":{"longitude":11.56400013,"latitude":48.15090179},"fuelLevel":0.9500000000000001,"lastAddress":"Augustenstraße 83, 80333 München, Germany"}
{"timestamp":"2016-09-29T23:45:00+0200","id":124048,"name":"Wiggerl","coordinate":{"longitude":11.57699966,"latitude":48.15919876},"fuelLevel":0.7200000000000001,"lastAddress":"Römerstraße 9, 80801 München, Germany"}
{"timestamp":"2016-09-29T23:45:00+0200","id":124028,"name":"Gitte","coordinate":{"longitude":11.57999992,"latitude":48.15980148},"fuelLevel":0.77,"lastAddress":"Friedrichstraße 27, 80801 München, Germany"}
{"timestamp":"2016-09-29T23:45:00+0200","id":124027,"name":"Fanni","coordinate":{"longitude":11.57579994,"latitude":48.16070175},"fuelLevel":0.8099999999999999,"lastAddress":"Hohenzollernstraße 78, 80801 München, Germany"}
{"timestamp":"2016-09-29T23:45:00+0200","id":124005,"name":"Georg","coordinate":{"longitude":11.58110046,"latitude":48.15890121},"fuelLevel":0.69,"lastAddress":"Ainmillerstraße 22, 80801 München, Germany"}
{"timestamp":"2016-09-29T23:45:00+0200","id":124001,"name":"Edmund","coordinate":{"longitude":11.57870007,"latitude":48.1576004},"fuelLevel":0.62,"lastAddress":"Franz-Joseph-Straße 29, 80801 München, Germany"}
{"timestamp":"2016-09-29T23:45:00+0200","id":124032,"name":"Irmi","coordinate":{"longitude":11.57310009,"latitude":48.16030121},"fuelLevel":0.64,"lastAddress":"Isabellastraße 49, 80796 München, Germany"}
{"timestamp":"2016-09-29T23:45:00+0200","id":124037,"name":"Luise","coordinate":{"longitude":11.56669998,"latitude":48.15800095},"fuelLevel":0.9027777777777778,"lastAddress":"Agnesstraße 38, 80798 München, Germany"}
{"timestamp":"2016-09-29T23:45:00+0200","id":124017,"name":"Siggi","coordinate":{"longitude":11.5710001,"latitude":48.16049957},"fuelLevel":0.56,"lastAddress":"Jakob-Klar-Straße 11, 80796 München, Germany"}
{"timestamp":"2016-09-29T23:45:00+0200","id":124029,"name":"Hannah","coordinate":{"longitude":11.51049995,"latitude":48.04539871},"fuelLevel":0.7,"lastAddress":"Gistlstraße 159, 82049 Pullach im Isartal, Germany"}
{"timestamp":"2016-09-29T23:45:00+0200","id":124042,"name":"Tilli","coordinate":{"longitude":11.50949955,"latitude":48.04539871},"fuelLevel":0.77,"lastAddress":"Seitnerstraße 70, 82049 Pullach im Isartal, Germany"}
{"timestamp":"2016-09-29T23:45:00+0200","id":124009,"name":"Ludwig","coordinate":{"longitude":11.5848999,"latitude":48.16210175},"fuelLevel":0.89,"lastAddress":"Herzogstraße 4, 80803 München, Germany"}
{"timestamp":"2016-09-29T23:45:00+0200","id":124007,"name":"Jakob","coordinate":{"longitude":11.58650017,"latitude":48.1637001},"fuelLevel":0.9500000000000001,"lastAddress":"Leopoldstraße 85, 80802 München, Germany"}