{"timestamp":"2016-11-06T02:05:00+0100","id":124041,"name":"Sophie","coordinate":{"longitude":11.58039856,"latitude":48.15148926},"fuelLevel":0.64,"lastAddress":"Hauptgebäude, Geschwister-Scholl-Platz 1, 80539 München, Germany"}
{"timestamp":"2016-11-06T02:05:00+0100","id":124026,"name":"Eva","coordinate":{"longitude":11.57980347,"latitude":48.15267944},"fuelLevel":0.89,"lastAddress":"Akademiestraße 11, 80799 München, Germany"}
{"timestamp":"2016-11-06T02:05:00+0100","id":124033,"name":"Johanna","coordinate":{"longitude":11.5783844,"latitude":48.15310669},"fuelLevel":0.55,"lastAddress":"Akademiestraße 4, 80799 München, Germany"}
{"timestamp":"2016-11-06T02:05:00+0100","id":124036,"name":"Liesel","coordinate":{"longitude":11.58061218,"latitude":48.15170288},"fuelLevel":0.8099999999999999,"lastAddress":"Adalbertstraße 12, 80799 München, Germany"}
{"timestamp":"2016-11-06T02:05:00+0100","id":124044,"name":"Uschi","coordinate":{"longitude":11.57141113,"latitude":48.13220215},"fuelLevel":0.5902777777777778,"lastAddress":"Blumenstraße 23, 80331 München, Germany"}
{"timestamp":"2016-11-06T02:05:00+0100","id":124024,"name":"Christl","coordinate":{"longitude":11.57258606,"latitude":48.13049316},"fuelLevel":0.82,"lastAddress":"Jahnstraße 1, 80469 München, Germany"}
{"timestamp":"2016-11-06T02:05:00+0100","id":124040,"name":"Reserl","coordinate":{"longitude":11.57269287,"latitude":48.13319397},"fuelLevel":0.62,"lastAddress":"Blumenstraße 28, 80331 München, Germany"}
{"timestamp":"2016-11-06T02:05:00+0100","id":124021,"name":"Xaver","coordinate":{"longitude":11.57202148,"latitude":48.13085938},"fuelLevel":0.88,"lastAddress":"Fraunhoferstraße 6, 80469 München, Germany"}
{"timestamp":"2016-11-06T02:05:00+0100","id":124014,"name":"Quirin","coordinate":{"longitude":11.59819984,"latitude":48.13479996},"fuelLevel":0.82,"lastAddress":"Kirchenstraße 2, 81675 München, Germany"}
{"timestamp":"2016-11-06T02:05:00+0100","id":124034,"name":"Kathi","coordinate":{"longitude":11.59809971,"latitude":48.13249969},"fuelLevel":0.86,"lastAddress":"Preysingstraße 53, 81667 München, Germany"}
{"timestamp":"2016-11-06T02:05:00+0100","id":124030,"name":"Hedwig","coordinate":{"longitude":11.56089783,"latitude":48.12559509},"fuelLevel":0.7799999999999999,"lastAddress":"Maistraße 73, 80337 München, Germany"}
{"timestamp":"2016-11-06T02:05:00+0100","id":124023,"name":"Babsi","coordinate":{"longitude":11.56741333,"latitude":48.13110352},"fuelLevel":0.72,"lastAddress":"Pestalozzistraße 9-11, 80469 München, Germany"}
{"timestamp":"2016-11-06T02:05:00+0100","id":124016,"name":"Sepp","coordinate":{"longitude":11.59919739,"latitude":48.13023376},"fuelLevel":0.59,"lastAddress":"Metzstraße 30, 81667 München, Germany"}
{"timestamp":"2016-11-06T02:05:00+0100","id":124000,"name":"Bertl","coordinate":{"longitude":11.59701538,"latitude":48.12861633},"fuelLevel":0.7200000000000001,"lastAddress":"Weißenburger Str. 11, 81667 München, Germany"}
{"timestamp":"2016-11-06T02:05:00+0100","id":124013,"name":"Poldi","coordinate":{"longitude":11.59028625,"latitude":48.12538147},"fuelLevel":0.86,"lastAddress":"Franziskanerstraße 43, 81669 München, Germany"}
{"timestamp":"2016-11-06T02:05:00+0100","id":124011,"name":"Maxl","coordinate":{"longitude":11.59751892,"latitude":48.12420654},"fuelLevel":0.62,"lastAddress":"Orleansstraße 1, 81669 München, Germany"}
{"timestamp":"2016-11-06T02:05:00+0100","id":124003,"name":"Franzl","coordinate":{"longitude":11.59082031,"latitude":48.1302948},"fuelLevel":0.86,"lastAddress":"Rosenheimer Str. 30, 81669 München, Germany"}
{"timestamp":"2016-11-06T02:05:00+0100","id":124019,"name":"Valentin","coordinate":{"longitude":11.58189392,"latitude":48.12098694},"fuelLevel":0.6499999999999999,"lastAddress":"Hochstraße 81, 81541 München, Germany"}
{"timestamp":"2016-11-06T02:05:00+0100","id":124035,"name":"Leonie","coordinate":{"longitude":11.58139038,"latitude":48.12748718},"fuelLevel":0.64,"lastAddress":"Schweigerstraße 4, 81541 München, Germany"}
{"timestamp":"2016-11-06T02:05:00+0100","id":124006,"name":"Gustl","coordinate":{"longitude":11.57608032,"latitude":48.12190247},"fuelLevel":0.64,"lastAddress":"Kolumbusstraße 7-9, 81543 München, Germany"}
{"timestamp":"2016-11-06T02:05:00+0100","id":124049,"name":"Marei","coordinate":{"longitude":11.57919979,"latitude":48.12459946},"fuelLevel":0.62,"lastAddress":"Boosstraße 17, 81541 München, Germany"}
{"timestamp":"2016-11-06T02:05:00+0100","id":124045,"name":"Vroni","coordinate":{"longitude":11.56849957,"latitude":48.1310997},"fuelLevel":0.8500000000000001,"lastAddress":"Müllerstraße 43, 80469 München, Germany"}
{"timestamp":"2016-11-06T02:05:00+0100","id":124004,"name":"Fridl","coordinate":{"longitude":11.56219959,"latitude":48.1570015},"fuelLevel":0.5299999999999999,"lastAddress":"Schleißheimer Str. 77, 80797 München, Germany"}
{"timestamp":"2016-11-06T02:05:00+0100","id":124031,"name":"Heidi","coordinate":{"longitude":11.56390381,"latitude":48.15060425},"fuelLevel":0.55,"lastAddress":"Augustenstraße 77-79, 80333 München, Germany"}
{"timestamp":"2016-11-06T02:05:00+0100","id":124047,"name":"Walli","coordinate":{"longitude":11.5664978,"latitude":48.14930725},"fuelLevel":0.8,"lastAddress":"Luisenstraße 47A, 80333 München, Germany"}
{"timestamp":"2016-11-06T02:05:00+0100","id":124002,"name":"Ferdl","coordinate":{"longitude":11.56350708,"latitude":48.14968872},"fuelLevel":0.7799999999999999,"lastAddress":"Augustenstraße 72, 80333 München, Germany"}
{"timestamp":"2016-11-06T02:05:00+0100","id":124048,"name":"Wiggerl","coordinate":{"longitude":11.57539368,"latitude":48.15869141},"fuelLevel":0.54,"lastAddress":"Kurfürstenstraße 55, 80801 München, Germany"}
{"timestamp":"2016-11-06T02:05:00+0100","id":124028,"name":"Gitte","coordinate":{"longitude":11.57719421,"latitude":48.15792847},"fuelLevel":0.62,"lastAddress":"Römerstraße 4, 80801 München, Germany"}
{"timestamp":"2016-11-06T02:05:00+0100","id":124027,"name":"Fanni","coordinate":{"longitude":11.58450317,"latitude":48.16220093},"fuelLevel":0.48000000000000004,"lastAddress":"Herzogstraße 8, 80803 München, Germany"}
{"timestamp":"2016-11-06T02:05:00+0100","id":124005,"name":"Georg","coordinate":{"longitude":11.57680035,"latitude":48.15800095},"fuelLevel":0.8500000000000001,"lastAddress":"Römerstraße 1, 80801 München, Germany"}
{"timestamp":"2016-11-06T02:05:00+0100","id":124001,"name":"Edmund","coordinate":{"longitude":11.58432007,"latitude":48.16238403},"fuelLevel":0.64,"lastAddress":"Herzogstraße 10, 80803 München, Germany"}
{"timestamp":"2016-11-06T02:05:00+0100","id":124032,"name":"Irmi","coordinate":{"longitude":11.57499695,"latitude":48.15892029},"fuelLevel":0.57,"lastAddress":"Nordendstraße 62-64, 80801 München, Germany"}
{"timestamp":"2016-11-06T02:05:00+0100","id":124037,"name":"Luise","coordinate":{"longitude":11.57260132,"latitude":48.15429688},"fuelLevel":0.8472222222222222,"lastAddress":"Arcisstraße 58, 80799 München, Germany"}
{"timestamp":"2016-11-06T02:05:00+0100","id":124029,"name":"Hannah","coordinate":{"longitude":11.50959778,"latitude":48.0453949},"fuelLevel":0.75,"lastAddress":"Seitnerstraße 70, 82049 Pullach im Isartal, Germany"}
{"timestamp":"2016-11-06T02:05:00+0100","id":124008,"name":"Johann","coordinate":{"longitude":11.50970459,"latitude":48.04537964},"fuelLevel":0.51,"lastAddress":"Seitnerstraße 70, 82049 Pullach im Isartal, Germany"}
{"timestamp":"2016-11-06T02:05:00+0100","id":124039,"name":"Marie","coordinate":{"longitude":11.50958252,"latitude":48.0453949},"fuelLevel":0.63,"lastAddress":"Seitnerstraße 70, 82049 Pullach im Isartal, Germany"}
{"timestamp":"2016-11-06T02:05:00+0100","id":124009,"name":"Ludwig","coordinate":{"longitude":11.58270264,"latitude":48.16531372},"fuelLevel":0.66,"lastAddress":"Muffatstraße 3, 80803 München, Germany"}
{"timestamp":"2016-11-06T02:05:00+0100","id":124007,"name":"Jakob","coordinate":{"longitude":11.57409668,"latitude":48.1643219},"fuelLevel":0.84,"lastAddress":"Belgradstraße 37, 80796 München, Germany"}