{"timestamp":"2016-09-26T17:45:00+0200","id":124041,"name":"Sophie","coordinate":{"longitude":11.5777998,"latitude":48.14979935},"fuelLevel":0.93,"lastAddress":"Schellingstraße 16, 80799 München, Germany"}
{"timestamp":"2016-09-26T17:45:00+0200","id":124026,"name":"Eva","coordinate":{"longitude":11.57849979,"latitude":48.1534996},"fuelLevel":0.61,"lastAddress":"Türkenstraße 93, 80799 München, Germany"}
{"timestamp":"2016-09-26T17:45:00+0200","id":124025,"name":"Elli","coordinate":{"longitude":11.57830048,"latitude":48.15319824},"fuelLevel":0.85,"lastAddress":"Akademiestraße 25, 80799 München, Germany"}
{"timestamp":"2016-09-26T17:45:00+0200","id":124033,"name":"Johanna","coordinate":{"longitude":11.57970047,"latitude":48.15639877},"fuelLevel":0.89,"lastAddress":"Friedrichstraße 13, 80801 München, Germany"}
{"timestamp":"2016-09-26T17:45:00+0200","id":124036,"name":"Liesel","coordinate":{"longitude":11.57520008,"latitude":48.15629959},"fuelLevel":0.6699999999999999,"lastAddress":"Nordendstraße 36, 80801 München, Germany"}
{"timestamp":"2016-09-26T17:45:00+0200","id":124044,"name":"Uschi","coordinate":{"longitude":11.57559967,"latitude":48.12990189},"fuelLevel":0.51,"lastAddress":"Reichenbachstraße 26, 80469 München, Germany"}
{"timestamp":"2016-09-26T17:45:00+0200","id":124024,"name":"Christl","coordinate":{"longitude":11.58040047,"latitude":48.13180161},"fuelLevel":0.83,"lastAddress":"Kohlstraße 4, 80469 München, Germany"}
{"timestamp":"2016-09-26T17:45:00+0200","id":124021,"name":"Xaver","coordinate":{"longitude":11.58059978,"latitude":48.13190079},"fuelLevel":0.52,"lastAddress":"Kohlstraße 3, 80469 München, Germany"}
{"timestamp":"2016-09-26T17:45:00+0200","id":124014,"name":"Quirin","coordinate":{"longitude":11.60379982,"latitude":48.13370132},"fuelLevel":0.63,"lastAddress":"Kirchenstraße 37, 81675 München, Germany"}
{"timestamp":"2016-09-26T17:45:00+0200","id":124034,"name":"Kathi","coordinate":{"longitude":11.60490036,"latitude":48.13230133},"fuelLevel":0.67,"lastAddress":"Elsässer Str. 6, 81667 München, Germany"}
{"timestamp":"2016-09-26T17:45:00+0200","id":124030,"name":"Hedwig","coordinate":{"longitude":11.56299973,"latitude":48.12659836},"fuelLevel":0.9099999999999999,"lastAddress":"Thalkirchner Str. 66-68, 80337 München, Germany"}
{"timestamp":"2016-09-26T17:45:00+0200","id":124023,"name":"Babsi","coordinate":{"longitude":11.56369972,"latitude":48.12720108},"fuelLevel":0.93,"lastAddress":"Thalkirchner Str. 54, 80337 München, Germany"}
{"timestamp":"2016-09-26T17:45:00+0200","id":124016,"name":"Sepp","coordinate":{"longitude":11.59860039,"latitude":48.12590027},"fuelLevel":0.9199999999999999,"lastAddress":"Rosenheimer Str. 125, 81667 München, Germany"}
{"timestamp":"2016-09-26T17:45:00+0200","id":124038,"name":"Magda","coordinate":{"longitude":11.6001997,"latitude":48.12810135},"fuelLevel":0.76,"lastAddress":"Gravelottestraße 1, 81667 München, Germany"}
{"timestamp":"2016-09-26T17:45:00+0200","id":124022,"name":"Anne","coordinate":{"longitude":11.59679985,"latitude":48.12689972},"fuelLevel":0.8900000000000001,"lastAddress":"Rosenheimer Str. 105, 81667 München, Germany"}
{"timestamp":"2016-09-26T17:45:00+0200","id":124000,"name":"Bertl","coordinate":{"longitude":11.5948,"latitude":48.12979889},"fuelLevel":0.8500000000000001,"lastAddress":"Steinstraße 62, 81667 München, Germany"}
{"timestamp":"2016-09-26T17:45:00+0200","id":124013,"name":"Poldi","coordinate":{"longitude":11.59459972,"latitude":48.12689972},"fuelLevel":0.83,"lastAddress":"Rablstraße 47, 81669 München, Germany"}
{"timestamp":"2016-09-26T17:45:00+0200","id":124011,"name":"Maxl","coordinate":{"longitude":11.5927,"latitude":48.12590027},"fuelLevel":0.8099999999999999,"lastAddress":"Sieboldstraße 2, 81669 München, Germany"}
{"timestamp":"2016-09-26T17:45:00+0200","id":124003,"name":"Franzl","coordinate":{"longitude":11.58940029,"latitude":48.125},"fuelLevel":0.88,"lastAddress":"Franziskanerstraße 49, 81669 München, Germany"}
{"timestamp":"2016-09-26T17:45:00+0200","id":124010,"name":"Luitpold","coordinate":{"longitude":11.58619976,"latitude":48.12590027},"fuelLevel":0.88,"lastAddress":"Hochstraße 33, 81541 München, Germany"}
{"timestamp":"2016-09-26T17:45:00+0200","id":124019,"name":"Valentin","coordinate":{"longitude":11.58510017,"latitude":48.12379837},"fuelLevel":0.9199999999999999,"lastAddress":"Hochstraße 47A, 81541 München, Germany"}
{"timestamp":"2016-09-26T17:45:00+0200","id":124035,"name":"Leonie","coordinate":{"longitude":11.58570004,"latitude":48.12929916},"fuelLevel":0.7899999999999999,"lastAddress":"Schwarzstraße 1, 81669 München, Germany"}
{"timestamp":"2016-09-26T17:45:00+0200","id":124006,"name":"Gustl","coordinate":{"longitude":11.57769966,"latitude":48.12080002},"fuelLevel":0.93,"lastAddress":"Dollmannstraße 2, 81541 München, Germany"}
{"timestamp":"2016-09-26T17:45:00+0200","id":124020,"name":"Vinzenz","coordinate":{"longitude":11.57989979,"latitude":48.1228981},"fuelLevel":0.9299999999999999,"lastAddress":"Falkenstraße 17, 81541 München, Germany"}
{"timestamp":"2016-09-26T17:45:00+0200","id":124049,"name":"Marei","coordinate":{"longitude":11.57390022,"latitude":48.12009811},"fuelLevel":0.7200000000000001,"lastAddress":"Humboldtstraße 21, 81543 München, Germany"}
{"timestamp":"2016-09-26T17:45:00+0200","id":124043,"name":"Traudl","coordinate":{"longitude":11.57479954,"latitude":48.12810135},"fuelLevel":0.71,"lastAddress":"Baaderstraße 82, 80469 München, Germany"}
{"timestamp":"2016-09-26T17:45:00+0200","id":124018,"name":"Toni","coordinate":{"longitude":11.56919956,"latitude":48.12659836},"fuelLevel":0.9500000000000001,"lastAddress":"Jahnstraße 45, 80469 München, Germany"}
{"timestamp":"2016-09-26T17:45:00+0200","id":124004,"name":"Fridl","coordinate":{"longitude":11.56000042,"latitude":48.15570068},"fuelLevel":0.82,"lastAddress":"Winzererstraße 34, 80797 München, Germany"}
{"timestamp":"2016-09-26T17:45:00+0200","id":124031,"name":"Heidi","coordinate":{"longitude":11.56649971,"latitude":48.14820099},"fuelLevel":0.8500000000000001,"lastAddress":"Technische Universität München, Arcisstraße 21, 80333 München, Germany"}
{"timestamp":"2016-09-26T17:45:00+0200","id":124047,"name":"Walli","coordinate":{"longitude":11.57180023,"latitude":48.15629959},"fuelLevel":0.8999999999999999,"lastAddress":"Georgenstraße 78, 80799 München, Germany"}
{"timestamp":"2016-09-26T17:45:00+0200","id":124048,"name":"Wiggerl","coordinate":{"longitude":11.57719994,"latitude":48.15930176},"fuelLevel":0.7200000000000001,"lastAddress":"Römerstraße 9, 80801 München, Germany"}
{"timestamp":"2016-09-26T17:45:00+0200","id":124028,"name":"Gitte","coordinate":{"longitude":11.58030033,"latitude":48.15810013},"fuelLevel":0.81,"lastAddress":"Habsburgerpl. 2, 80801 München, Germany"}
{"timestamp":"2016-09-26T17:45:00+0200","id":124027,"name":"Fanni","coordinate":{"longitude":11.57740021,"latitude":48.15930176},"fuelLevel":0.85,"lastAddress":"Römerstraße 10, 80801 München, Germany"}
{"timestamp":"2016-09-26T17:45:00+0200","id":124005,"name":"Georg","coordinate":{"longitude":11.58129978,"latitude":48.15869904},"fuelLevel":0.69,"lastAddress":"Ainmillerstraße 17, 80801 München, Germany"}
{"timestamp":"2016-09-26T17:45:00+0200","id":124032,"name":"Irmi","coordinate":{"longitude":11.57260036,"latitude":48.16009903},"fuelLevel":0.64,"lastAddress":"Isabellastraße 45, 80796 München, Germany"}
{"timestamp":"2016-09-26T17:45:00+0200","id":124017,"name":"Siggi","coordinate":{"longitude":11.56739998,"latitude":48.16130066},"fuelLevel":0.6000000000000001,"lastAddress":"Hohenzollernstraße 130, 80796 München, Germany"}
{"timestamp":"2016-09-26T17:45:00+0200","id":124029,"name":"Hannah","coordinate":{"longitude":11.51029968,"latitude":48.04529953},"fuelLevel":0.7,"lastAddress":"Gistlstraße 159, 82049 Pullach im Isartal, Germany"}
{"timestamp":"2016-09-26T17:45:00+0200","id":124042,"name":"Tilli","coordinate":{"longitude":11.50529957,"latitude":48.04270172},"fuelLevel":0.84,"lastAddress":"Wolfratshauser Str. 138, 82049 Pullach im Isartal, Germany"}
{"timestamp":"2016-09-26T17:45:00+0200","id":124039,"name":"Marie","coordinate":{"longitude":11.50959969,"latitude":48.04550171},"fuelLevel":0.89,"lastAddress":"Seitnerstraße 70, 82049 Pullach im Isartal, Germany"}
{"timestamp":"2016-09-26T17:45:00+0200","id":124009,"name":"Ludwig","coordinate":{"longitude":11.57820034,"latitude":48.16419983},"fuelLevel":0.9400000000000001,"lastAddress":"Cherubinistraße 2, 80803 München, Germany"}