{"timestamp":"2016-10-06T09:20:00+0200","id":124041,"name":"Sophie","coordinate":{"longitude":11.57759953,"latitude":48.14960098},"fuelLevel":0.93,"lastAddress":"Schellingstraße 11, 80799 München, Germany"}
{"timestamp":"2016-10-06T09:20:00+0200","id":124026,"name":"Eva","coordinate":{"longitude":11.57820034,"latitude":48.1534996},"fuelLevel":0.61,"lastAddress":"Türkenstraße 93, 80799 München, Germany"}
{"timestamp":"2016-10-06T09:20:00+0200","id":124033,"name":"Johanna","coordinate":{"longitude":11.58189964,"latitude":48.15190125},"fuelLevel":0.84,"lastAddress":"Leopoldstraße 4, 80802 München, Germany"}
{"timestamp":"2016-10-06T09:20:00+0200","id":124036,"name":"Liesel","coordinate":{"longitude":11.57530022,"latitude":48.15629959},"fuelLevel":0.6699999999999999,"lastAddress":"Nordendstraße 36, 80801 München, Germany"}
{"timestamp":"2016-10-06T09:20:00+0200","id":124044,"name":"Uschi","coordinate":{"longitude":11.57229996,"latitude":48.13140106},"fuelLevel":0.9199999999999999,"lastAddress":"Müllerstraße 15, 80469 München, Germany"}
{"timestamp":"2016-10-06T09:20:00+0200","id":124024,"name":"Christl","coordinate":{"longitude":11.5795002,"latitude":48.13389969},"fuelLevel":0.8,"lastAddress":"Klenzestraße 2, 80469 München, Germany"}
{"timestamp":"2016-10-06T09:20:00+0200","id":124040,"name":"Reserl","coordinate":{"longitude":11.57310009,"latitude":48.13209915},"fuelLevel":0.8999999999999999,"lastAddress":"Müllerstraße 7, 80469 München, Germany"}
{"timestamp":"2016-10-06T09:20:00+0200","id":124021,"name":"Xaver","coordinate":{"longitude":11.58160019,"latitude":48.13069916},"fuelLevel":0.9500000000000001,"lastAddress":"Erhardtstraße 27, 80469 München, Germany"}
{"timestamp":"2016-10-06T09:20:00+0200","id":124014,"name":"Quirin","coordinate":{"longitude":11.60830021,"latitude":48.13290024},"fuelLevel":0.63,"lastAddress":"Kirchenstraße 85, 81675 München, Germany"}
{"timestamp":"2016-10-06T09:20:00+0200","id":124034,"name":"Kathi","coordinate":{"longitude":11.60529995,"latitude":48.13299942},"fuelLevel":0.67,"lastAddress":"Kirchenstraße 66, 81675 München, Germany"}
{"timestamp":"2016-10-06T09:20:00+0200","id":124030,"name":"Hedwig","coordinate":{"longitude":11.5635004,"latitude":48.12770081},"fuelLevel":0.9199999999999999,"lastAddress":"Waltherstraße 3, 80337 München, Germany"}
{"timestamp":"2016-10-06T09:20:00+0200","id":124023,"name":"Babsi","coordinate":{"longitude":11.56369972,"latitude":48.12730026},"fuelLevel":0.93,"lastAddress":"Thalkirchner Str. 54, 80337 München, Germany"}
{"timestamp":"2016-10-06T09:20:00+0200","id":124016,"name":"Sepp","coordinate":{"longitude":11.59829998,"latitude":48.12580109},"fuelLevel":0.9199999999999999,"lastAddress":"Rosenheimer Str. 100, 81669 München, Germany"}
{"timestamp":"2016-10-06T09:20:00+0200","id":124038,"name":"Magda","coordinate":{"longitude":11.60029984,"latitude":48.1283989},"fuelLevel":0.67,"lastAddress":"Pariser Pl., 81667 München, Germany"}
{"timestamp":"2016-10-06T09:20:00+0200","id":124022,"name":"Anne","coordinate":{"longitude":11.59640026,"latitude":48.1269989},"fuelLevel":0.8800000000000001,"lastAddress":"Rosenheimer Str. 82, 81669 München, Germany"}
{"timestamp":"2016-10-06T09:20:00+0200","id":124000,"name":"Bertl","coordinate":{"longitude":11.59689999,"latitude":48.12950134},"fuelLevel":0.82,"lastAddress":"Kellerstraße 34, 81667 München, Germany"}
{"timestamp":"2016-10-06T09:20:00+0200","id":124013,"name":"Poldi","coordinate":{"longitude":11.5941,"latitude":48.12799835},"fuelLevel":0.79,"lastAddress":"Franziskanerstraße 3, 81669 München, Germany"}
{"timestamp":"2016-10-06T09:20:00+0200","id":124011,"name":"Maxl","coordinate":{"longitude":11.59309959,"latitude":48.12530136},"fuelLevel":0.7899999999999999,"lastAddress":"Barnabasstraße 1, 81669 München, Germany"}
{"timestamp":"2016-10-06T09:20:00+0200","id":124003,"name":"Franzl","coordinate":{"longitude":11.59300041,"latitude":48.12739944},"fuelLevel":0.8,"lastAddress":"Franziskanerstraße 8, 81669 München, Germany"}
{"timestamp":"2016-10-06T09:20:00+0200","id":124010,"name":"Luitpold","coordinate":{"longitude":11.58450031,"latitude":48.12770081},"fuelLevel":0.9500000000000001,"lastAddress":"Lilienstraße 66, 81669 München, Germany"}
{"timestamp":"2016-10-06T09:20:00+0200","id":124006,"name":"Gustl","coordinate":{"longitude":11.57730007,"latitude":48.12149811},"fuelLevel":0.9400000000000001,"lastAddress":"Entenbachstraße 49, 81541 München, Germany"}
{"timestamp":"2016-10-06T09:20:00+0200","id":124020,"name":"Vinzenz","coordinate":{"longitude":11.57670021,"latitude":48.12450027},"fuelLevel":0.8999999999999999,"lastAddress":"Albanistraße 3, 81541 München, Germany"}
{"timestamp":"2016-10-06T09:20:00+0200","id":124049,"name":"Marei","coordinate":{"longitude":11.57439995,"latitude":48.11999893},"fuelLevel":0.69,"lastAddress":"Humboldtstraße 23, 81543 München, Germany"}
{"timestamp":"2016-10-06T09:20:00+0200","id":124045,"name":"Vroni","coordinate":{"longitude":11.56709957,"latitude":48.12720108},"fuelLevel":0.9199999999999999,"lastAddress":"Holzstraße 49-51, 80469 München, Germany"}
{"timestamp":"2016-10-06T09:20:00+0200","id":124018,"name":"Toni","coordinate":{"longitude":11.56989956,"latitude":48.13079834},"fuelLevel":0.9199999999999999,"lastAddress":"Müllerstraße 31, 80469 München, Germany"}
{"timestamp":"2016-10-06T09:20:00+0200","id":124012,"name":"Peter","coordinate":{"longitude":11.57240009,"latitude":48.14970016},"fuelLevel":1,"lastAddress":"Barer Str. 29, 80799 München, Germany"}
{"timestamp":"2016-10-06T09:20:00+0200","id":124004,"name":"Fridl","coordinate":{"longitude":11.56499958,"latitude":48.1570015},"fuelLevel":0.55,"lastAddress":"Georgenstraße 124, 80798 München, Germany"}
{"timestamp":"2016-10-06T09:20:00+0200","id":124031,"name":"Heidi","coordinate":{"longitude":11.56659985,"latitude":48.15039825},"fuelLevel":0.8,"lastAddress":"Theresienstraße 43, 80333 München, Germany"}
{"timestamp":"2016-10-06T09:20:00+0200","id":124047,"name":"Walli","coordinate":{"longitude":11.56999969,"latitude":48.15050125},"fuelLevel":0.83,"lastAddress":"Arcisstraße 32, 80799 München, Germany"}
{"timestamp":"2016-10-06T09:20:00+0200","id":124002,"name":"Ferdl","coordinate":{"longitude":11.56470013,"latitude":48.15230179},"fuelLevel":0.9500000000000001,"lastAddress":"Heßstraße 54, 80798 München, Germany"}
{"timestamp":"2016-10-06T09:20:00+0200","id":124048,"name":"Wiggerl","coordinate":{"longitude":11.57870007,"latitude":48.16080093},"fuelLevel":0.68,"lastAddress":"Kaiserstraße 47, 80801 München, Germany"}
{"timestamp":"2016-10-06T09:20:00+0200","id":124028,"name":"Gitte","coordinate":{"longitude":11.57719994,"latitude":48.16030121},"fuelLevel":0.75,"lastAddress":"Römerstraße 21, 80801 München, Germany"}
{"timestamp":"2016-10-06T09:20:00+0200","id":124027,"name":"Fanni","coordinate":{"longitude":11.57789993,"latitude":48.15950012},"fuelLevel":0.7899999999999999,"lastAddress":"Römerstraße 14, 80801 München, Germany"}
{"timestamp":"2016-10-06T09:20:00+0200","id":124005,"name":"Georg","coordinate":{"longitude":11.58139992,"latitude":48.15829849},"fuelLevel":0.66,"lastAddress":"Ainmillerstraße 15, 80801 München, Germany"}
{"timestamp":"2016-10-06T09:20:00+0200","id":124032,"name":"Irmi","coordinate":{"longitude":11.57320023,"latitude":48.16040039},"fuelLevel":0.64,"lastAddress":"Isabellastraße 49, 80796 München, Germany"}
{"timestamp":"2016-10-06T09:20:00+0200","id":124037,"name":"Luise","coordinate":{"longitude":11.56630039,"latitude":48.15790176},"fuelLevel":0.58,"lastAddress":"Agnesstraße 38, 80798 München, Germany"}
{"timestamp":"2016-10-06T09:20:00+0200","id":124017,"name":"Siggi","coordinate":{"longitude":11.5710001,"latitude":48.16049957},"fuelLevel":0.56,"lastAddress":"Jakob-Klar-Straße 11, 80796 München, Germany"}
{"timestamp":"2016-10-06T09:20:00+0200","id":124029,"name":"Hannah","coordinate":{"longitude":11.51029968,"latitude":48.04539871},"fuelLevel":0.7,"lastAddress":"Gistlstraße 159, 82049 Pullach im Isartal, Germany"}
{"timestamp":"2016-10-06T09:20:00+0200","id":124008,"name":"Johann","coordinate":{"longitude":11.51000023,"latitude":48.04550171},"fuelLevel":0.87,"lastAddress":"Gistlstraße 159, 82049 Pullach im Isartal, Germany"}
{"timestamp":"2016-10-06T09:20:00+0200","id":124039,"name":"Marie","coordinate":{"longitude":11.50949955,"latitude":48.04550171},"fuelLevel":0.58,"lastAddress":"Seitnerstraße 70, 82049 Pullach im Isartal, Germany"}
{"timestamp":"2016-10-06T09:20:00+0200","id":124009,"name":"Ludwig","coordinate":{"longitude":11.58500004,"latitude":48.16249847},"fuelLevel":0.8999999999999999,"lastAddress":"Siegfriedstraße 3, 80803 München, Germany"}
{"timestamp":"2016-10-06T09:20:00+0200","id":124007,"name":"Jakob","coordinate":{"longitude":11.57479954,"latitude":48.16719818},"fuelLevel":0.9400000000000001,"lastAddress":"Karl-Theodor-Straße 80, 80803 München, Germany"}