{"timestamp":"2016-12-02T01:00:00+0100","id":124026,"name":"Eva","coordinate":{"longitude":11.58131409,"latitude":48.15229797},"fuelLevel":0.7200000000000001,"lastAddress":"Akademiestraße 3, 80799 München, Germany"}
{"timestamp":"2016-12-02T01:00:00+0100","id":124025,"name":"Elli","coordinate":{"longitude":11.58120728,"latitude":48.15249634},"fuelLevel":0.8200000000000001,"lastAddress":"Akademiestraße 5, 80799 München, Germany"}
{"timestamp":"2016-12-02T01:00:00+0100","id":124033,"name":"Johanna","coordinate":{"longitude":11.57940674,"latitude":48.15168762},"fuelLevel":0.67,"lastAddress":"Amalienstraße 56, 80799 München, Germany"}
{"timestamp":"2016-12-02T01:00:00+0100","id":124036,"name":"Liesel","coordinate":{"longitude":11.57859802,"latitude":48.15310669},"fuelLevel":0.5499999999999999,"lastAddress":"Akademiestraße 4, 80799 München, Germany"}
{"timestamp":"2016-12-02T01:00:00+0100","id":124024,"name":"Christl","coordinate":{"longitude":11.57601929,"latitude":48.12971497},"fuelLevel":0.57,"lastAddress":"Reichenbachstraße 39, 80469 München, Germany"}
{"timestamp":"2016-12-02T01:00:00+0100","id":124040,"name":"Reserl","coordinate":{"longitude":11.57371521,"latitude":48.13240051},"fuelLevel":0.58,"lastAddress":"Müllerstraße 3, 80469 München, Germany"}
{"timestamp":"2016-12-02T01:00:00+0100","id":124021,"name":"Xaver","coordinate":{"longitude":11.58190918,"latitude":48.13110352},"fuelLevel":0.7799999999999999,"lastAddress":"Kohlstraße 11, 80469 München, Germany"}
{"timestamp":"2016-12-02T01:00:00+0100","id":124014,"name":"Quirin","coordinate":{"longitude":11.5974884,"latitude":48.13301086},"fuelLevel":0.33,"lastAddress":"Metzgerstraße 5, 81667 München, Germany"}
{"timestamp":"2016-12-02T01:00:00+0100","id":124034,"name":"Kathi","coordinate":{"longitude":11.60549927,"latitude":48.13218689},"fuelLevel":0.62,"lastAddress":"Spicherenstraße 3, 81667 München, Germany"}
{"timestamp":"2016-12-02T01:00:00+0100","id":124023,"name":"Babsi","coordinate":{"longitude":11.56739807,"latitude":48.1309967},"fuelLevel":0.86,"lastAddress":"Pestalozzistraße 11-13, 80469 München, Germany"}
{"timestamp":"2016-12-02T01:00:00+0100","id":124038,"name":"Magda","coordinate":{"longitude":11.59939575,"latitude":48.12843323},"fuelLevel":0.67,"lastAddress":"Weißenburger Str. 31, 81667 München, Germany"}
{"timestamp":"2016-12-02T01:00:00+0100","id":124022,"name":"Anne","coordinate":{"longitude":11.60116577,"latitude":48.12722778},"fuelLevel":0.39999999999999997,"lastAddress":"Gravelottestraße 14, 81667 München, Germany"}
{"timestamp":"2016-12-02T01:00:00+0100","id":124000,"name":"Bertl","coordinate":{"longitude":11.60560608,"latitude":48.13200378},"fuelLevel":0.6180555555555556,"lastAddress":"Spicherenstraße 3, 81667 München, Germany"}
{"timestamp":"2016-12-02T01:00:00+0100","id":124013,"name":"Poldi","coordinate":{"longitude":11.59179688,"latitude":48.12608337},"fuelLevel":0.75,"lastAddress":"Franziskanerstraße 16, 81669 München, Germany"}
{"timestamp":"2016-12-02T01:00:00+0100","id":124011,"name":"Maxl","coordinate":{"longitude":11.59228516,"latitude":48.12628174},"fuelLevel":0.9400000000000001,"lastAddress":"Franziskanerstraße 14, 81669 München, Germany"}
{"timestamp":"2016-12-02T01:00:00+0100","id":124003,"name":"Franzl","coordinate":{"longitude":11.59016418,"latitude":48.1255188},"fuelLevel":0.44,"lastAddress":"Franziskanerstraße 28, 81669 München, Germany"}
{"timestamp":"2016-12-02T01:00:00+0100","id":124010,"name":"Luitpold","coordinate":{"longitude":11.5847168,"latitude":48.12879944},"fuelLevel":0.55,"lastAddress":"Zeppelinstraße 55, 81669 München, Germany"}
{"timestamp":"2016-12-02T01:00:00+0100","id":124019,"name":"Valentin","coordinate":{"longitude":11.58250427,"latitude":48.12590027},"fuelLevel":0.89,"lastAddress":"Mariahilfstraße 22A, 81541 München, Germany"}
{"timestamp":"2016-12-02T01:00:00+0100","id":124006,"name":"Gustl","coordinate":{"longitude":11.58030701,"latitude":48.1210022},"fuelLevel":0.8300000000000001,"lastAddress":"Nockherstraße 11, 81541 München, Germany"}
{"timestamp":"2016-12-02T01:00:00+0100","id":124020,"name":"Vinzenz","coordinate":{"longitude":11.57949829,"latitude":48.12461853},"fuelLevel":0.71,"lastAddress":"Entenbachstraße 1-3, 81541 München, Germany"}
{"timestamp":"2016-12-02T01:00:00+0100","id":124049,"name":"Marei","coordinate":{"longitude":11.58050537,"latitude":48.11950684},"fuelLevel":0.8,"lastAddress":"Am Bergsteig 5, 81541 München, Germany"}
{"timestamp":"2016-12-02T01:00:00+0100","id":124018,"name":"Toni","coordinate":{"longitude":11.56610107,"latitude":48.12670898},"fuelLevel":0.6388888888888888,"lastAddress":"Pestalozzistraße 60, 80469 München, Germany"}
{"timestamp":"2016-12-02T01:00:00+0100","id":124012,"name":"Peter","coordinate":{"longitude":11.56121826,"latitude":48.15730286},"fuelLevel":0.5399999999999999,"lastAddress":"Georgenstraße 121-123, 80797 München, Germany"}
{"timestamp":"2016-12-02T01:00:00+0100","id":124004,"name":"Fridl","coordinate":{"longitude":11.55639648,"latitude":48.15490723},"fuelLevel":0.77,"lastAddress":"Heßstraße 110, 80797 München, Germany"}
{"timestamp":"2016-12-02T01:00:00+0100","id":124031,"name":"Heidi","coordinate":{"longitude":11.5717926,"latitude":48.14830017},"fuelLevel":0.81,"lastAddress":"Barer Str. 27, 80799 München, Germany"}
{"timestamp":"2016-12-02T01:00:00+0100","id":124047,"name":"Walli","coordinate":{"longitude":11.56559753,"latitude":48.1534729},"fuelLevel":0.62,"lastAddress":"Augustenstraße 107, 80798 München, Germany"}
{"timestamp":"2016-12-02T01:00:00+0100","id":124002,"name":"Ferdl","coordinate":{"longitude":11.56990051,"latitude":48.15049744},"fuelLevel":0.8999999999999999,"lastAddress":"Arcisstraße 32, 80799 München, Germany"}
{"timestamp":"2016-12-02T01:00:00+0100","id":124048,"name":"Wiggerl","coordinate":{"longitude":11.57739258,"latitude":48.15910339},"fuelLevel":0.7799999999999999,"lastAddress":"Ainmillerstraße 42, 80801 München, Germany"}
{"timestamp":"2016-12-02T01:00:00+0100","id":124028,"name":"Gitte","coordinate":{"longitude":11.57960033,"latitude":48.15779877},"fuelLevel":0.9099999999999999,"lastAddress":"Franz-Joseph-Straße 25, 80801 München, Germany"}
{"timestamp":"2016-12-02T01:00:00+0100","id":124027,"name":"Fanni","coordinate":{"longitude":11.58093262,"latitude":48.16148376},"fuelLevel":0.8300000000000001,"lastAddress":"Kaiserpl. 1, 80803 München, Germany"}
{"timestamp":"2016-12-02T01:00:00+0100","id":124001,"name":"Edmund","coordinate":{"longitude":11.57841492,"latitude":48.15910339},"fuelLevel":0.51,"lastAddress":"Ainmillerstraße 38, 80801 München, Germany"}
{"timestamp":"2016-12-02T01:00:00+0100","id":124032,"name":"Irmi","coordinate":{"longitude":11.5750885,"latitude":48.15950012},"fuelLevel":0.61,"lastAddress":"Kurfürstenpl. 2, 80796 München, Germany"}
{"timestamp":"2016-12-02T01:00:00+0100","id":124037,"name":"Luise","coordinate":{"longitude":11.5710001,"latitude":48.15869904},"fuelLevel":0.9099999999999999,"lastAddress":"Elisabethstraße 22, 80796 München, Germany"}
{"timestamp":"2016-12-02T01:00:00+0100","id":124017,"name":"Siggi","coordinate":{"longitude":11.57339478,"latitude":48.15670776},"fuelLevel":0.8,"lastAddress":"Arcisstraße 65, 80801 München, Germany"}
{"timestamp":"2016-12-02T01:00:00+0100","id":124029,"name":"Hannah","coordinate":{"longitude":11.50979614,"latitude":48.0453949},"fuelLevel":0.6000000000000001,"lastAddress":"Seitnerstraße 70, 82049 Pullach im Isartal, Germany"}
{"timestamp":"2016-12-02T01:00:00+0100","id":124039,"name":"Marie","coordinate":{"longitude":11.50629997,"latitude":48.04370117},"fuelLevel":0.71,"lastAddress":"Wolfratshauser Str. 138, 82049 Pullach im Isartal, Germany"}
{"timestamp":"2016-12-02T01:00:00+0100","id":124009,"name":"Ludwig","coordinate":{"longitude":11.58239746,"latitude":48.16558838},"fuelLevel":0.71,"lastAddress":"Muffatstraße 8, 80803 München, Germany"}
{"timestamp":"2016-12-02T01:00:00+0100","id":124007,"name":"Jakob","coordinate":{"longitude":11.57887268,"latitude":48.16670227},"fuelLevel":0.75,"lastAddress":"Bonner Pl. 4, 80803 München, Germany"}