{"timestamp":"2016-09-29T21:25:00+0200","id":124041,"name":"Sophie","coordinate":{"longitude":11.57759953,"latitude":48.14970016},"fuelLevel":0.93,"lastAddress":"Schellingstraße 11, 80799 München, Germany"}
{"timestamp":"2016-09-29T21:25:00+0200","id":124026,"name":"Eva","coordinate":{"longitude":11.57849979,"latitude":48.1534996},"fuelLevel":0.61,"lastAddress":"Türkenstraße 93, 80799 München, Germany"}
{"timestamp":"2016-09-29T21:25:00+0200","id":124025,"name":"Elli","coordinate":{"longitude":11.57610035,"latitude":48.15530014},"fuelLevel":0.77,"lastAddress":"Kurfürstenstraße 21, 80801 München, Germany"}
{"timestamp":"2016-09-29T21:25:00+0200","id":124033,"name":"Johanna","coordinate":{"longitude":11.58170033,"latitude":48.15190125},"fuelLevel":0.88,"lastAddress":"Leopoldstraße 4, 80802 München, Germany"}
{"timestamp":"2016-09-29T21:25:00+0200","id":124036,"name":"Liesel","coordinate":{"longitude":11.57520008,"latitude":48.15629959},"fuelLevel":0.6699999999999999,"lastAddress":"Nordendstraße 36, 80801 München, Germany"}
{"timestamp":"2016-09-29T21:25:00+0200","id":124024,"name":"Christl","coordinate":{"longitude":11.57960033,"latitude":48.13380051},"fuelLevel":0.8,"lastAddress":"Klenzestraße 1A, 80469 München, Germany"}
{"timestamp":"2016-09-29T21:25:00+0200","id":124040,"name":"Reserl","coordinate":{"longitude":11.57870007,"latitude":48.13119888},"fuelLevel":0.79,"lastAddress":"Baaderstraße 38, 80469 München, Germany"}
{"timestamp":"2016-09-29T21:25:00+0200","id":124021,"name":"Xaver","coordinate":{"longitude":11.58069992,"latitude":48.13209915},"fuelLevel":0.52,"lastAddress":"Baaderstraße 2, 80469 München, Germany"}
{"timestamp":"2016-09-29T21:25:00+0200","id":124034,"name":"Kathi","coordinate":{"longitude":11.60490036,"latitude":48.13219833},"fuelLevel":0.67,"lastAddress":"Elsässer Str. 16, 81667 München, Germany"}
{"timestamp":"2016-09-29T21:25:00+0200","id":124030,"name":"Hedwig","coordinate":{"longitude":11.56750011,"latitude":48.13119888},"fuelLevel":0.89,"lastAddress":"Pestalozzistraße 7, 80469 München, Germany"}
{"timestamp":"2016-09-29T21:25:00+0200","id":124023,"name":"Babsi","coordinate":{"longitude":11.5635004,"latitude":48.12689972},"fuelLevel":0.93,"lastAddress":"Thalkirchner Str. 62, 80337 München, Germany"}
{"timestamp":"2016-09-29T21:25:00+0200","id":124016,"name":"Sepp","coordinate":{"longitude":11.59840012,"latitude":48.12599945},"fuelLevel":0.9199999999999999,"lastAddress":"Rosenheimer Str. 123, 81667 München, Germany"}
{"timestamp":"2016-09-29T21:25:00+0200","id":124038,"name":"Magda","coordinate":{"longitude":11.60009956,"latitude":48.1283989},"fuelLevel":0.76,"lastAddress":"Pariser Pl., 81667 München, Germany"}
{"timestamp":"2016-09-29T21:25:00+0200","id":124022,"name":"Anne","coordinate":{"longitude":11.59679985,"latitude":48.12689972},"fuelLevel":0.8900000000000001,"lastAddress":"Rosenheimer Str. 105, 81667 München, Germany"}
{"timestamp":"2016-09-29T21:25:00+0200","id":124000,"name":"Bertl","coordinate":{"longitude":11.59490013,"latitude":48.12939835},"fuelLevel":0.84,"lastAddress":"Steinstraße 79, 81667 München, Germany"}
{"timestamp":"2016-09-29T21:25:00+0200","id":124013,"name":"Poldi","coordinate":{"longitude":11.59430027,"latitude":48.12749863},"fuelLevel":0.79,"lastAddress":"Balanstraße 8, 81669 München, Germany"}
{"timestamp":"2016-09-29T21:25:00+0200","id":124011,"name":"Maxl","coordinate":{"longitude":11.59210014,"latitude":48.12630081},"fuelLevel":0.8099999999999999,"lastAddress":"Franziskanerstraße 14, 81669 München, Germany"}
{"timestamp":"2016-09-29T21:25:00+0200","id":124003,"name":"Franzl","coordinate":{"longitude":11.59300041,"latitude":48.12739944},"fuelLevel":0.79,"lastAddress":"Franziskanerstraße 8, 81669 München, Germany"}
{"timestamp":"2016-09-29T21:25:00+0200","id":124010,"name":"Luitpold","coordinate":{"longitude":11.58590031,"latitude":48.1257019},"fuelLevel":0.88,"lastAddress":"Gebsattelstraße 2, 81541 München, Germany"}
{"timestamp":"2016-09-29T21:25:00+0200","id":124019,"name":"Valentin","coordinate":{"longitude":11.58479977,"latitude":48.12340164},"fuelLevel":0.9199999999999999,"lastAddress":"Hochstraße 51A, 81541 München, Germany"}
{"timestamp":"2016-09-29T21:25:00+0200","id":124035,"name":"Leonie","coordinate":{"longitude":11.58549976,"latitude":48.12900162},"fuelLevel":0.7899999999999999,"lastAddress":"Schwarzstraße 4, 81669 München, Germany"}
{"timestamp":"2016-09-29T21:25:00+0200","id":124006,"name":"Gustl","coordinate":{"longitude":11.57759953,"latitude":48.12080002},"fuelLevel":0.93,"lastAddress":"Falkenstraße 43, 81541 München, Germany"}
{"timestamp":"2016-09-29T21:25:00+0200","id":124020,"name":"Vinzenz","coordinate":{"longitude":11.57849979,"latitude":48.12400055},"fuelLevel":0.9099999999999999,"lastAddress":"Albanistraße 13, 81541 München, Germany"}
{"timestamp":"2016-09-29T21:25:00+0200","id":124049,"name":"Marei","coordinate":{"longitude":11.57409954,"latitude":48.12030029},"fuelLevel":0.7200000000000001,"lastAddress":"Oefelestraße 12, 81543 München, Germany"}
{"timestamp":"2016-09-29T21:25:00+0200","id":124045,"name":"Vroni","coordinate":{"longitude":11.56739998,"latitude":48.1271019},"fuelLevel":0.9199999999999999,"lastAddress":"Holzstraße 49-51, 80469 München, Germany"}
{"timestamp":"2016-09-29T21:25:00+0200","id":124018,"name":"Toni","coordinate":{"longitude":11.57269955,"latitude":48.12969971},"fuelLevel":0.9299999999999999,"lastAddress":"Klenzestraße 46A, 80469 München, Germany"}
{"timestamp":"2016-09-29T21:25:00+0200","id":124012,"name":"Peter","coordinate":{"longitude":11.57250023,"latitude":48.14979935},"fuelLevel":1,"lastAddress":"Barer Str. 48-50, 80799 München, Germany"}
{"timestamp":"2016-09-29T21:25:00+0200","id":124004,"name":"Fridl","coordinate":{"longitude":11.56610012,"latitude":48.15629959},"fuelLevel":0.55,"lastAddress":"Hiltenspergerstraße 4, 80798 München, Germany"}
{"timestamp":"2016-09-29T21:25:00+0200","id":124031,"name":"Heidi","coordinate":{"longitude":11.56669998,"latitude":48.15019989},"fuelLevel":0.8,"lastAddress":"Luisenstraße 55, 80333 München, Germany"}
{"timestamp":"2016-09-29T21:25:00+0200","id":124002,"name":"Ferdl","coordinate":{"longitude":11.56400013,"latitude":48.15060043},"fuelLevel":0.9500000000000001,"lastAddress":"Augustenstraße 80, 80333 München, Germany"}
{"timestamp":"2016-09-29T21:25:00+0200","id":124048,"name":"Wiggerl","coordinate":{"longitude":11.57730007,"latitude":48.15950012},"fuelLevel":0.7200000000000001,"lastAddress":"Römerstraße 10-14, 80801 München, Germany"}
{"timestamp":"2016-09-29T21:25:00+0200","id":124028,"name":"Gitte","coordinate":{"longitude":11.57989979,"latitude":48.16009903},"fuelLevel":0.77,"lastAddress":"Hohenzollernstraße 44, 80801 München, Germany"}
{"timestamp":"2016-09-29T21:25:00+0200","id":124027,"name":"Fanni","coordinate":{"longitude":11.57719994,"latitude":48.15980148},"fuelLevel":0.8099999999999999,"lastAddress":"Römerstraße 17, 80801 München, Germany"}
{"timestamp":"2016-09-29T21:25:00+0200","id":124005,"name":"Georg","coordinate":{"longitude":11.58119965,"latitude":48.15859985},"fuelLevel":0.69,"lastAddress":"Ainmillerstraße 17, 80801 München, Germany"}
{"timestamp":"2016-09-29T21:25:00+0200","id":124001,"name":"Edmund","coordinate":{"longitude":11.5781002,"latitude":48.15769958},"fuelLevel":0.62,"lastAddress":"Franz-Joseph-Straße 35, 80801 München, Germany"}
{"timestamp":"2016-09-29T21:25:00+0200","id":124032,"name":"Irmi","coordinate":{"longitude":11.57289982,"latitude":48.16019821},"fuelLevel":0.64,"lastAddress":"Isabellastraße 47, 80796 München, Germany"}
{"timestamp":"2016-09-29T21:25:00+0200","id":124037,"name":"Luise","coordinate":{"longitude":11.56630039,"latitude":48.15810013},"fuelLevel":0.9027777777777778,"lastAddress":"Hiltenspergerstraße 18, 80798 München, Germany"}
{"timestamp":"2016-09-29T21:25:00+0200","id":124017,"name":"Siggi","coordinate":{"longitude":11.5710001,"latitude":48.16139984},"fuelLevel":0.56,"lastAddress":"Emanuelstraße 17, 80796 München, Germany"}
{"timestamp":"2016-09-29T21:25:00+0200","id":124029,"name":"Hannah","coordinate":{"longitude":11.51019955,"latitude":48.04529953},"fuelLevel":0.7,"lastAddress":"Gistlstraße 159, 82049 Pullach im Isartal, Germany"}
{"timestamp":"2016-09-29T21:25:00+0200","id":124042,"name":"Tilli","coordinate":{"longitude":11.50949955,"latitude":48.04539871},"fuelLevel":0.77,"lastAddress":"Seitnerstraße 70, 82049 Pullach im Isartal, Germany"}
{"timestamp":"2016-09-29T21:25:00+0200","id":124009,"name":"Ludwig","coordinate":{"longitude":11.5848999,"latitude":48.16210175},"fuelLevel":0.89,"lastAddress":"Herzogstraße 4, 80803 München, Germany"}
{"timestamp":"2016-09-29T21:25:00+0200","id":124007,"name":"Jakob","coordinate":{"longitude":11.5862999,"latitude":48.16389847},"fuelLevel":0.9500000000000001,"lastAddress":"Leopoldstraße 87, 80802 München, Germany"}