{"timestamp":"2016-10-20T14:10:00+0200","id":124041,"name":"Sophie","coordinate":{"longitude":11.58090019,"latitude":48.15110016},"fuelLevel":0.78,"lastAddress":"Geschwister-Scholl-Platz 1, 80539 München, Germany"}
{"timestamp":"2016-10-20T14:10:00+0200","id":124026,"name":"Eva","coordinate":{"longitude":11.58119965,"latitude":48.14989853},"fuelLevel":0.9199999999999999,"lastAddress":"Ludwigstraße 24, 80539 München, Germany"}
{"timestamp":"2016-10-20T14:10:00+0200","id":124025,"name":"Elli","coordinate":{"longitude":11.57909966,"latitude":48.15539932},"fuelLevel":0.8300000000000001,"lastAddress":"Friedrichstraße 3, 80801 München, Germany"}
{"timestamp":"2016-10-20T14:10:00+0200","id":124044,"name":"Uschi","coordinate":{"longitude":11.57269955,"latitude":48.13180161},"fuelLevel":0.71,"lastAddress":"Müllerstraße 9, 80469 München, Germany"}
{"timestamp":"2016-10-20T14:10:00+0200","id":124040,"name":"Reserl","coordinate":{"longitude":11.57209969,"latitude":48.13259888},"fuelLevel":0.77,"lastAddress":"Blumenstraße 28, 80331 München, Germany"}
{"timestamp":"2016-10-20T14:10:00+0200","id":124034,"name":"Kathi","coordinate":{"longitude":11.60879993,"latitude":48.13290024},"fuelLevel":0.57,"lastAddress":"Kirchenstraße 87, 81675 München, Germany"}
{"timestamp":"2016-10-20T14:10:00+0200","id":124016,"name":"Sepp","coordinate":{"longitude":11.59780025,"latitude":48.1269989},"fuelLevel":0.86,"lastAddress":"Pariser Str. 15, 81667 München, Germany"}
{"timestamp":"2016-10-20T14:10:00+0200","id":124013,"name":"Poldi","coordinate":{"longitude":11.59430027,"latitude":48.12739944},"fuelLevel":0.61,"lastAddress":"Balanstraße 8, 81669 München, Germany"}
{"timestamp":"2016-10-20T14:10:00+0200","id":124011,"name":"Maxl","coordinate":{"longitude":11.59459972,"latitude":48.12749863},"fuelLevel":0.6699999999999999,"lastAddress":"Balanstraße 8, 81669 München, Germany"}
{"timestamp":"2016-10-20T14:10:00+0200","id":124003,"name":"Franzl","coordinate":{"longitude":11.5941,"latitude":48.12739944},"fuelLevel":0.7799999999999999,"lastAddress":"Balanstraße 8, 81669 München, Germany"}
{"timestamp":"2016-10-20T14:10:00+0200","id":124010,"name":"Luitpold","coordinate":{"longitude":11.58749962,"latitude":48.12770081},"fuelLevel":0.87,"lastAddress":"Hochstraße 19, 81669 München, Germany"}
{"timestamp":"2016-10-20T14:10:00+0200","id":124020,"name":"Vinzenz","coordinate":{"longitude":11.5777998,"latitude":48.12519836},"fuelLevel":0.75,"lastAddress":"Boosstraße 8, 81541 München, Germany"}
{"timestamp":"2016-10-20T14:10:00+0200","id":124049,"name":"Marei","coordinate":{"longitude":11.57409954,"latitude":48.12229919},"fuelLevel":0.9400000000000001,"lastAddress":"Sommerstraße 8, 81543 München, Germany"}
{"timestamp":"2016-10-20T14:10:00+0200","id":124045,"name":"Vroni","coordinate":{"longitude":11.56519985,"latitude":48.12409973},"fuelLevel":0.64,"lastAddress":"Kapuzinerstraße 39, 80469 München, Germany"}
{"timestamp":"2016-10-20T14:10:00+0200","id":124018,"name":"Toni","coordinate":{"longitude":11.56939983,"latitude":48.12960052},"fuelLevel":0.6499999999999999,"lastAddress":"Hans-Sachs-Straße 12, 80469 München, Germany"}
{"timestamp":"2016-10-20T14:10:00+0200","id":124004,"name":"Fridl","coordinate":{"longitude":11.55580044,"latitude":48.15499878},"fuelLevel":0.58,"lastAddress":"Lothstraße 64, 80335 München, Germany"}
{"timestamp":"2016-10-20T14:10:00+0200","id":124031,"name":"Heidi","coordinate":{"longitude":11.56289959,"latitude":48.15010071},"fuelLevel":0.62,"lastAddress":"Augustenstraße 67, 80333 München, Germany"}
{"timestamp":"2016-10-20T14:10:00+0200","id":124047,"name":"Walli","coordinate":{"longitude":11.57209969,"latitude":48.1493988},"fuelLevel":0.6499999999999999,"lastAddress":"Barer Str. 29, 80799 München, Germany"}
{"timestamp":"2016-10-20T14:10:00+0200","id":124048,"name":"Wiggerl","coordinate":{"longitude":11.58310032,"latitude":48.15869904},"fuelLevel":0.63,"lastAddress":"Ainmillerstraße 10, 80801 München, Germany"}
{"timestamp":"2016-10-20T14:10:00+0200","id":124028,"name":"Gitte","coordinate":{"longitude":11.57559967,"latitude":48.16080093},"fuelLevel":0.7200000000000001,"lastAddress":"Belgradstraße 6, 80796 München, Germany"}
{"timestamp":"2016-10-20T14:10:00+0200","id":124037,"name":"Luise","coordinate":{"longitude":11.57199955,"latitude":48.1568985},"fuelLevel":0.9500000000000001,"lastAddress":"Agnesstraße 3, 80801 München, Germany"}
{"timestamp":"2016-10-20T14:10:00+0200","id":124029,"name":"Hannah","coordinate":{"longitude":11.51019955,"latitude":48.04539871},"fuelLevel":0.59,"lastAddress":"Gistlstraße 159, 82049 Pullach im Isartal, Germany"}
{"timestamp":"2016-10-20T14:10:00+0200","id":124009,"name":"Ludwig","coordinate":{"longitude":11.58640003,"latitude":48.16500092},"fuelLevel":0.59,"lastAddress":"Leopoldstraße 102, 80802 München, Germany"}