{"timestamp":"2016-10-12T16:40:00+0200","id":124041,"name":"Sophie","coordinate":{"longitude":11.5777998,"latitude":48.15019989},"fuelLevel":0.86,"lastAddress":"Amalienstraße 65, 80799 München, Germany"}
{"timestamp":"2016-10-12T16:40:00+0200","id":124026,"name":"Eva","coordinate":{"longitude":11.57800007,"latitude":48.1534996},"fuelLevel":0.61,"lastAddress":"Türkenstraße 95, 80799 München, Germany"}
{"timestamp":"2016-10-12T16:40:00+0200","id":124025,"name":"Elli","coordinate":{"longitude":11.57660007,"latitude":48.15769958},"fuelLevel":0.87,"lastAddress":"Franz-Joseph-Straße 41, 80801 München, Germany"}
{"timestamp":"2016-10-12T16:40:00+0200","id":124044,"name":"Uschi","coordinate":{"longitude":11.57269955,"latitude":48.13180161},"fuelLevel":0.9199999999999999,"lastAddress":"Müllerstraße 9, 80469 München, Germany"}
{"timestamp":"2016-10-12T16:40:00+0200","id":124024,"name":"Christl","coordinate":{"longitude":11.57649994,"latitude":48.13209915},"fuelLevel":0.47000000000000003,"lastAddress":"Klenzestraße 24, 80469 München, Germany"}
{"timestamp":"2016-10-12T16:40:00+0200","id":124040,"name":"Reserl","coordinate":{"longitude":11.57209969,"latitude":48.13159943},"fuelLevel":0.83,"lastAddress":"Müllerstraße 13, 80469 München, Germany"}
{"timestamp":"2016-10-12T16:40:00+0200","id":124021,"name":"Xaver","coordinate":{"longitude":11.58059978,"latitude":48.12979889},"fuelLevel":0.9199999999999999,"lastAddress":"Erhardtstraße 27, 80469 München, Germany"}
{"timestamp":"2016-10-12T16:40:00+0200","id":124016,"name":"Sepp","coordinate":{"longitude":11.60249996,"latitude":48.12889862},"fuelLevel":0.9099999999999999,"lastAddress":"Wörthstraße 42, 81667 München, Germany"}
{"timestamp":"2016-10-12T16:40:00+0200","id":124038,"name":"Magda","coordinate":{"longitude":11.6012001,"latitude":48.12810135},"fuelLevel":0.67,"lastAddress":"Weißenburger Str. 40, 81667 München, Germany"}
{"timestamp":"2016-10-12T16:40:00+0200","id":124022,"name":"Anne","coordinate":{"longitude":11.59630013,"latitude":48.1271019},"fuelLevel":0.8300000000000001,"lastAddress":"Rosenheimer Str. 82, 81669 München, Germany"}
{"timestamp":"2016-10-12T16:40:00+0200","id":124000,"name":"Bertl","coordinate":{"longitude":11.59809971,"latitude":48.12620163},"fuelLevel":0.8,"lastAddress":"Rosenheimer Str. 119, 81667 München, Germany"}
{"timestamp":"2016-10-12T16:40:00+0200","id":124013,"name":"Poldi","coordinate":{"longitude":11.59459972,"latitude":48.12770081},"fuelLevel":0.79,"lastAddress":"Balanstraße 6A, 81669 München, Germany"}
{"timestamp":"2016-10-12T16:40:00+0200","id":124011,"name":"Maxl","coordinate":{"longitude":11.59490013,"latitude":48.12799835},"fuelLevel":0.6699999999999999,"lastAddress":"Rosenheimer Str. 64, 81667 München, Germany"}
{"timestamp":"2016-10-12T16:40:00+0200","id":124003,"name":"Franzl","coordinate":{"longitude":11.59319973,"latitude":48.12749863},"fuelLevel":0.8,"lastAddress":"Franziskanerstraße 13, 81669 München, Germany"}
{"timestamp":"2016-10-12T16:40:00+0200","id":124010,"name":"Luitpold","coordinate":{"longitude":11.58510017,"latitude":48.12760162},"fuelLevel":0.9400000000000001,"lastAddress":"Am Wageck 4, 81669 München, Germany"}
{"timestamp":"2016-10-12T16:40:00+0200","id":124006,"name":"Gustl","coordinate":{"longitude":11.57450008,"latitude":48.12020111},"fuelLevel":0.9500000000000001,"lastAddress":"Oefelestraße 5, 81543 München, Germany"}
{"timestamp":"2016-10-12T16:40:00+0200","id":124020,"name":"Vinzenz","coordinate":{"longitude":11.57800007,"latitude":48.1228981},"fuelLevel":0.8999999999999999,"lastAddress":"Entenbachstraße 26, 81541 München, Germany"}
{"timestamp":"2016-10-12T16:40:00+0200","id":124049,"name":"Marei","coordinate":{"longitude":11.57429981,"latitude":48.12229919},"fuelLevel":0.9400000000000001,"lastAddress":"Sommerstraße 9, 81543 München, Germany"}
{"timestamp":"2016-10-12T16:40:00+0200","id":124045,"name":"Vroni","coordinate":{"longitude":11.56470013,"latitude":48.12369919},"fuelLevel":0.64,"lastAddress":"Kapuzinerstraße 44, 80469 München, Germany"}
{"timestamp":"2016-10-12T16:40:00+0200","id":124018,"name":"Toni","coordinate":{"longitude":11.56970024,"latitude":48.12969971},"fuelLevel":0.66,"lastAddress":"Hans-Sachs-Straße 14, 80469 München, Germany"}
{"timestamp":"2016-10-12T16:40:00+0200","id":124004,"name":"Fridl","coordinate":{"longitude":11.55659962,"latitude":48.15480042},"fuelLevel":0.9600000000000001,"lastAddress":"Heßstraße 108, 80797 München, Germany"}
{"timestamp":"2016-10-12T16:40:00+0200","id":124031,"name":"Heidi","coordinate":{"longitude":11.56669998,"latitude":48.15190125},"fuelLevel":0.6499999999999999,"lastAddress":"Heßstraße 42, 80798 München, Germany"}
{"timestamp":"2016-10-12T16:40:00+0200","id":124047,"name":"Walli","coordinate":{"longitude":11.57040024,"latitude":48.1493988},"fuelLevel":0.71,"lastAddress":"Theresienstraße, 80333 München, Germany"}
{"timestamp":"2016-10-12T16:40:00+0200","id":124002,"name":"Ferdl","coordinate":{"longitude":11.56849957,"latitude":48.14830017},"fuelLevel":0.9444444444444444,"lastAddress":"Arcisstraße 21, 80333 München, Germany"}
{"timestamp":"2016-10-12T16:40:00+0200","id":124048,"name":"Wiggerl","coordinate":{"longitude":11.58069992,"latitude":48.16289902},"fuelLevel":0.66,"lastAddress":"Herzogstraße 40, 80803 München, Germany"}
{"timestamp":"2016-10-12T16:40:00+0200","id":124028,"name":"Gitte","coordinate":{"longitude":11.57719994,"latitude":48.16009903},"fuelLevel":0.76,"lastAddress":"Hohenzollernstraße 41, 80801 München, Germany"}
{"timestamp":"2016-10-12T16:40:00+0200","id":124027,"name":"Fanni","coordinate":{"longitude":11.58430004,"latitude":48.16080093},"fuelLevel":0.7899999999999999,"lastAddress":"Kaiserstraße 14-16, 80801 München, Germany"}
{"timestamp":"2016-10-12T16:40:00+0200","id":124005,"name":"Georg","coordinate":{"longitude":11.57520008,"latitude":48.16199875},"fuelLevel":0.56,"lastAddress":"Viktor-Scheffel-Straße 22, 80803 München, Germany"}
{"timestamp":"2016-10-12T16:40:00+0200","id":124032,"name":"Irmi","coordinate":{"longitude":11.57289982,"latitude":48.16040039},"fuelLevel":0.64,"lastAddress":"Hohenzollernstraße 65, 80796 München, Germany"}
{"timestamp":"2016-10-12T16:40:00+0200","id":124037,"name":"Luise","coordinate":{"longitude":11.5703001,"latitude":48.15750122},"fuelLevel":0.52,"lastAddress":"Agnesstraße 14, 80798 München, Germany"}
{"timestamp":"2016-10-12T16:40:00+0200","id":124017,"name":"Siggi","coordinate":{"longitude":11.57289982,"latitude":48.16059875},"fuelLevel":0.56,"lastAddress":"Hohenzollernstraße 102, 80796 München, Germany"}
{"timestamp":"2016-10-12T16:40:00+0200","id":124029,"name":"Hannah","coordinate":{"longitude":11.51029968,"latitude":48.04550171},"fuelLevel":0.7,"lastAddress":"Gistlstraße 159, 82049 Pullach im Isartal, Germany"}
{"timestamp":"2016-10-12T16:40:00+0200","id":124008,"name":"Johann","coordinate":{"longitude":11.50990009,"latitude":48.04550171},"fuelLevel":0.87,"lastAddress":"Gistlstraße 159, 82049 Pullach im Isartal, Germany"}
{"timestamp":"2016-10-12T16:40:00+0200","id":124007,"name":"Jakob","coordinate":{"longitude":11.57730007,"latitude":48.16699982},"fuelLevel":0.9400000000000001,"lastAddress":"Karl-Theodor-Straße 64, 80803 München, Germany"}