{"timestamp":"2016-11-22T00:05:00+0100","id":124041,"name":"Sophie","coordinate":{"longitude":11.5789032,"latitude":48.15299988},"fuelLevel":0.5599999999999999,"lastAddress":"Akademiestraße 2, 80799 München, Germany"}
{"timestamp":"2016-11-22T00:05:00+0100","id":124026,"name":"Eva","coordinate":{"longitude":11.58131409,"latitude":48.15242004},"fuelLevel":0.75,"lastAddress":"Akademiestraße 3, 80799 München, Germany"}
{"timestamp":"2016-11-22T00:05:00+0100","id":124025,"name":"Elli","coordinate":{"longitude":11.58129883,"latitude":48.1525116},"fuelLevel":0.8400000000000001,"lastAddress":"Akademiestraße 3, 80799 München, Germany"}
{"timestamp":"2016-11-22T00:05:00+0100","id":124024,"name":"Christl","coordinate":{"longitude":11.57698059,"latitude":48.13278198},"fuelLevel":0.6499999999999999,"lastAddress":"Buttermelcherstraße 4, 80469 München, Germany"}
{"timestamp":"2016-11-22T00:05:00+0100","id":124040,"name":"Reserl","coordinate":{"longitude":11.57470036,"latitude":48.1291008},"fuelLevel":0.83,"lastAddress":"Fraunhoferstraße 31, 80469 München, Germany"}
{"timestamp":"2016-11-22T00:05:00+0100","id":124021,"name":"Xaver","coordinate":{"longitude":11.58189392,"latitude":48.13108826},"fuelLevel":0.77,"lastAddress":"Kohlstraße 11, 80469 München, Germany"}
{"timestamp":"2016-11-22T00:05:00+0100","id":124014,"name":"Quirin","coordinate":{"longitude":11.59921265,"latitude":48.13600159},"fuelLevel":0.6527777777777778,"lastAddress":"Einsteinstraße 3, 81675 München, Germany"}
{"timestamp":"2016-11-22T00:05:00+0100","id":124034,"name":"Kathi","coordinate":{"longitude":11.60578918,"latitude":48.13075256},"fuelLevel":0.75,"lastAddress":"Breisacher Str. 24, 81667 München, Germany"}
{"timestamp":"2016-11-22T00:05:00+0100","id":124030,"name":"Hedwig","coordinate":{"longitude":11.56099987,"latitude":48.12670135},"fuelLevel":0.86,"lastAddress":"Maistraße 44, 80337 München, Germany"}
{"timestamp":"2016-11-22T00:05:00+0100","id":124000,"name":"Bertl","coordinate":{"longitude":11.59487915,"latitude":48.13098145},"fuelLevel":0.8999999999999999,"lastAddress":"Milchstraße 2, 81667 München, Germany"}
{"timestamp":"2016-11-22T00:05:00+0100","id":124013,"name":"Poldi","coordinate":{"longitude":11.58959961,"latitude":48.125},"fuelLevel":0.79,"lastAddress":"Franziskanerstraße 47, 81669 München, Germany"}
{"timestamp":"2016-11-22T00:05:00+0100","id":124003,"name":"Franzl","coordinate":{"longitude":11.58810425,"latitude":48.12538147},"fuelLevel":0.7200000000000001,"lastAddress":"Gebsattelstraße 16, 81541 München, Germany"}
{"timestamp":"2016-11-22T00:05:00+0100","id":124010,"name":"Luitpold","coordinate":{"longitude":11.58829975,"latitude":48.12919998},"fuelLevel":0.38999999999999996,"lastAddress":"Hochstraße 13, 81669 München, Germany"}
{"timestamp":"2016-11-22T00:05:00+0100","id":124019,"name":"Valentin","coordinate":{"longitude":11.58200073,"latitude":48.12097168},"fuelLevel":0.64,"lastAddress":"Hochstraße 81, 81541 München, Germany"}
{"timestamp":"2016-11-22T00:05:00+0100","id":124006,"name":"Gustl","coordinate":{"longitude":11.57600403,"latitude":48.1210022},"fuelLevel":0.86,"lastAddress":"Kolumbusstraße 22, 81543 München, Germany"}
{"timestamp":"2016-11-22T00:05:00+0100","id":124020,"name":"Vinzenz","coordinate":{"longitude":11.57710266,"latitude":48.12319946},"fuelLevel":0.86,"lastAddress":"Schlotthauerstraße 13, 81541 München, Germany"}
{"timestamp":"2016-11-22T00:05:00+0100","id":124049,"name":"Marei","coordinate":{"longitude":11.5776062,"latitude":48.12039185},"fuelLevel":0.8999999999999999,"lastAddress":"Dollmannstraße 4, 81541 München, Germany"}
{"timestamp":"2016-11-22T00:05:00+0100","id":124012,"name":"Peter","coordinate":{"longitude":11.56001282,"latitude":48.15499878},"fuelLevel":0.6,"lastAddress":"Schellingstraße 138, 80797 München, Germany"}
{"timestamp":"2016-11-22T00:05:00+0100","id":124004,"name":"Fridl","coordinate":{"longitude":11.55909729,"latitude":48.15391541},"fuelLevel":0.86,"lastAddress":"Heßstraße 102, 80797 München, Germany"}
{"timestamp":"2016-11-22T00:05:00+0100","id":124031,"name":"Heidi","coordinate":{"longitude":11.57020569,"latitude":48.14950562},"fuelLevel":0.51,"lastAddress":"Theresienstraße, 80333 München, Germany"}
{"timestamp":"2016-11-22T00:05:00+0100","id":124047,"name":"Walli","coordinate":{"longitude":11.56719971,"latitude":48.15081787},"fuelLevel":0.75,"lastAddress":"Luisenstraße 63, 80798 München, Germany"}
{"timestamp":"2016-11-22T00:05:00+0100","id":124002,"name":"Ferdl","coordinate":{"longitude":11.5639801,"latitude":48.15029907},"fuelLevel":0.8999999999999999,"lastAddress":"Augustenstraße 76, 80333 München, Germany"}
{"timestamp":"2016-11-22T00:05:00+0100","id":124048,"name":"Wiggerl","coordinate":{"longitude":11.57739258,"latitude":48.15899658},"fuelLevel":0.8,"lastAddress":"Ainmillerstraße 33, 80801 München, Germany"}
{"timestamp":"2016-11-22T00:05:00+0100","id":124027,"name":"Fanni","coordinate":{"longitude":11.58340454,"latitude":48.16090393},"fuelLevel":0.8800000000000001,"lastAddress":"Kaiserstraße 22, 80801 München, Germany"}
{"timestamp":"2016-11-22T00:05:00+0100","id":124005,"name":"Georg","coordinate":{"longitude":11.57689953,"latitude":48.15829849},"fuelLevel":0.8,"lastAddress":"Römerstraße 3, 80801 München, Germany"}
{"timestamp":"2016-11-22T00:05:00+0100","id":124001,"name":"Edmund","coordinate":{"longitude":11.58061218,"latitude":48.16091919},"fuelLevel":0.5599999999999999,"lastAddress":"Kaiserstraße 33, 80801 München, Germany"}
{"timestamp":"2016-11-22T00:05:00+0100","id":124032,"name":"Irmi","coordinate":{"longitude":11.57357788,"latitude":48.15679932},"fuelLevel":0.63,"lastAddress":"Arcisstraße 65, 80801 München, Germany"}
{"timestamp":"2016-11-22T00:05:00+0100","id":124037,"name":"Luise","coordinate":{"longitude":11.56230164,"latitude":48.1572876},"fuelLevel":0.55,"lastAddress":"Schleißheimer Str. 79, 80797 München, Germany"}
{"timestamp":"2016-11-22T00:05:00+0100","id":124029,"name":"Hannah","coordinate":{"longitude":11.50961304,"latitude":48.04551697},"fuelLevel":0.89,"lastAddress":"Seitnerstraße 70, 82049 Pullach im Isartal, Germany"}
{"timestamp":"2016-11-22T00:05:00+0100","id":124039,"name":"Marie","coordinate":{"longitude":11.50570011,"latitude":48.04430008},"fuelLevel":0.76,"lastAddress":"Wolfratshauser Str. 138, 82049 Pullach im Isartal, Germany"}
{"timestamp":"2016-11-22T00:05:00+0100","id":124009,"name":"Ludwig","coordinate":{"longitude":11.58236694,"latitude":48.16560364},"fuelLevel":0.7200000000000001,"lastAddress":"Muffatstraße 5-7, 80803 München, Germany"}
{"timestamp":"2016-11-22T00:05:00+0100","id":124007,"name":"Jakob","coordinate":{"longitude":11.57650757,"latitude":48.16668701},"fuelLevel":0.6499999999999999,"lastAddress":"Karl-Theodor-Straße 63, 80803 München, Germany"}