{"timestamp":"2016-10-16T16:40:00+0200","id":124041,"name":"Sophie","coordinate":{"longitude":11.57849979,"latitude":48.15370178},"fuelLevel":0.8300000000000001,"lastAddress":"Türkenstraße 104, 80799 München, Germany"}
{"timestamp":"2016-10-16T16:40:00+0200","id":124025,"name":"Elli","coordinate":{"longitude":11.57940006,"latitude":48.1556015},"fuelLevel":0.8300000000000001,"lastAddress":"Friedrichstraße 3, 80801 München, Germany"}
{"timestamp":"2016-10-16T16:40:00+0200","id":124044,"name":"Uschi","coordinate":{"longitude":11.57209969,"latitude":48.13169861},"fuelLevel":0.8,"lastAddress":"Müllerstraße 24, 80469 München, Germany"}
{"timestamp":"2016-10-16T16:40:00+0200","id":124040,"name":"Reserl","coordinate":{"longitude":11.57269955,"latitude":48.13209915},"fuelLevel":0.79,"lastAddress":"Müllerstraße 18, 80469 München, Germany"}
{"timestamp":"2016-10-16T16:40:00+0200","id":124021,"name":"Xaver","coordinate":{"longitude":11.58040047,"latitude":48.13019943},"fuelLevel":0.9199999999999999,"lastAddress":"Erhardtstraße 27, 80469 München, Germany"}
{"timestamp":"2016-10-16T16:40:00+0200","id":124014,"name":"Quirin","coordinate":{"longitude":11.59749985,"latitude":48.13479996},"fuelLevel":0.57,"lastAddress":"Innere Wiener Straße 61, 81667 München, Germany"}
{"timestamp":"2016-10-16T16:40:00+0200","id":124034,"name":"Kathi","coordinate":{"longitude":11.60879993,"latitude":48.13270187},"fuelLevel":0.57,"lastAddress":"Kirchenstraße 88, 81675 München, Germany"}
{"timestamp":"2016-10-16T16:40:00+0200","id":124016,"name":"Sepp","coordinate":{"longitude":11.59829998,"latitude":48.12609863},"fuelLevel":0.88,"lastAddress":"Rosenheimer Str. 123, 81667 München, Germany"}
{"timestamp":"2016-10-16T16:40:00+0200","id":124038,"name":"Magda","coordinate":{"longitude":11.60029984,"latitude":48.1283989},"fuelLevel":0.67,"lastAddress":"Pariser Pl., 81667 München, Germany"}
{"timestamp":"2016-10-16T16:40:00+0200","id":124013,"name":"Poldi","coordinate":{"longitude":11.59449959,"latitude":48.12770081},"fuelLevel":0.61,"lastAddress":"Balanstraße 6A, 81669 München, Germany"}
{"timestamp":"2016-10-16T16:40:00+0200","id":124011,"name":"Maxl","coordinate":{"longitude":11.59519958,"latitude":48.12730026},"fuelLevel":0.6699999999999999,"lastAddress":"Balanstraße 13, 81669 München, Germany"}
{"timestamp":"2016-10-16T16:40:00+0200","id":124003,"name":"Franzl","coordinate":{"longitude":11.59319973,"latitude":48.1269989},"fuelLevel":0.8,"lastAddress":"Rablstraße 36, 81669 München, Germany"}
{"timestamp":"2016-10-16T16:40:00+0200","id":124020,"name":"Vinzenz","coordinate":{"longitude":11.57849979,"latitude":48.12269974},"fuelLevel":0.81,"lastAddress":"Entenbachstraße 27, 81541 München, Germany"}
{"timestamp":"2016-10-16T16:40:00+0200","id":124049,"name":"Marei","coordinate":{"longitude":11.57419968,"latitude":48.12220001},"fuelLevel":0.9400000000000001,"lastAddress":"Sommerstraße 13, 81543 München, Germany"}
{"timestamp":"2016-10-16T16:40:00+0200","id":124045,"name":"Vroni","coordinate":{"longitude":11.5656004,"latitude":48.12419891},"fuelLevel":0.64,"lastAddress":"Geyerstraße 17, 80469 München, Germany"}
{"timestamp":"2016-10-16T16:40:00+0200","id":124018,"name":"Toni","coordinate":{"longitude":11.56970024,"latitude":48.12960052},"fuelLevel":0.6499999999999999,"lastAddress":"Hans-Sachs-Straße 14, 80469 München, Germany"}
{"timestamp":"2016-10-16T16:40:00+0200","id":124012,"name":"Peter","coordinate":{"longitude":11.56099987,"latitude":48.15480042},"fuelLevel":0.9600000000000001,"lastAddress":"Schleißheimer Str. 51, 80797 München, Germany"}
{"timestamp":"2016-10-16T16:40:00+0200","id":124004,"name":"Fridl","coordinate":{"longitude":11.55550003,"latitude":48.15520096},"fuelLevel":0.58,"lastAddress":"Lothstraße 34, 80335 München, Germany"}
{"timestamp":"2016-10-16T16:40:00+0200","id":124031,"name":"Heidi","coordinate":{"longitude":11.56659985,"latitude":48.15179825},"fuelLevel":0.63,"lastAddress":"Heßstraße 42, 80798 München, Germany"}
{"timestamp":"2016-10-16T16:40:00+0200","id":124047,"name":"Walli","coordinate":{"longitude":11.57040024,"latitude":48.1495018},"fuelLevel":0.71,"lastAddress":"Theresienstraße, 80333 München, Germany"}
{"timestamp":"2016-10-16T16:40:00+0200","id":124048,"name":"Wiggerl","coordinate":{"longitude":11.58059978,"latitude":48.16279984},"fuelLevel":0.67,"lastAddress":"Herzogstraße 40, 80803 München, Germany"}
{"timestamp":"2016-10-16T16:40:00+0200","id":124028,"name":"Gitte","coordinate":{"longitude":11.57559967,"latitude":48.16040039},"fuelLevel":0.7200000000000001,"lastAddress":"Hohenzollernstraße 78, 80801 München, Germany"}
{"timestamp":"2016-10-16T16:40:00+0200","id":124037,"name":"Luise","coordinate":{"longitude":11.57019997,"latitude":48.15750122},"fuelLevel":0.52,"lastAddress":"Agnesstraße 14, 80798 München, Germany"}
{"timestamp":"2016-10-16T16:40:00+0200","id":124017,"name":"Siggi","coordinate":{"longitude":11.57240009,"latitude":48.16049957},"fuelLevel":0.56,"lastAddress":"Hohenzollernstraße 69, 80796 München, Germany"}
{"timestamp":"2016-10-16T16:40:00+0200","id":124009,"name":"Ludwig","coordinate":{"longitude":11.58349991,"latitude":48.16270065},"fuelLevel":0.6499999999999999,"lastAddress":"Wilhelmstraße 39, 80801 München, Germany"}