{"timestamp":"2016-09-29T18:30:00+0200","id":124041,"name":"Sophie","coordinate":{"longitude":11.57769966,"latitude":48.15010071},"fuelLevel":0.93,"lastAddress":"Schellingstraße 18, 80799 München, Germany"}
{"timestamp":"2016-09-29T18:30:00+0200","id":124026,"name":"Eva","coordinate":{"longitude":11.5781002,"latitude":48.15330124},"fuelLevel":0.61,"lastAddress":"Türkenstraße 93, 80799 München, Germany"}
{"timestamp":"2016-09-29T18:30:00+0200","id":124033,"name":"Johanna","coordinate":{"longitude":11.58119965,"latitude":48.15259933},"fuelLevel":0.88,"lastAddress":"Akademiestraße 5, 80799 München, Germany"}
{"timestamp":"2016-09-29T18:30:00+0200","id":124024,"name":"Christl","coordinate":{"longitude":11.57909966,"latitude":48.13399887},"fuelLevel":0.8,"lastAddress":"Rumfordstraße 29, 80469 München, Germany"}
{"timestamp":"2016-09-29T18:30:00+0200","id":124040,"name":"Reserl","coordinate":{"longitude":11.57890034,"latitude":48.1310997},"fuelLevel":0.79,"lastAddress":"Baaderstraße 38, 80469 München, Germany"}
{"timestamp":"2016-09-29T18:30:00+0200","id":124021,"name":"Xaver","coordinate":{"longitude":11.58049965,"latitude":48.13209915},"fuelLevel":0.52,"lastAddress":"Baaderstraße 2, 80469 München, Germany"}
{"timestamp":"2016-09-29T18:30:00+0200","id":124034,"name":"Kathi","coordinate":{"longitude":11.60499954,"latitude":48.13219833},"fuelLevel":0.67,"lastAddress":"Elsässer Str. 16, 81667 München, Germany"}
{"timestamp":"2016-09-29T18:30:00+0200","id":124030,"name":"Hedwig","coordinate":{"longitude":11.56739998,"latitude":48.13140106},"fuelLevel":0.89,"lastAddress":"Pestalozzistraße 10, 80469 München, Germany"}
{"timestamp":"2016-09-29T18:30:00+0200","id":124023,"name":"Babsi","coordinate":{"longitude":11.56359959,"latitude":48.12730026},"fuelLevel":0.93,"lastAddress":"Thalkirchner Str. 54, 80337 München, Germany"}
{"timestamp":"2016-09-29T18:30:00+0200","id":124016,"name":"Sepp","coordinate":{"longitude":11.59879971,"latitude":48.12599945},"fuelLevel":0.9199999999999999,"lastAddress":"Rosenheimer Str. 125, 81667 München, Germany"}
{"timestamp":"2016-09-29T18:30:00+0200","id":124038,"name":"Magda","coordinate":{"longitude":11.60009956,"latitude":48.12820053},"fuelLevel":0.76,"lastAddress":"Pariser Pl., 81667 München, Germany"}
{"timestamp":"2016-09-29T18:30:00+0200","id":124022,"name":"Anne","coordinate":{"longitude":11.59669971,"latitude":48.1271019},"fuelLevel":0.8900000000000001,"lastAddress":"Rosenheimer Str. 103, 81667 München, Germany"}
{"timestamp":"2016-09-29T18:30:00+0200","id":124000,"name":"Bertl","coordinate":{"longitude":11.59490013,"latitude":48.12960052},"fuelLevel":0.84,"lastAddress":"Steinstraße 77, 81667 München, Germany"}
{"timestamp":"2016-09-29T18:30:00+0200","id":124013,"name":"Poldi","coordinate":{"longitude":11.59440041,"latitude":48.12779999},"fuelLevel":0.79,"lastAddress":"Balanstraße 4, 81669 München, Germany"}
{"timestamp":"2016-09-29T18:30:00+0200","id":124011,"name":"Maxl","coordinate":{"longitude":11.59280014,"latitude":48.12590027},"fuelLevel":0.8099999999999999,"lastAddress":"Sieboldstraße 2, 81669 München, Germany"}
{"timestamp":"2016-09-29T18:30:00+0200","id":124003,"name":"Franzl","coordinate":{"longitude":11.59350014,"latitude":48.12739944},"fuelLevel":0.79,"lastAddress":"Franziskanerstraße 13, 81669 München, Germany"}
{"timestamp":"2016-09-29T18:30:00+0200","id":124010,"name":"Luitpold","coordinate":{"longitude":11.58590031,"latitude":48.1257019},"fuelLevel":0.88,"lastAddress":"Gebsattelstraße 2, 81541 München, Germany"}
{"timestamp":"2016-09-29T18:30:00+0200","id":124019,"name":"Valentin","coordinate":{"longitude":11.58500004,"latitude":48.12360001},"fuelLevel":0.9199999999999999,"lastAddress":"Hochstraße 49C, 81541 München, Germany"}
{"timestamp":"2016-09-29T18:30:00+0200","id":124035,"name":"Leonie","coordinate":{"longitude":11.58580017,"latitude":48.12929916},"fuelLevel":0.7899999999999999,"lastAddress":"Schwarzstraße 1, 81669 München, Germany"}
{"timestamp":"2016-09-29T18:30:00+0200","id":124006,"name":"Gustl","coordinate":{"longitude":11.57769966,"latitude":48.12099838},"fuelLevel":0.93,"lastAddress":"Falkenstraße 44, 81541 München, Germany"}
{"timestamp":"2016-09-29T18:30:00+0200","id":124020,"name":"Vinzenz","coordinate":{"longitude":11.57870007,"latitude":48.12360001},"fuelLevel":0.9099999999999999,"lastAddress":"Entenbachstraße 16, 81541 München, Germany"}
{"timestamp":"2016-09-29T18:30:00+0200","id":124049,"name":"Marei","coordinate":{"longitude":11.57419968,"latitude":48.11999893},"fuelLevel":0.7200000000000001,"lastAddress":"Humboldtstraße 23, 81543 München, Germany"}
{"timestamp":"2016-09-29T18:30:00+0200","id":124045,"name":"Vroni","coordinate":{"longitude":11.56709957,"latitude":48.12779999},"fuelLevel":0.9199999999999999,"lastAddress":"Pestalozzistraße 54, 80469 München, Germany"}
{"timestamp":"2016-09-29T18:30:00+0200","id":124012,"name":"Peter","coordinate":{"longitude":11.57250023,"latitude":48.14979935},"fuelLevel":1,"lastAddress":"Barer Str. 48-50, 80799 München, Germany"}
{"timestamp":"2016-09-29T18:30:00+0200","id":124004,"name":"Fridl","coordinate":{"longitude":11.56550026,"latitude":48.15610123},"fuelLevel":0.55,"lastAddress":"Hiltenspergerstraße 7, 80798 München, Germany"}
{"timestamp":"2016-09-29T18:30:00+0200","id":124031,"name":"Heidi","coordinate":{"longitude":11.56709957,"latitude":48.14989853},"fuelLevel":0.8,"lastAddress":"Luisenstraße 53, 80333 München, Germany"}
{"timestamp":"2016-09-29T18:30:00+0200","id":124002,"name":"Ferdl","coordinate":{"longitude":11.5642004,"latitude":48.1507988},"fuelLevel":0.9500000000000001,"lastAddress":"Theresienstraße 61, 80333 München, Germany"}
{"timestamp":"2016-09-29T18:30:00+0200","id":124048,"name":"Wiggerl","coordinate":{"longitude":11.5770998,"latitude":48.15909958},"fuelLevel":0.7200000000000001,"lastAddress":"Ainmillerstraße 44, 80801 München, Germany"}
{"timestamp":"2016-09-29T18:30:00+0200","id":124028,"name":"Gitte","coordinate":{"longitude":11.57989979,"latitude":48.15990067},"fuelLevel":0.77,"lastAddress":"Friedrichstraße 27, 80801 München, Germany"}
{"timestamp":"2016-09-29T18:30:00+0200","id":124027,"name":"Fanni","coordinate":{"longitude":11.57719994,"latitude":48.15969849},"fuelLevel":0.8099999999999999,"lastAddress":"Römerstraße 15, 80801 München, Germany"}
{"timestamp":"2016-09-29T18:30:00+0200","id":124005,"name":"Georg","coordinate":{"longitude":11.58139992,"latitude":48.15859985},"fuelLevel":0.69,"lastAddress":"Ainmillerstraße 15, 80801 München, Germany"}
{"timestamp":"2016-09-29T18:30:00+0200","id":124001,"name":"Edmund","coordinate":{"longitude":11.57800007,"latitude":48.15790176},"fuelLevel":0.62,"lastAddress":"Franz-Joseph-Straße 36, 80801 München, Germany"}
{"timestamp":"2016-09-29T18:30:00+0200","id":124032,"name":"Irmi","coordinate":{"longitude":11.57310009,"latitude":48.16019821},"fuelLevel":0.64,"lastAddress":"Isabellastraße 49, 80796 München, Germany"}
{"timestamp":"2016-09-29T18:30:00+0200","id":124037,"name":"Luise","coordinate":{"longitude":11.56630039,"latitude":48.15810013},"fuelLevel":0.9027777777777778,"lastAddress":"Hiltenspergerstraße 18, 80798 München, Germany"}
{"timestamp":"2016-09-29T18:30:00+0200","id":124017,"name":"Siggi","coordinate":{"longitude":11.57069969,"latitude":48.16080093},"fuelLevel":0.56,"lastAddress":"Hohenzollernstraße 81, 80796 München, Germany"}
{"timestamp":"2016-09-29T18:30:00+0200","id":124029,"name":"Hannah","coordinate":{"longitude":11.51010036,"latitude":48.04539871},"fuelLevel":0.7,"lastAddress":"Gistlstraße 159, 82049 Pullach im Isartal, Germany"}
{"timestamp":"2016-09-29T18:30:00+0200","id":124042,"name":"Tilli","coordinate":{"longitude":11.50959969,"latitude":48.04550171},"fuelLevel":0.77,"lastAddress":"Seitnerstraße 70, 82049 Pullach im Isartal, Germany"}
{"timestamp":"2016-09-29T18:30:00+0200","id":124009,"name":"Ludwig","coordinate":{"longitude":11.57890034,"latitude":48.16379929},"fuelLevel":0.9400000000000001,"lastAddress":"Clemensstraße 43, 80803 München, Germany"}
{"timestamp":"2016-09-29T18:30:00+0200","id":124007,"name":"Jakob","coordinate":{"longitude":11.58670044,"latitude":48.1637001},"fuelLevel":0.9500000000000001,"lastAddress":"Leopoldstraße 85, 80802 München, Germany"}