{"timestamp":"2016-10-27T04:15:00+0200","id":124041,"name":"Sophie","coordinate":{"longitude":11.57960033,"latitude":48.15280151},"fuelLevel":0.72,"lastAddress":"Akademiestraße 11, 80799 München, Germany"}
{"timestamp":"2016-10-27T04:15:00+0200","id":124026,"name":"Eva","coordinate":{"longitude":11.57979965,"latitude":48.15269852},"fuelLevel":0.89,"lastAddress":"Akademiestraße 11, 80799 München, Germany"}
{"timestamp":"2016-10-27T04:15:00+0200","id":124025,"name":"Elli","coordinate":{"longitude":11.57579994,"latitude":48.15719986},"fuelLevel":0.8300000000000001,"lastAddress":"Kurfürstenstraße 20, 80801 München, Germany"}
{"timestamp":"2016-10-27T04:15:00+0200","id":124033,"name":"Johanna","coordinate":{"longitude":11.57629967,"latitude":48.15029907},"fuelLevel":0.55,"lastAddress":"Schellingstraße 28A, 80799 München, Germany"}
{"timestamp":"2016-10-27T04:15:00+0200","id":124040,"name":"Reserl","coordinate":{"longitude":11.57229996,"latitude":48.13259888},"fuelLevel":0.68,"lastAddress":"Blumenstraße 19, 80331 München, Germany"}
{"timestamp":"2016-10-27T04:15:00+0200","id":124034,"name":"Kathi","coordinate":{"longitude":11.59720039,"latitude":48.13230133},"fuelLevel":0.57,"lastAddress":"Preysingstraße 38-40, 81667 München, Germany"}
{"timestamp":"2016-10-27T04:15:00+0200","id":124036,"name":"Liesel","coordinate":{"longitude":11.60859966,"latitude":48.12630081},"fuelLevel":0.93,"lastAddress":"Haager Str. 10A, 81671 München, Germany"}
{"timestamp":"2016-10-27T04:15:00+0200","id":124016,"name":"Sepp","coordinate":{"longitude":11.60459995,"latitude":48.10589981},"fuelLevel":0.5902777777777778,"lastAddress":"Balanstraße 133, 81549 München, Germany"}
{"timestamp":"2016-10-27T04:15:00+0200","id":124013,"name":"Poldi","coordinate":{"longitude":11.59029961,"latitude":48.12540054},"fuelLevel":0.86,"lastAddress":"Franziskanerstraße 43, 81669 München, Germany"}
{"timestamp":"2016-10-27T04:15:00+0200","id":124011,"name":"Maxl","coordinate":{"longitude":11.59759998,"latitude":48.12419891},"fuelLevel":0.61,"lastAddress":"Orleansstraße 1, 81669 München, Germany"}
{"timestamp":"2016-10-27T04:15:00+0200","id":124003,"name":"Franzl","coordinate":{"longitude":11.59899998,"latitude":48.12549973},"fuelLevel":0.88,"lastAddress":"Rosenheimer Str. 106, 81669 München, Germany"}
{"timestamp":"2016-10-27T04:15:00+0200","id":124019,"name":"Valentin","coordinate":{"longitude":11.58180046,"latitude":48.12519836},"fuelLevel":0.76,"lastAddress":"Mariahilfpl. 23, 81541 München, Germany"}
{"timestamp":"2016-10-27T04:15:00+0200","id":124035,"name":"Leonie","coordinate":{"longitude":11.58399963,"latitude":48.12850189},"fuelLevel":0.8639455782312925,"lastAddress":"Zeppelinstraße 47, 81669 München, Germany"}
{"timestamp":"2016-10-27T04:15:00+0200","id":124020,"name":"Vinzenz","coordinate":{"longitude":11.57890034,"latitude":48.12379837},"fuelLevel":0.86,"lastAddress":"Entenbachstraße 14, 81541 München, Germany"}
{"timestamp":"2016-10-27T04:15:00+0200","id":124049,"name":"Marei","coordinate":{"longitude":11.57919979,"latitude":48.12459946},"fuelLevel":0.62,"lastAddress":"Boosstraße 17, 81541 München, Germany"}
{"timestamp":"2016-10-27T04:15:00+0200","id":124045,"name":"Vroni","coordinate":{"longitude":11.56849957,"latitude":48.13130188},"fuelLevel":0.5902777777777778,"lastAddress":"Müllerstraße 43A, 80469 München, Germany"}
{"timestamp":"2016-10-27T04:15:00+0200","id":124012,"name":"Peter","coordinate":{"longitude":11.55659962,"latitude":48.15480042},"fuelLevel":0.8800000000000001,"lastAddress":"Heßstraße 108, 80797 München, Germany"}
{"timestamp":"2016-10-27T04:15:00+0200","id":124004,"name":"Fridl","coordinate":{"longitude":11.56219959,"latitude":48.1570015},"fuelLevel":0.55,"lastAddress":"Schleißheimer Str. 77, 80797 München, Germany"}
{"timestamp":"2016-10-27T04:15:00+0200","id":124031,"name":"Heidi","coordinate":{"longitude":11.56980038,"latitude":48.14810181},"fuelLevel":0.6388888888888888,"lastAddress":"Barer Str. 27, 80333 München, Germany"}
{"timestamp":"2016-10-27T04:15:00+0200","id":124048,"name":"Wiggerl","coordinate":{"longitude":11.57530022,"latitude":48.15890121},"fuelLevel":0.6000000000000001,"lastAddress":"Nordendstraße 62, 80801 München, Germany"}
{"timestamp":"2016-10-27T04:15:00+0200","id":124028,"name":"Gitte","coordinate":{"longitude":11.57579994,"latitude":48.16009903},"fuelLevel":0.7200000000000001,"lastAddress":"Hohenzollernstraße 49, 80801 München, Germany"}
{"timestamp":"2016-10-27T04:15:00+0200","id":124027,"name":"Fanni","coordinate":{"longitude":11.58469963,"latitude":48.16210175},"fuelLevel":0.6900000000000001,"lastAddress":"Herzogstraße 5-7, 80803 München, Germany"}
{"timestamp":"2016-10-27T04:15:00+0200","id":124005,"name":"Georg","coordinate":{"longitude":11.57680035,"latitude":48.15800095},"fuelLevel":0.8500000000000001,"lastAddress":"Römerstraße 1, 80801 München, Germany"}
{"timestamp":"2016-10-27T04:15:00+0200","id":124001,"name":"Edmund","coordinate":{"longitude":11.57900047,"latitude":48.15800095},"fuelLevel":0.7999999999999999,"lastAddress":"Franz-Joseph-Straße 30, 80801 München, Germany"}
{"timestamp":"2016-10-27T04:15:00+0200","id":124037,"name":"Luise","coordinate":{"longitude":11.57289982,"latitude":48.15449905},"fuelLevel":0.9099999999999999,"lastAddress":"Neureutherstraße 13, 80799 München, Germany"}
{"timestamp":"2016-10-27T04:15:00+0200","id":124029,"name":"Hannah","coordinate":{"longitude":11.50990009,"latitude":48.04550171},"fuelLevel":0.81,"lastAddress":"Gistlstraße 159, 82049 Pullach im Isartal, Germany"}
{"timestamp":"2016-10-27T04:15:00+0200","id":124008,"name":"Johann","coordinate":{"longitude":11.50949955,"latitude":48.04550171},"fuelLevel":0.6944444444444444,"lastAddress":"Seitnerstraße 70, 82049 Pullach im Isartal, Germany"}
{"timestamp":"2016-10-27T04:15:00+0200","id":124039,"name":"Marie","coordinate":{"longitude":11.50990009,"latitude":48.04529953},"fuelLevel":0.82,"lastAddress":"Gistlstraße 159, 82049 Pullach im Isartal, Germany"}
{"timestamp":"2016-10-27T04:15:00+0200","id":124009,"name":"Ludwig","coordinate":{"longitude":11.57629967,"latitude":48.16699982},"fuelLevel":0.76,"lastAddress":"Karl-Theodor-Straße 72, 80803 München, Germany"}