{"timestamp":"2016-10-13T03:00:00+0200","id":124041,"name":"Sophie","coordinate":{"longitude":11.57890034,"latitude":48.15039825},"fuelLevel":0.86,"lastAddress":"Hauptgebäude, Geschwister-Scholl-Platz 1, 80539 München, Germany"}
{"timestamp":"2016-10-13T03:00:00+0200","id":124026,"name":"Eva","coordinate":{"longitude":11.57859993,"latitude":48.1534996},"fuelLevel":0.61,"lastAddress":"Türkenstraße 95, 80799 München, Germany"}
{"timestamp":"2016-10-13T03:00:00+0200","id":124025,"name":"Elli","coordinate":{"longitude":11.57670021,"latitude":48.15840149},"fuelLevel":0.87,"lastAddress":"Römerstraße 3, 80801 München, Germany"}
{"timestamp":"2016-10-13T03:00:00+0200","id":124033,"name":"Johanna","coordinate":{"longitude":11.57670021,"latitude":48.15000153},"fuelLevel":0.73,"lastAddress":"Schellingstraße 19, 80799 München, Germany"}
{"timestamp":"2016-10-13T03:00:00+0200","id":124036,"name":"Liesel","coordinate":{"longitude":11.58139992,"latitude":48.15010071},"fuelLevel":0.45,"lastAddress":"Professor-Huber-Platz 1, 80539 München, Germany"}
{"timestamp":"2016-10-13T03:00:00+0200","id":124044,"name":"Uschi","coordinate":{"longitude":11.57250023,"latitude":48.13180161},"fuelLevel":0.9199999999999999,"lastAddress":"Müllerstraße 9, 80469 München, Germany"}
{"timestamp":"2016-10-13T03:00:00+0200","id":124024,"name":"Christl","coordinate":{"longitude":11.5763998,"latitude":48.13209915},"fuelLevel":0.47000000000000003,"lastAddress":"Klenzestraße 24, 80469 München, Germany"}
{"timestamp":"2016-10-13T03:00:00+0200","id":124040,"name":"Reserl","coordinate":{"longitude":11.57209969,"latitude":48.13169861},"fuelLevel":0.83,"lastAddress":"Müllerstraße 24, 80469 München, Germany"}
{"timestamp":"2016-10-13T03:00:00+0200","id":124021,"name":"Xaver","coordinate":{"longitude":11.58040047,"latitude":48.13000107},"fuelLevel":0.9199999999999999,"lastAddress":"Erhardtstraße 27, 80469 München, Germany"}
{"timestamp":"2016-10-13T03:00:00+0200","id":124014,"name":"Quirin","coordinate":{"longitude":11.59759998,"latitude":48.13470078},"fuelLevel":0.57,"lastAddress":"Innere Wiener Straße 58, 81667 München, Germany"}
{"timestamp":"2016-10-13T03:00:00+0200","id":124034,"name":"Kathi","coordinate":{"longitude":11.60200024,"latitude":48.13000107},"fuelLevel":0.82,"lastAddress":"Breisacher Str. 1, 81667 München, Germany"}
{"timestamp":"2016-10-13T03:00:00+0200","id":124023,"name":"Babsi","coordinate":{"longitude":11.56260014,"latitude":48.12609863},"fuelLevel":0.9,"lastAddress":"Thalkirchner Str. 78, 80337 München, Germany"}
{"timestamp":"2016-10-13T03:00:00+0200","id":124016,"name":"Sepp","coordinate":{"longitude":11.60249996,"latitude":48.12879944},"fuelLevel":0.9099999999999999,"lastAddress":"Wörthstraße 42, 81667 München, Germany"}
{"timestamp":"2016-10-13T03:00:00+0200","id":124038,"name":"Magda","coordinate":{"longitude":11.60029984,"latitude":48.12789917},"fuelLevel":0.67,"lastAddress":"Gravelottestraße 2, 81667 München, Germany"}
{"timestamp":"2016-10-13T03:00:00+0200","id":124022,"name":"Anne","coordinate":{"longitude":11.59630013,"latitude":48.12689972},"fuelLevel":0.8300000000000001,"lastAddress":"Rosenheimer Str. 84, 81669 München, Germany"}
{"timestamp":"2016-10-13T03:00:00+0200","id":124000,"name":"Bertl","coordinate":{"longitude":11.59799957,"latitude":48.12609863},"fuelLevel":0.8,"lastAddress":"Rosenheimer Str. 98, 81669 München, Germany"}
{"timestamp":"2016-10-13T03:00:00+0200","id":124013,"name":"Poldi","coordinate":{"longitude":11.59440041,"latitude":48.12730026},"fuelLevel":0.79,"lastAddress":"Balanstraße 10, 81669 München, Germany"}
{"timestamp":"2016-10-13T03:00:00+0200","id":124011,"name":"Maxl","coordinate":{"longitude":11.59500027,"latitude":48.12749863},"fuelLevel":0.6699999999999999,"lastAddress":"Balanstraße 9, 81669 München, Germany"}
{"timestamp":"2016-10-13T03:00:00+0200","id":124003,"name":"Franzl","coordinate":{"longitude":11.59290028,"latitude":48.12730026},"fuelLevel":0.8,"lastAddress":"Rablstraße 37, 81669 München, Germany"}
{"timestamp":"2016-10-13T03:00:00+0200","id":124010,"name":"Luitpold","coordinate":{"longitude":11.58430004,"latitude":48.12770081},"fuelLevel":0.9400000000000001,"lastAddress":"Lilienstraße 66, 81669 München, Germany"}
{"timestamp":"2016-10-13T03:00:00+0200","id":124006,"name":"Gustl","coordinate":{"longitude":11.57439995,"latitude":48.12039948},"fuelLevel":0.9500000000000001,"lastAddress":"Oefelestraße 10, 81543 München, Germany"}
{"timestamp":"2016-10-13T03:00:00+0200","id":124020,"name":"Vinzenz","coordinate":{"longitude":11.5781002,"latitude":48.1228981},"fuelLevel":0.8999999999999999,"lastAddress":"Entenbachstraße 26, 81541 München, Germany"}
{"timestamp":"2016-10-13T03:00:00+0200","id":124049,"name":"Marei","coordinate":{"longitude":11.57409954,"latitude":48.12269974},"fuelLevel":0.9400000000000001,"lastAddress":"Eduard-Schmid-Straße 37, 81541 München, Germany"}
{"timestamp":"2016-10-13T03:00:00+0200","id":124045,"name":"Vroni","coordinate":{"longitude":11.56470013,"latitude":48.12369919},"fuelLevel":0.64,"lastAddress":"Kapuzinerstraße 44, 80469 München, Germany"}
{"timestamp":"2016-10-13T03:00:00+0200","id":124018,"name":"Toni","coordinate":{"longitude":11.56970024,"latitude":48.12990189},"fuelLevel":0.66,"lastAddress":"Hans-Sachs-Straße 10, 80469 München, Germany"}
{"timestamp":"2016-10-13T03:00:00+0200","id":124004,"name":"Fridl","coordinate":{"longitude":11.55650043,"latitude":48.15480042},"fuelLevel":0.9600000000000001,"lastAddress":"Heßstraße 110, 80797 München, Germany"}
{"timestamp":"2016-10-13T03:00:00+0200","id":124031,"name":"Heidi","coordinate":{"longitude":11.56639957,"latitude":48.15200043},"fuelLevel":0.6499999999999999,"lastAddress":"Heßstraße 44, 80798 München, Germany"}
{"timestamp":"2016-10-13T03:00:00+0200","id":124047,"name":"Walli","coordinate":{"longitude":11.5703001,"latitude":48.14960098},"fuelLevel":0.71,"lastAddress":"Theresienstraße, 80333 München, Germany"}
{"timestamp":"2016-10-13T03:00:00+0200","id":124002,"name":"Ferdl","coordinate":{"longitude":11.56270027,"latitude":48.15499878},"fuelLevel":0.9444444444444444,"lastAddress":"Zentnerstraße 7, 80798 München, Germany"}
{"timestamp":"2016-10-13T03:00:00+0200","id":124048,"name":"Wiggerl","coordinate":{"longitude":11.58100033,"latitude":48.16239929},"fuelLevel":0.66,"lastAddress":"Bismarckstraße 3, 80803 München, Germany"}
{"timestamp":"2016-10-13T03:00:00+0200","id":124028,"name":"Gitte","coordinate":{"longitude":11.57719994,"latitude":48.16009903},"fuelLevel":0.76,"lastAddress":"Hohenzollernstraße 41, 80801 München, Germany"}
{"timestamp":"2016-10-13T03:00:00+0200","id":124027,"name":"Fanni","coordinate":{"longitude":11.58450031,"latitude":48.16090012},"fuelLevel":0.7899999999999999,"lastAddress":"Kaiserstraße 14-16, 80801 München, Germany"}
{"timestamp":"2016-10-13T03:00:00+0200","id":124005,"name":"Georg","coordinate":{"longitude":11.57549953,"latitude":48.16199875},"fuelLevel":0.56,"lastAddress":"Viktor-Scheffel-Straße 19-21, 80803 München, Germany"}
{"timestamp":"2016-10-13T03:00:00+0200","id":124032,"name":"Irmi","coordinate":{"longitude":11.57369995,"latitude":48.1595993},"fuelLevel":0.64,"lastAddress":"Nordendstraße 61, 80801 München, Germany"}
{"timestamp":"2016-10-13T03:00:00+0200","id":124037,"name":"Luise","coordinate":{"longitude":11.57040024,"latitude":48.15750122},"fuelLevel":0.52,"lastAddress":"Agnesstraße 12, 80798 München, Germany"}
{"timestamp":"2016-10-13T03:00:00+0200","id":124017,"name":"Siggi","coordinate":{"longitude":11.57260036,"latitude":48.16070175},"fuelLevel":0.56,"lastAddress":"Hohenzollernstraße 102, 80796 München, Germany"}
{"timestamp":"2016-10-13T03:00:00+0200","id":124029,"name":"Hannah","coordinate":{"longitude":11.51019955,"latitude":48.04550171},"fuelLevel":0.7,"lastAddress":"Gistlstraße 159, 82049 Pullach im Isartal, Germany"}
{"timestamp":"2016-10-13T03:00:00+0200","id":124009,"name":"Ludwig","coordinate":{"longitude":11.58409977,"latitude":48.16230011},"fuelLevel":0.71,"lastAddress":"Herzogstraße 10, 80803 München, Germany"}
{"timestamp":"2016-10-13T03:00:00+0200","id":124007,"name":"Jakob","coordinate":{"longitude":11.57769966,"latitude":48.16690063},"fuelLevel":0.9400000000000001,"lastAddress":"Karl-Theodor-Straße 62, 80803 München, Germany"}