{"timestamp":"2016-11-25T08:45:00+0100","id":124026,"name":"Eva","coordinate":{"longitude":11.58129883,"latitude":48.15232849},"fuelLevel":0.73,"lastAddress":"Akademiestraße 3, 80799 München, Germany"}
{"timestamp":"2016-11-25T08:45:00+0100","id":124025,"name":"Elli","coordinate":{"longitude":11.58120728,"latitude":48.15248108},"fuelLevel":0.8200000000000001,"lastAddress":"Akademiestraße 3, 80799 München, Germany"}
{"timestamp":"2016-11-25T08:45:00+0100","id":124033,"name":"Johanna","coordinate":{"longitude":11.57978821,"latitude":48.15280151},"fuelLevel":0.7799999999999999,"lastAddress":"Akademiestraße 11, 80799 München, Germany"}
{"timestamp":"2016-11-25T08:45:00+0100","id":124024,"name":"Christl","coordinate":{"longitude":11.57698059,"latitude":48.13278198},"fuelLevel":0.6499999999999999,"lastAddress":"Buttermelcherstraße 4, 80469 München, Germany"}
{"timestamp":"2016-11-25T08:45:00+0100","id":124040,"name":"Reserl","coordinate":{"longitude":11.57479954,"latitude":48.1291008},"fuelLevel":0.83,"lastAddress":"Fraunhoferstraße 31, 80469 München, Germany"}
{"timestamp":"2016-11-25T08:45:00+0100","id":124021,"name":"Xaver","coordinate":{"longitude":11.58200073,"latitude":48.13110352},"fuelLevel":0.77,"lastAddress":"Kohlstraße 11, 80469 München, Germany"}
{"timestamp":"2016-11-25T08:45:00+0100","id":124022,"name":"Anne","coordinate":{"longitude":11.60139465,"latitude":48.12809753},"fuelLevel":0.8099999999999999,"lastAddress":"Weißenburger Str. 42, 81667 München, Germany"}
{"timestamp":"2016-11-25T08:45:00+0100","id":124000,"name":"Bertl","coordinate":{"longitude":11.59489441,"latitude":48.13098145},"fuelLevel":0.8999999999999999,"lastAddress":"Milchstraße 2, 81667 München, Germany"}
{"timestamp":"2016-11-25T08:45:00+0100","id":124013,"name":"Poldi","coordinate":{"longitude":11.58959961,"latitude":48.125},"fuelLevel":0.79,"lastAddress":"Franziskanerstraße 47, 81669 München, Germany"}
{"timestamp":"2016-11-25T08:45:00+0100","id":124011,"name":"Maxl","coordinate":{"longitude":11.59259033,"latitude":48.12669373},"fuelLevel":0.5599999999999999,"lastAddress":"Franziskanerstraße 14, 81669 München, Germany"}
{"timestamp":"2016-11-25T08:45:00+0100","id":124003,"name":"Franzl","coordinate":{"longitude":11.58811951,"latitude":48.12541199},"fuelLevel":0.7200000000000001,"lastAddress":"Gebsattelstraße 16, 81541 München, Germany"}
{"timestamp":"2016-11-25T08:45:00+0100","id":124010,"name":"Luitpold","coordinate":{"longitude":11.58769226,"latitude":48.12789917},"fuelLevel":0.87,"lastAddress":"Hochstraße 19, 81669 München, Germany"}
{"timestamp":"2016-11-25T08:45:00+0100","id":124019,"name":"Valentin","coordinate":{"longitude":11.58189392,"latitude":48.1210022},"fuelLevel":0.64,"lastAddress":"Hochstraße 81, 81541 München, Germany"}
{"timestamp":"2016-11-25T08:45:00+0100","id":124035,"name":"Leonie","coordinate":{"longitude":11.58351135,"latitude":48.12771606},"fuelLevel":0.8800000000000001,"lastAddress":"Zeppelinstraße 39, 81669 München, Germany"}
{"timestamp":"2016-11-25T08:45:00+0100","id":124006,"name":"Gustl","coordinate":{"longitude":11.57600021,"latitude":48.12099838},"fuelLevel":0.86,"lastAddress":"Kolumbusstraße 22, 81543 München, Germany"}
{"timestamp":"2016-11-25T08:45:00+0100","id":124049,"name":"Marei","coordinate":{"longitude":11.57759953,"latitude":48.12039948},"fuelLevel":0.8999999999999999,"lastAddress":"Dollmannstraße 4, 81541 München, Germany"}
{"timestamp":"2016-11-25T08:45:00+0100","id":124018,"name":"Toni","coordinate":{"longitude":11.56910706,"latitude":48.12390137},"fuelLevel":0.9099999999999999,"lastAddress":"Wittelsbacherstraße 10-11, 80469 München, Germany"}
{"timestamp":"2016-11-25T08:45:00+0100","id":124012,"name":"Peter","coordinate":{"longitude":11.56001282,"latitude":48.15501404},"fuelLevel":0.6,"lastAddress":"Schellingstraße 138, 80797 München, Germany"}
{"timestamp":"2016-11-25T08:45:00+0100","id":124004,"name":"Fridl","coordinate":{"longitude":11.55908203,"latitude":48.15386963},"fuelLevel":0.86,"lastAddress":"Heßstraße 79, 80797 München, Germany"}
{"timestamp":"2016-11-25T08:45:00+0100","id":124002,"name":"Ferdl","coordinate":{"longitude":11.5639801,"latitude":48.15029907},"fuelLevel":0.8999999999999999,"lastAddress":"Augustenstraße 76, 80333 München, Germany"}
{"timestamp":"2016-11-25T08:45:00+0100","id":124048,"name":"Wiggerl","coordinate":{"longitude":11.57740784,"latitude":48.15910339},"fuelLevel":0.7799999999999999,"lastAddress":"Ainmillerstraße 42, 80801 München, Germany"}
{"timestamp":"2016-11-25T08:45:00+0100","id":124028,"name":"Gitte","coordinate":{"longitude":11.57958984,"latitude":48.15779114},"fuelLevel":0.9099999999999999,"lastAddress":"Franz-Joseph-Straße 25, 80801 München, Germany"}
{"timestamp":"2016-11-25T08:45:00+0100","id":124027,"name":"Fanni","coordinate":{"longitude":11.58338928,"latitude":48.16090393},"fuelLevel":0.87,"lastAddress":"Kaiserstraße 22, 80801 München, Germany"}
{"timestamp":"2016-11-25T08:45:00+0100","id":124005,"name":"Georg","coordinate":{"longitude":11.57949829,"latitude":48.15910339},"fuelLevel":0.75,"lastAddress":"Ainmillerstraße 30, 80801 München, Germany"}
{"timestamp":"2016-11-25T08:45:00+0100","id":124001,"name":"Edmund","coordinate":{"longitude":11.58058167,"latitude":48.16090393},"fuelLevel":0.5599999999999999,"lastAddress":"Friedrichstraße 36, 80801 München, Germany"}
{"timestamp":"2016-11-25T08:45:00+0100","id":124032,"name":"Irmi","coordinate":{"longitude":11.57499695,"latitude":48.15962219},"fuelLevel":0.61,"lastAddress":"Kurfürstenpl. 2, 80796 München, Germany"}
{"timestamp":"2016-11-25T08:45:00+0100","id":124017,"name":"Siggi","coordinate":{"longitude":11.57298279,"latitude":48.15689087},"fuelLevel":0.9099999999999999,"lastAddress":"Arcisstraße 65, 80801 München, Germany"}
{"timestamp":"2016-11-25T08:45:00+0100","id":124009,"name":"Ludwig","coordinate":{"longitude":11.58230591,"latitude":48.16560364},"fuelLevel":0.71,"lastAddress":"Muffatstraße 5-7, 80803 München, Germany"}
{"timestamp":"2016-11-25T08:45:00+0100","id":124007,"name":"Jakob","coordinate":{"longitude":11.57731628,"latitude":48.16671753},"fuelLevel":0.6499999999999999,"lastAddress":"Ansprengerstraße 22, 80803 München, Germany"}