{"timestamp":"2016-10-09T15:30:00+0200","id":124041,"name":"Sophie","coordinate":{"longitude":11.57769966,"latitude":48.14979935},"fuelLevel":0.9400000000000001,"lastAddress":"Schellingstraße 16, 80799 München, Germany"}
{"timestamp":"2016-10-09T15:30:00+0200","id":124026,"name":"Eva","coordinate":{"longitude":11.57820034,"latitude":48.1534996},"fuelLevel":0.61,"lastAddress":"Türkenstraße 93, 80799 München, Germany"}
{"timestamp":"2016-10-09T15:30:00+0200","id":124025,"name":"Elli","coordinate":{"longitude":11.57610035,"latitude":48.15779877},"fuelLevel":0.9,"lastAddress":"Franz-Joseph-Straße 46, 80801 München, Germany"}
{"timestamp":"2016-10-09T15:30:00+0200","id":124033,"name":"Johanna","coordinate":{"longitude":11.58090019,"latitude":48.15230179},"fuelLevel":0.76,"lastAddress":"Akademiestraße 5, 80799 München, Germany"}
{"timestamp":"2016-10-09T15:30:00+0200","id":124036,"name":"Liesel","coordinate":{"longitude":11.6086998,"latitude":48.12609863},"fuelLevel":0.6699999999999999,"lastAddress":"Haager Str. 14, 81671 München, Germany"}
{"timestamp":"2016-10-09T15:30:00+0200","id":124044,"name":"Uschi","coordinate":{"longitude":11.57250023,"latitude":48.13190079},"fuelLevel":0.9199999999999999,"lastAddress":"Müllerstraße 20, 80469 München, Germany"}
{"timestamp":"2016-10-09T15:30:00+0200","id":124024,"name":"Christl","coordinate":{"longitude":11.57940006,"latitude":48.1344986},"fuelLevel":0.8,"lastAddress":"Frauenstraße 30, 80469 München, Germany"}
{"timestamp":"2016-10-09T15:30:00+0200","id":124040,"name":"Reserl","coordinate":{"longitude":11.57209969,"latitude":48.13180161},"fuelLevel":0.83,"lastAddress":"Müllerstraße 24, 80469 München, Germany"}
{"timestamp":"2016-10-09T15:30:00+0200","id":124021,"name":"Xaver","coordinate":{"longitude":11.5802002,"latitude":48.13000107},"fuelLevel":0.9199999999999999,"lastAddress":"Erhardtstraße 27, 80469 München, Germany"}
{"timestamp":"2016-10-09T15:30:00+0200","id":124014,"name":"Quirin","coordinate":{"longitude":11.60509968,"latitude":48.13240051},"fuelLevel":0.6000000000000001,"lastAddress":"Elsässer Str. 4, 81667 München, Germany"}
{"timestamp":"2016-10-09T15:30:00+0200","id":124034,"name":"Kathi","coordinate":{"longitude":11.60490036,"latitude":48.13219833},"fuelLevel":0.66,"lastAddress":"Elsässer Str. 16, 81667 München, Germany"}
{"timestamp":"2016-10-09T15:30:00+0200","id":124016,"name":"Sepp","coordinate":{"longitude":11.59809971,"latitude":48.12540054},"fuelLevel":0.9299999999999999,"lastAddress":"Bazeillesstraße 5, 81669 München, Germany"}
{"timestamp":"2016-10-09T15:30:00+0200","id":124038,"name":"Magda","coordinate":{"longitude":11.60039997,"latitude":48.12820053},"fuelLevel":0.67,"lastAddress":"Gravelottestraße 1, 81667 München, Germany"}
{"timestamp":"2016-10-09T15:30:00+0200","id":124022,"name":"Anne","coordinate":{"longitude":11.59469986,"latitude":48.12810135},"fuelLevel":0.86,"lastAddress":"Rosenheimer Str. 62, 81667 München, Germany"}
{"timestamp":"2016-10-09T15:30:00+0200","id":124000,"name":"Bertl","coordinate":{"longitude":11.59640026,"latitude":48.13800049},"fuelLevel":0.82,"lastAddress":"Maria-Theresia-Straße 4, 81675 München, Germany"}
{"timestamp":"2016-10-09T15:30:00+0200","id":124013,"name":"Poldi","coordinate":{"longitude":11.59459972,"latitude":48.12779999},"fuelLevel":0.79,"lastAddress":"Balanstraße 4, 81669 München, Germany"}
{"timestamp":"2016-10-09T15:30:00+0200","id":124011,"name":"Maxl","coordinate":{"longitude":11.59329987,"latitude":48.12530136},"fuelLevel":0.73,"lastAddress":"Barnabasstraße 1, 81669 München, Germany"}
{"timestamp":"2016-10-09T15:30:00+0200","id":124003,"name":"Franzl","coordinate":{"longitude":11.59319973,"latitude":48.12749863},"fuelLevel":0.8,"lastAddress":"Franziskanerstraße 13, 81669 München, Germany"}
{"timestamp":"2016-10-09T15:30:00+0200","id":124010,"name":"Luitpold","coordinate":{"longitude":11.58430004,"latitude":48.1271019},"fuelLevel":0.9500000000000001,"lastAddress":"Sammtstraße 3, 81669 München, Germany"}
{"timestamp":"2016-10-09T15:30:00+0200","id":124019,"name":"Valentin","coordinate":{"longitude":11.58520031,"latitude":48.12369919},"fuelLevel":0.87,"lastAddress":"Hochstraße 49C, 81541 München, Germany"}
{"timestamp":"2016-10-09T15:30:00+0200","id":124035,"name":"Leonie","coordinate":{"longitude":11.5862999,"latitude":48.12960052},"fuelLevel":0.7899999999999999,"lastAddress":"Lilienstraße 26, 81669 München, Germany"}
{"timestamp":"2016-10-09T15:30:00+0200","id":124020,"name":"Vinzenz","coordinate":{"longitude":11.57830048,"latitude":48.1228981},"fuelLevel":0.8999999999999999,"lastAddress":"Entenbachstraße 27, 81541 München, Germany"}
{"timestamp":"2016-10-09T15:30:00+0200","id":124049,"name":"Marei","coordinate":{"longitude":11.57199955,"latitude":48.12060165},"fuelLevel":0.52,"lastAddress":"Humboldtstraße 6, 81543 München, Germany"}
{"timestamp":"2016-10-09T15:30:00+0200","id":124045,"name":"Vroni","coordinate":{"longitude":11.56770039,"latitude":48.13150024},"fuelLevel":0.71,"lastAddress":"Müllerstraße 47, 80469 München, Germany"}
{"timestamp":"2016-10-09T15:30:00+0200","id":124047,"name":"Walli","coordinate":{"longitude":11.57009983,"latitude":48.1493988},"fuelLevel":0.71,"lastAddress":"Theresienstraße, 80333 München, Germany"}
{"timestamp":"2016-10-09T15:30:00+0200","id":124048,"name":"Wiggerl","coordinate":{"longitude":11.57890034,"latitude":48.16130066},"fuelLevel":0.68,"lastAddress":"Kaiserstraße 36, 80801 München, Germany"}
{"timestamp":"2016-10-09T15:30:00+0200","id":124028,"name":"Gitte","coordinate":{"longitude":11.57730007,"latitude":48.15999985},"fuelLevel":0.75,"lastAddress":"Römerstraße 17, 80801 München, Germany"}
{"timestamp":"2016-10-09T15:30:00+0200","id":124027,"name":"Fanni","coordinate":{"longitude":11.57759953,"latitude":48.15869904},"fuelLevel":0.7899999999999999,"lastAddress":"Römerstraße 6, 80801 München, Germany"}
{"timestamp":"2016-10-09T15:30:00+0200","id":124005,"name":"Georg","coordinate":{"longitude":11.57549953,"latitude":48.16189957},"fuelLevel":0.56,"lastAddress":"Viktor-Scheffel-Straße 19, 80803 München, Germany"}
{"timestamp":"2016-10-09T15:30:00+0200","id":124001,"name":"Edmund","coordinate":{"longitude":11.57909966,"latitude":48.15800095},"fuelLevel":0.5700000000000001,"lastAddress":"Franz-Joseph-Straße 28, 80801 München, Germany"}
{"timestamp":"2016-10-09T15:30:00+0200","id":124032,"name":"Irmi","coordinate":{"longitude":11.57260036,"latitude":48.15990067},"fuelLevel":0.64,"lastAddress":"Isabellastraße 45, 80796 München, Germany"}
{"timestamp":"2016-10-09T15:30:00+0200","id":124037,"name":"Luise","coordinate":{"longitude":11.5703001,"latitude":48.15729904},"fuelLevel":0.52,"lastAddress":"Agnesstraße 13, 80798 München, Germany"}
{"timestamp":"2016-10-09T15:30:00+0200","id":124017,"name":"Siggi","coordinate":{"longitude":11.5710001,"latitude":48.16080093},"fuelLevel":0.56,"lastAddress":"Hohenzollernstraße 112, 80796 München, Germany"}
{"timestamp":"2016-10-09T15:30:00+0200","id":124029,"name":"Hannah","coordinate":{"longitude":11.51029968,"latitude":48.04539871},"fuelLevel":0.7,"lastAddress":"Gistlstraße 159, 82049 Pullach im Isartal, Germany"}
{"timestamp":"2016-10-09T15:30:00+0200","id":124008,"name":"Johann","coordinate":{"longitude":11.50949955,"latitude":48.04510117},"fuelLevel":0.87,"lastAddress":"Seitnerstraße 70, 82049 Pullach im Isartal, Germany"}
{"timestamp":"2016-10-09T15:30:00+0200","id":124039,"name":"Marie","coordinate":{"longitude":11.50969982,"latitude":48.04550171},"fuelLevel":0.58,"lastAddress":"Seitnerstraße 70, 82049 Pullach im Isartal, Germany"}
{"timestamp":"2016-10-09T15:30:00+0200","id":124009,"name":"Ludwig","coordinate":{"longitude":11.58479977,"latitude":48.16210175},"fuelLevel":0.8999999999999999,"lastAddress":"Herzogstraße 5-7, 80803 München, Germany"}
{"timestamp":"2016-10-09T15:30:00+0200","id":124007,"name":"Jakob","coordinate":{"longitude":11.57429981,"latitude":48.16730118},"fuelLevel":0.88,"lastAddress":"Karl-Theodor-Straße 84, 80803 München, Germany"}