{"timestamp":"2016-11-02T10:20:00+0100","id":124041,"name":"Sophie","coordinate":{"longitude":11.57958984,"latitude":48.15280151},"fuelLevel":0.72,"lastAddress":"Akademiestraße 11, 80799 München, Germany"}
{"timestamp":"2016-11-02T10:20:00+0100","id":124026,"name":"Eva","coordinate":{"longitude":11.57980347,"latitude":48.1526947},"fuelLevel":0.89,"lastAddress":"Akademiestraße 11, 80799 München, Germany"}
{"timestamp":"2016-11-02T10:20:00+0100","id":124025,"name":"Elli","coordinate":{"longitude":11.57620239,"latitude":48.1558075},"fuelLevel":0.6900000000000001,"lastAddress":"Konradstraße 2, 80801 München, Germany"}
{"timestamp":"2016-11-02T10:20:00+0100","id":124033,"name":"Johanna","coordinate":{"longitude":11.57839966,"latitude":48.15312195},"fuelLevel":0.55,"lastAddress":"Akademiestraße 4, 80799 München, Germany"}
{"timestamp":"2016-11-02T10:20:00+0100","id":124036,"name":"Liesel","coordinate":{"longitude":11.58059692,"latitude":48.15170288},"fuelLevel":0.8099999999999999,"lastAddress":"Adalbertstraße 12, 80799 München, Germany"}
{"timestamp":"2016-11-02T10:20:00+0100","id":124044,"name":"Uschi","coordinate":{"longitude":11.57139587,"latitude":48.13220215},"fuelLevel":0.5902777777777778,"lastAddress":"Blumenstraße 28-30, 80331 München, Germany"}
{"timestamp":"2016-11-02T10:20:00+0100","id":124024,"name":"Christl","coordinate":{"longitude":11.57258606,"latitude":48.13047791},"fuelLevel":0.82,"lastAddress":"Jahnstraße 1, 80469 München, Germany"}
{"timestamp":"2016-11-02T10:20:00+0100","id":124040,"name":"Reserl","coordinate":{"longitude":11.57269955,"latitude":48.1332016},"fuelLevel":0.62,"lastAddress":"Blumenstraße 28, 80331 München, Germany"}
{"timestamp":"2016-11-02T10:20:00+0100","id":124021,"name":"Xaver","coordinate":{"longitude":11.57200623,"latitude":48.13098145},"fuelLevel":0.88,"lastAddress":"Fraunhoferstraße 6, 80469 München, Germany"}
{"timestamp":"2016-11-02T10:20:00+0100","id":124034,"name":"Kathi","coordinate":{"longitude":11.59809875,"latitude":48.13252258},"fuelLevel":0.86,"lastAddress":"Preysingstraße 53, 81667 München, Germany"}
{"timestamp":"2016-11-02T10:20:00+0100","id":124030,"name":"Hedwig","coordinate":{"longitude":11.56088257,"latitude":48.12561035},"fuelLevel":0.7799999999999999,"lastAddress":"Maistraße 54, 80337 München, Germany"}
{"timestamp":"2016-11-02T10:20:00+0100","id":124013,"name":"Poldi","coordinate":{"longitude":11.59029961,"latitude":48.12540054},"fuelLevel":0.86,"lastAddress":"Franziskanerstraße 43, 81669 München, Germany"}
{"timestamp":"2016-11-02T10:20:00+0100","id":124019,"name":"Valentin","coordinate":{"longitude":11.58187866,"latitude":48.12098694},"fuelLevel":0.6499999999999999,"lastAddress":"Hochstraße 81, 81541 München, Germany"}
{"timestamp":"2016-11-02T10:20:00+0100","id":124035,"name":"Leonie","coordinate":{"longitude":11.58569336,"latitude":48.12973022},"fuelLevel":0.5499999999999999,"lastAddress":"Zeppelinstraße 65, 81669 München, Germany"}
{"timestamp":"2016-11-02T10:20:00+0100","id":124006,"name":"Gustl","coordinate":{"longitude":11.57881165,"latitude":48.12361145},"fuelLevel":0.7100000000000001,"lastAddress":"Entenbachstraße 15, 81541 München, Germany"}
{"timestamp":"2016-11-02T10:20:00+0100","id":124020,"name":"Vinzenz","coordinate":{"longitude":11.57420349,"latitude":48.12001038},"fuelLevel":0.56,"lastAddress":"Humboldtstraße 23, 81543 München, Germany"}
{"timestamp":"2016-11-02T10:20:00+0100","id":124049,"name":"Marei","coordinate":{"longitude":11.57919312,"latitude":48.12458801},"fuelLevel":0.62,"lastAddress":"Boosstraße 17, 81541 München, Germany"}
{"timestamp":"2016-11-02T10:20:00+0100","id":124045,"name":"Vroni","coordinate":{"longitude":11.5684967,"latitude":48.13111877},"fuelLevel":0.5902777777777778,"lastAddress":"Müllerstraße 43, 80469 München, Germany"}
{"timestamp":"2016-11-02T10:20:00+0100","id":124018,"name":"Toni","coordinate":{"longitude":11.57059956,"latitude":48.13019943},"fuelLevel":0.6499999999999999,"lastAddress":"Hans-Sachs-Straße 5, 80469 München, Germany"}
{"timestamp":"2016-11-02T10:20:00+0100","id":124012,"name":"Peter","coordinate":{"longitude":11.55659485,"latitude":48.15480042},"fuelLevel":0.8800000000000001,"lastAddress":"Heßstraße 108, 80797 München, Germany"}
{"timestamp":"2016-11-02T10:20:00+0100","id":124031,"name":"Heidi","coordinate":{"longitude":11.56980896,"latitude":48.1493988},"fuelLevel":0.6388888888888888,"lastAddress":"Theresienstraße 90, 80333 München, Germany"}
{"timestamp":"2016-11-02T10:20:00+0100","id":124047,"name":"Walli","coordinate":{"longitude":11.56610107,"latitude":48.14950562},"fuelLevel":0.8500000000000001,"lastAddress":"Luisenstraße 47, 80333 München, Germany"}
{"timestamp":"2016-11-02T10:20:00+0100","id":124002,"name":"Ferdl","coordinate":{"longitude":11.56350708,"latitude":48.14970398},"fuelLevel":0.7799999999999999,"lastAddress":"Augustenstraße 72, 80333 München, Germany"}
{"timestamp":"2016-11-02T10:20:00+0100","id":124048,"name":"Wiggerl","coordinate":{"longitude":11.57539368,"latitude":48.15867615},"fuelLevel":0.54,"lastAddress":"Kurfürstenstraße 55, 80801 München, Germany"}
{"timestamp":"2016-11-02T10:20:00+0100","id":124028,"name":"Gitte","coordinate":{"longitude":11.57580566,"latitude":48.16009521},"fuelLevel":0.7200000000000001,"lastAddress":"Hohenzollernstraße 49, 80801 München, Germany"}
{"timestamp":"2016-11-02T10:20:00+0100","id":124027,"name":"Fanni","coordinate":{"longitude":11.58416748,"latitude":48.16239929},"fuelLevel":0.63,"lastAddress":"Herzogstraße 10, 80803 München, Germany"}
{"timestamp":"2016-11-02T10:20:00+0100","id":124005,"name":"Georg","coordinate":{"longitude":11.57678223,"latitude":48.15800476},"fuelLevel":0.8500000000000001,"lastAddress":"Römerstraße 1, 80801 München, Germany"}
{"timestamp":"2016-11-02T10:20:00+0100","id":124032,"name":"Irmi","coordinate":{"longitude":11.5749054,"latitude":48.15888977},"fuelLevel":0.57,"lastAddress":"Nordendstraße 62-64, 80801 München, Germany"}
{"timestamp":"2016-11-02T10:20:00+0100","id":124017,"name":"Siggi","coordinate":{"longitude":11.5710907,"latitude":48.15948486},"fuelLevel":0.54,"lastAddress":"Jakob-Klar-Straße 8, 80796 München, Germany"}
{"timestamp":"2016-11-02T10:20:00+0100","id":124029,"name":"Hannah","coordinate":{"longitude":11.50990295,"latitude":48.04551697},"fuelLevel":0.81,"lastAddress":"Gistlstraße 159, 82049 Pullach im Isartal, Germany"}
{"timestamp":"2016-11-02T10:20:00+0100","id":124008,"name":"Johann","coordinate":{"longitude":11.50959778,"latitude":48.04541016},"fuelLevel":0.74,"lastAddress":"Seitnerstraße 70, 82049 Pullach im Isartal, Germany"}
{"timestamp":"2016-11-02T10:20:00+0100","id":124039,"name":"Marie","coordinate":{"longitude":11.50991821,"latitude":48.04530334},"fuelLevel":0.82,"lastAddress":"Gistlstraße 159, 82049 Pullach im Isartal, Germany"}