{"timestamp":"2016-11-10T15:15:00+0100","id":124041,"name":"Sophie","coordinate":{"longitude":11.58039856,"latitude":48.15151978},"fuelLevel":0.64,"lastAddress":"Hauptgebäude, Geschwister-Scholl-Platz 1, 80539 München, Germany"}
{"timestamp":"2016-11-10T15:15:00+0100","id":124026,"name":"Eva","coordinate":{"longitude":11.57981873,"latitude":48.15267944},"fuelLevel":0.89,"lastAddress":"Akademiestraße 11, 80799 München, Germany"}
{"timestamp":"2016-11-10T15:15:00+0100","id":124025,"name":"Elli","coordinate":{"longitude":11.57789612,"latitude":48.14979553},"fuelLevel":0.5599999999999999,"lastAddress":"Schellingstraße 16, 80799 München, Germany"}
{"timestamp":"2016-11-10T15:15:00+0100","id":124040,"name":"Reserl","coordinate":{"longitude":11.57498169,"latitude":48.12879944},"fuelLevel":0.79,"lastAddress":"Fraunhoferstraße 34, 80469 München, Germany"}
{"timestamp":"2016-11-10T15:15:00+0100","id":124021,"name":"Xaver","coordinate":{"longitude":11.57249451,"latitude":48.13278198},"fuelLevel":0.75,"lastAddress":"Theklastraße 1, 80469 München, Germany"}
{"timestamp":"2016-11-10T15:15:00+0100","id":124014,"name":"Quirin","coordinate":{"longitude":11.59866333,"latitude":48.13690186},"fuelLevel":0.9583333333333334,"lastAddress":"Ismaninger Str. 11, 81675 München, Germany"}
{"timestamp":"2016-11-10T15:15:00+0100","id":124030,"name":"Hedwig","coordinate":{"longitude":11.56269836,"latitude":48.12660217},"fuelLevel":0.66,"lastAddress":"Thalkirchner Str. 68, 80337 München, Germany"}
{"timestamp":"2016-11-10T15:15:00+0100","id":124016,"name":"Sepp","coordinate":{"longitude":11.59921265,"latitude":48.13041687},"fuelLevel":0.59,"lastAddress":"Metzstraße 32, 81667 München, Germany"}
{"timestamp":"2016-11-10T15:15:00+0100","id":124000,"name":"Bertl","coordinate":{"longitude":11.59700012,"latitude":48.12799072},"fuelLevel":0.58,"lastAddress":"Lothringer Str. 4-6, 81667 München, Germany"}
{"timestamp":"2016-11-10T15:15:00+0100","id":124003,"name":"Franzl","coordinate":{"longitude":11.58988953,"latitude":48.12518311},"fuelLevel":0.79,"lastAddress":"Franziskanerstraße 43, 81669 München, Germany"}
{"timestamp":"2016-11-10T15:15:00+0100","id":124010,"name":"Luitpold","coordinate":{"longitude":11.58399963,"latitude":48.12651062},"fuelLevel":0.63,"lastAddress":"Sammtstraße 9, 81669 München, Germany"}
{"timestamp":"2016-11-10T15:15:00+0100","id":124019,"name":"Valentin","coordinate":{"longitude":11.58187866,"latitude":48.1210022},"fuelLevel":0.6499999999999999,"lastAddress":"Hochstraße 81, 81541 München, Germany"}
{"timestamp":"2016-11-10T15:15:00+0100","id":124035,"name":"Leonie","coordinate":{"longitude":11.58129883,"latitude":48.12750244},"fuelLevel":0.64,"lastAddress":"Schweigerstraße 4, 81541 München, Germany"}
{"timestamp":"2016-11-10T15:15:00+0100","id":124006,"name":"Gustl","coordinate":{"longitude":11.57800293,"latitude":48.12281799},"fuelLevel":0.5900000000000001,"lastAddress":"Entenbachstraße 26, 81541 München, Germany"}
{"timestamp":"2016-11-10T15:15:00+0100","id":124045,"name":"Vroni","coordinate":{"longitude":11.5680542,"latitude":48.12712097},"fuelLevel":0.8500000000000001,"lastAddress":"Holzstraße 49B, 80469 München, Germany"}
{"timestamp":"2016-11-10T15:15:00+0100","id":124012,"name":"Peter","coordinate":{"longitude":11.56155586,"latitude":48.15420151},"fuelLevel":0.73,"lastAddress":"Schellingstraße 141, 80798 München, Germany"}
{"timestamp":"2016-11-10T15:15:00+0100","id":124004,"name":"Fridl","coordinate":{"longitude":11.56190491,"latitude":48.15679932},"fuelLevel":0.9199999999999999,"lastAddress":"Schleißheimer Str. 75, 80797 München, Germany"}
{"timestamp":"2016-11-10T15:15:00+0100","id":124031,"name":"Heidi","coordinate":{"longitude":11.56390381,"latitude":48.15060425},"fuelLevel":0.55,"lastAddress":"Augustenstraße 77-79, 80333 München, Germany"}
{"timestamp":"2016-11-10T15:15:00+0100","id":124047,"name":"Walli","coordinate":{"longitude":11.5664978,"latitude":48.14927673},"fuelLevel":0.8,"lastAddress":"Luisenstraße 47A, 80333 München, Germany"}
{"timestamp":"2016-11-10T15:15:00+0100","id":124002,"name":"Ferdl","coordinate":{"longitude":11.56350708,"latitude":48.14971924},"fuelLevel":0.76,"lastAddress":"Augustenstraße 72, 80333 München, Germany"}
{"timestamp":"2016-11-10T15:15:00+0100","id":124005,"name":"Georg","coordinate":{"longitude":11.58119965,"latitude":48.15819931},"fuelLevel":0.87,"lastAddress":"Franz-Joseph-Straße 18, 80801 München, Germany"}
{"timestamp":"2016-11-10T15:15:00+0100","id":124001,"name":"Edmund","coordinate":{"longitude":11.57670593,"latitude":48.16130066},"fuelLevel":0.63,"lastAddress":"Kaiserstraße 59-61, 80801 München, Germany"}
{"timestamp":"2016-11-10T15:15:00+0100","id":124032,"name":"Irmi","coordinate":{"longitude":11.57481384,"latitude":48.15948486},"fuelLevel":0.58,"lastAddress":"Nordendstraße 64, 80801 München, Germany"}
{"timestamp":"2016-11-10T15:15:00+0100","id":124017,"name":"Siggi","coordinate":{"longitude":11.5690155,"latitude":48.15940857},"fuelLevel":0.9099999999999999,"lastAddress":"Tengstraße 31, 80796 München, Germany"}
{"timestamp":"2016-11-10T15:15:00+0100","id":124015,"name":"Rudi","coordinate":{"longitude":11.50630188,"latitude":48.09098816},"fuelLevel":0.41,"lastAddress":"Meglingerstraße 30-32, 81477 München, Germany"}
{"timestamp":"2016-11-10T15:15:00+0100","id":124029,"name":"Hannah","coordinate":{"longitude":11.50949955,"latitude":48.04550171},"fuelLevel":0.89,"lastAddress":"Seitnerstraße 70, 82049 Pullach im Isartal, Germany"}
{"timestamp":"2016-11-10T15:15:00+0100","id":124008,"name":"Johann","coordinate":{"longitude":11.5098114,"latitude":48.04519653},"fuelLevel":0.87,"lastAddress":"Seitnerstraße 70, 82049 Pullach im Isartal, Germany"}
{"timestamp":"2016-11-10T15:15:00+0100","id":124039,"name":"Marie","coordinate":{"longitude":11.50949097,"latitude":48.04550171},"fuelLevel":0.86,"lastAddress":"Seitnerstraße 70, 82049 Pullach im Isartal, Germany"}
{"timestamp":"2016-11-10T15:15:00+0100","id":124009,"name":"Ludwig","coordinate":{"longitude":11.58270264,"latitude":48.16529846},"fuelLevel":0.66,"lastAddress":"Muffatstraße 3, 80803 München, Germany"}
{"timestamp":"2016-11-10T15:15:00+0100","id":124007,"name":"Jakob","coordinate":{"longitude":11.57411194,"latitude":48.1643219},"fuelLevel":0.84,"lastAddress":"Belgradstraße 37, 80796 München, Germany"}