{"timestamp":"2016-10-17T21:35:00+0200","id":124041,"name":"Sophie","coordinate":{"longitude":11.57849979,"latitude":48.15330124},"fuelLevel":0.8300000000000001,"lastAddress":"Akademiestraße 4, 80799 München, Germany"}
{"timestamp":"2016-10-17T21:35:00+0200","id":124026,"name":"Eva","coordinate":{"longitude":11.58110046,"latitude":48.14979935},"fuelLevel":0.9199999999999999,"lastAddress":"Ludwigstraße 24, 80539 München, Germany"}
{"timestamp":"2016-10-17T21:35:00+0200","id":124025,"name":"Elli","coordinate":{"longitude":11.5795002,"latitude":48.15589905},"fuelLevel":0.8300000000000001,"lastAddress":"Friedrichstraße 9, 80801 München, Germany"}
{"timestamp":"2016-10-17T21:35:00+0200","id":124044,"name":"Uschi","coordinate":{"longitude":11.57199955,"latitude":48.13180161},"fuelLevel":0.8,"lastAddress":"Müllerstraße 24, 80469 München, Germany"}
{"timestamp":"2016-10-17T21:35:00+0200","id":124040,"name":"Reserl","coordinate":{"longitude":11.57229996,"latitude":48.13209915},"fuelLevel":0.79,"lastAddress":"Müllerstraße 20, 80469 München, Germany"}
{"timestamp":"2016-10-17T21:35:00+0200","id":124014,"name":"Quirin","coordinate":{"longitude":11.59799957,"latitude":48.1344986},"fuelLevel":0.57,"lastAddress":"Johannispl. 23, 81667 München, Germany"}
{"timestamp":"2016-10-17T21:35:00+0200","id":124034,"name":"Kathi","coordinate":{"longitude":11.60879993,"latitude":48.13280106},"fuelLevel":0.57,"lastAddress":"Kirchenstraße 89, 81675 München, Germany"}
{"timestamp":"2016-10-17T21:35:00+0200","id":124016,"name":"Sepp","coordinate":{"longitude":11.59819984,"latitude":48.12620163},"fuelLevel":0.88,"lastAddress":"Rosenheimer Str. 119, 81667 München, Germany"}
{"timestamp":"2016-10-17T21:35:00+0200","id":124038,"name":"Magda","coordinate":{"longitude":11.60039997,"latitude":48.12829971},"fuelLevel":0.67,"lastAddress":"Weißenburger Str. 36, 81667 München, Germany"}
{"timestamp":"2016-10-17T21:35:00+0200","id":124022,"name":"Anne","coordinate":{"longitude":11.50599957,"latitude":48.09140015},"fuelLevel":0.7999999999999999,"lastAddress":"Meglingerstraße 40, 81477 München, Germany"}
{"timestamp":"2016-10-17T21:35:00+0200","id":124013,"name":"Poldi","coordinate":{"longitude":11.59440041,"latitude":48.12779999},"fuelLevel":0.61,"lastAddress":"Balanstraße 4, 81669 München, Germany"}
{"timestamp":"2016-10-17T21:35:00+0200","id":124011,"name":"Maxl","coordinate":{"longitude":11.59490013,"latitude":48.12770081},"fuelLevel":0.6699999999999999,"lastAddress":"Metzstraße 1, 81667 München, Germany"}
{"timestamp":"2016-10-17T21:35:00+0200","id":124003,"name":"Franzl","coordinate":{"longitude":11.59309959,"latitude":48.12659836},"fuelLevel":0.7799999999999999,"lastAddress":"Simon-Knoll-Platz 1, 81669 München, Germany"}
{"timestamp":"2016-10-17T21:35:00+0200","id":124010,"name":"Luitpold","coordinate":{"longitude":11.58769989,"latitude":48.12760162},"fuelLevel":0.87,"lastAddress":"Hochstraße 19, 81669 München, Germany"}
{"timestamp":"2016-10-17T21:35:00+0200","id":124019,"name":"Valentin","coordinate":{"longitude":11.50580025,"latitude":48.09080124},"fuelLevel":0.8680555555555556,"lastAddress":"Meglingerstraße 30-32, 81477 München, Germany"}
{"timestamp":"2016-10-17T21:35:00+0200","id":124020,"name":"Vinzenz","coordinate":{"longitude":11.57830048,"latitude":48.12279892},"fuelLevel":0.81,"lastAddress":"Entenbachstraße 27, 81541 München, Germany"}
{"timestamp":"2016-10-17T21:35:00+0200","id":124049,"name":"Marei","coordinate":{"longitude":11.57409954,"latitude":48.12250137},"fuelLevel":0.9400000000000001,"lastAddress":"Eduard-Schmid-Straße 34, 81541 München, Germany"}
{"timestamp":"2016-10-17T21:35:00+0200","id":124045,"name":"Vroni","coordinate":{"longitude":11.56540012,"latitude":48.12379837},"fuelLevel":0.64,"lastAddress":"Geyerstraße 32, 80469 München, Germany"}
{"timestamp":"2016-10-17T21:35:00+0200","id":124018,"name":"Toni","coordinate":{"longitude":11.56989956,"latitude":48.12950134},"fuelLevel":0.6499999999999999,"lastAddress":"Hans-Sachs-Straße 9-11, 80469 München, Germany"}
{"timestamp":"2016-10-17T21:35:00+0200","id":124012,"name":"Peter","coordinate":{"longitude":11.56130028,"latitude":48.15470123},"fuelLevel":0.9600000000000001,"lastAddress":"Schleißheimer Str. 86, 80797 München, Germany"}
{"timestamp":"2016-10-17T21:35:00+0200","id":124004,"name":"Fridl","coordinate":{"longitude":11.55589962,"latitude":48.15510178},"fuelLevel":0.58,"lastAddress":"Lothstraße 64, 80335 München, Germany"}
{"timestamp":"2016-10-17T21:35:00+0200","id":124031,"name":"Heidi","coordinate":{"longitude":11.56340027,"latitude":48.14979935},"fuelLevel":0.62,"lastAddress":"Augustenstraße 63-65, 80333 München, Germany"}
{"timestamp":"2016-10-17T21:35:00+0200","id":124048,"name":"Wiggerl","coordinate":{"longitude":11.58040047,"latitude":48.16249847},"fuelLevel":0.67,"lastAddress":"Herzogstraße 33, 80803 München, Germany"}
{"timestamp":"2016-10-17T21:35:00+0200","id":124028,"name":"Gitte","coordinate":{"longitude":11.57579994,"latitude":48.16080093},"fuelLevel":0.7200000000000001,"lastAddress":"Hohenzollernstraße 78, 80801 München, Germany"}
{"timestamp":"2016-10-17T21:35:00+0200","id":124032,"name":"Irmi","coordinate":{"longitude":11.57069969,"latitude":48.1590004},"fuelLevel":0.9400000000000001,"lastAddress":"Jakob-Klar-Straße 1A, 80796 München, Germany"}
{"timestamp":"2016-10-17T21:35:00+0200","id":124037,"name":"Luise","coordinate":{"longitude":11.57019997,"latitude":48.15729904},"fuelLevel":0.52,"lastAddress":"Agnesstraße 13, 80798 München, Germany"}
{"timestamp":"2016-10-17T21:35:00+0200","id":124017,"name":"Siggi","coordinate":{"longitude":11.57260036,"latitude":48.16059875},"fuelLevel":0.56,"lastAddress":"Hohenzollernstraße 102, 80796 München, Germany"}
{"timestamp":"2016-10-17T21:35:00+0200","id":124029,"name":"Hannah","coordinate":{"longitude":11.50979996,"latitude":48.04550171},"fuelLevel":0.59,"lastAddress":"Gistlstraße 159, 82049 Pullach im Isartal, Germany"}
{"timestamp":"2016-10-17T21:35:00+0200","id":124009,"name":"Ludwig","coordinate":{"longitude":11.58360004,"latitude":48.16270065},"fuelLevel":0.6499999999999999,"lastAddress":"Wilhelmstraße 39, 80801 München, Germany"}
{"timestamp":"2016-10-17T21:35:00+0200","id":124007,"name":"Jakob","coordinate":{"longitude":11.5763998,"latitude":48.16690063},"fuelLevel":0.30000000000000004,"lastAddress":"Karl-Theodor-Straße 67, 80803 München, Germany"}