{"timestamp":"2016-10-14T21:25:00+0200","id":124041,"name":"Sophie","coordinate":{"longitude":11.57820034,"latitude":48.15010071},"fuelLevel":0.87,"lastAddress":"Amalienstraße 63, 80799 München, Germany"}
{"timestamp":"2016-10-14T21:25:00+0200","id":124026,"name":"Eva","coordinate":{"longitude":11.57820034,"latitude":48.15330124},"fuelLevel":0.61,"lastAddress":"Türkenstraße 93, 80799 München, Germany"}
{"timestamp":"2016-10-14T21:25:00+0200","id":124025,"name":"Elli","coordinate":{"longitude":11.57730007,"latitude":48.15629959},"fuelLevel":0.87,"lastAddress":"Habsburgerstraße 3, 80801 München, Germany"}
{"timestamp":"2016-10-14T21:25:00+0200","id":124033,"name":"Johanna","coordinate":{"longitude":11.57670021,"latitude":48.15010071},"fuelLevel":0.73,"lastAddress":"Schellingstraße 26-28, 80799 München, Germany"}
{"timestamp":"2016-10-14T21:25:00+0200","id":124044,"name":"Uschi","coordinate":{"longitude":11.57250023,"latitude":48.13159943},"fuelLevel":0.9199999999999999,"lastAddress":"Müllerstraße 11, 80469 München, Germany"}
{"timestamp":"2016-10-14T21:25:00+0200","id":124040,"name":"Reserl","coordinate":{"longitude":11.57299995,"latitude":48.13190079},"fuelLevel":0.79,"lastAddress":"Müllerstraße 7, 80469 München, Germany"}
{"timestamp":"2016-10-14T21:25:00+0200","id":124021,"name":"Xaver","coordinate":{"longitude":11.5802002,"latitude":48.13010025},"fuelLevel":0.9199999999999999,"lastAddress":"Erhardtstraße 27, 80469 München, Germany"}
{"timestamp":"2016-10-14T21:25:00+0200","id":124014,"name":"Quirin","coordinate":{"longitude":11.59759998,"latitude":48.13460159},"fuelLevel":0.57,"lastAddress":"Innere Wiener Straße 58, 81667 München, Germany"}
{"timestamp":"2016-10-14T21:25:00+0200","id":124034,"name":"Kathi","coordinate":{"longitude":11.60470009,"latitude":48.13389969},"fuelLevel":0.73,"lastAddress":"Flurstraße 2-4, 81675 München, Germany"}
{"timestamp":"2016-10-14T21:25:00+0200","id":124016,"name":"Sepp","coordinate":{"longitude":11.59819984,"latitude":48.12630081},"fuelLevel":0.88,"lastAddress":"Rosenheimer Str. 119, 81667 München, Germany"}
{"timestamp":"2016-10-14T21:25:00+0200","id":124038,"name":"Magda","coordinate":{"longitude":11.60029984,"latitude":48.12860107},"fuelLevel":0.67,"lastAddress":"Pariser Str. 31, 81667 München, Germany"}
{"timestamp":"2016-10-14T21:25:00+0200","id":124022,"name":"Anne","coordinate":{"longitude":11.6001997,"latitude":48.12580109},"fuelLevel":0.7999999999999999,"lastAddress":"Orleansstraße 21, 81667 München, Germany"}
{"timestamp":"2016-10-14T21:25:00+0200","id":124013,"name":"Poldi","coordinate":{"longitude":11.59440041,"latitude":48.12770081},"fuelLevel":0.61,"lastAddress":"Balanstraße 6A, 81669 München, Germany"}
{"timestamp":"2016-10-14T21:25:00+0200","id":124011,"name":"Maxl","coordinate":{"longitude":11.59469986,"latitude":48.12749863},"fuelLevel":0.6699999999999999,"lastAddress":"Balanstraße 9, 81669 München, Germany"}
{"timestamp":"2016-10-14T21:25:00+0200","id":124003,"name":"Franzl","coordinate":{"longitude":11.59309959,"latitude":48.1271019},"fuelLevel":0.8,"lastAddress":"Rablstraße 39, 81669 München, Germany"}
{"timestamp":"2016-10-14T21:25:00+0200","id":124010,"name":"Luitpold","coordinate":{"longitude":11.58440018,"latitude":48.12760162},"fuelLevel":0.9400000000000001,"lastAddress":"Lilienstraße 66, 81669 München, Germany"}
{"timestamp":"2016-10-14T21:25:00+0200","id":124006,"name":"Gustl","coordinate":{"longitude":11.57460022,"latitude":48.12049866},"fuelLevel":0.9400000000000001,"lastAddress":"Oefelestraße 8, 81543 München, Germany"}
{"timestamp":"2016-10-14T21:25:00+0200","id":124020,"name":"Vinzenz","coordinate":{"longitude":11.57830048,"latitude":48.12250137},"fuelLevel":0.81,"lastAddress":"Entenbachstraße 35, 81541 München, Germany"}
{"timestamp":"2016-10-14T21:25:00+0200","id":124049,"name":"Marei","coordinate":{"longitude":11.57439995,"latitude":48.12239838},"fuelLevel":0.9400000000000001,"lastAddress":"Sommerstraße 9, 81543 München, Germany"}
{"timestamp":"2016-10-14T21:25:00+0200","id":124045,"name":"Vroni","coordinate":{"longitude":11.56509972,"latitude":48.12400055},"fuelLevel":0.64,"lastAddress":"Kapuzinerstraße 39, 80469 München, Germany"}
{"timestamp":"2016-10-14T21:25:00+0200","id":124018,"name":"Toni","coordinate":{"longitude":11.56989956,"latitude":48.12900162},"fuelLevel":0.66,"lastAddress":"Jahnstraße 24, 80469 München, Germany"}
{"timestamp":"2016-10-14T21:25:00+0200","id":124012,"name":"Peter","coordinate":{"longitude":11.56140041,"latitude":48.15459824},"fuelLevel":0.9600000000000001,"lastAddress":"Schleißheimer Str. 86, 80797 München, Germany"}
{"timestamp":"2016-10-14T21:25:00+0200","id":124004,"name":"Fridl","coordinate":{"longitude":11.55860043,"latitude":48.15399933},"fuelLevel":0.66,"lastAddress":"Heßstraße 79, 80797 München, Germany"}
{"timestamp":"2016-10-14T21:25:00+0200","id":124031,"name":"Heidi","coordinate":{"longitude":11.56649971,"latitude":48.15159988},"fuelLevel":0.63,"lastAddress":"Heßstraße 23, 80798 München, Germany"}
{"timestamp":"2016-10-14T21:25:00+0200","id":124047,"name":"Walli","coordinate":{"longitude":11.5703001,"latitude":48.1493988},"fuelLevel":0.71,"lastAddress":"Theresienstraße, 80333 München, Germany"}
{"timestamp":"2016-10-14T21:25:00+0200","id":124048,"name":"Wiggerl","coordinate":{"longitude":11.58059978,"latitude":48.16279984},"fuelLevel":0.67,"lastAddress":"Herzogstraße 40, 80803 München, Germany"}
{"timestamp":"2016-10-14T21:25:00+0200","id":124028,"name":"Gitte","coordinate":{"longitude":11.57569981,"latitude":48.16009903},"fuelLevel":0.7200000000000001,"lastAddress":"Hohenzollernstraße 49, 80801 München, Germany"}
{"timestamp":"2016-10-14T21:25:00+0200","id":124027,"name":"Fanni","coordinate":{"longitude":11.58440018,"latitude":48.16080093},"fuelLevel":0.7899999999999999,"lastAddress":"Kaiserstraße 14-16, 80801 München, Germany"}
{"timestamp":"2016-10-14T21:25:00+0200","id":124005,"name":"Georg","coordinate":{"longitude":11.57549953,"latitude":48.16210175},"fuelLevel":0.56,"lastAddress":"Viktor-Scheffel-Straße 20, 80803 München, Germany"}
{"timestamp":"2016-10-14T21:25:00+0200","id":124032,"name":"Irmi","coordinate":{"longitude":11.57339954,"latitude":48.16019821},"fuelLevel":0.64,"lastAddress":"Isabellastraße 46, 80796 München, Germany"}
{"timestamp":"2016-10-14T21:25:00+0200","id":124037,"name":"Luise","coordinate":{"longitude":11.56970024,"latitude":48.15790176},"fuelLevel":0.52,"lastAddress":"Agnesstraße 18, 80798 München, Germany"}
{"timestamp":"2016-10-14T21:25:00+0200","id":124017,"name":"Siggi","coordinate":{"longitude":11.57250023,"latitude":48.16059875},"fuelLevel":0.56,"lastAddress":"Hohenzollernstraße 102, 80796 München, Germany"}
{"timestamp":"2016-10-14T21:25:00+0200","id":124029,"name":"Hannah","coordinate":{"longitude":11.51029968,"latitude":48.04539871},"fuelLevel":0.7,"lastAddress":"Gistlstraße 159, 82049 Pullach im Isartal, Germany"}
{"timestamp":"2016-10-14T21:25:00+0200","id":124008,"name":"Johann","coordinate":{"longitude":11.55840015,"latitude":48.12820053},"fuelLevel":0.87,"lastAddress":"Häberlstraße 10-12, 80337 München, Germany"}
{"timestamp":"2016-10-14T21:25:00+0200","id":124039,"name":"Marie","coordinate":{"longitude":11.50469971,"latitude":48.03710175},"fuelLevel":0.9099999999999999,"lastAddress":"Zugspitzstraße 15, 82049 Pullach im Isartal, Germany"}
{"timestamp":"2016-10-14T21:25:00+0200","id":124009,"name":"Ludwig","coordinate":{"longitude":11.58370018,"latitude":48.16220093},"fuelLevel":0.69,"lastAddress":"Wilhelmstraße 28, 80801 München, Germany"}