{"timestamp":"2016-10-13T10:50:00+0200","id":124041,"name":"Sophie","coordinate":{"longitude":11.57800007,"latitude":48.15000153},"fuelLevel":0.86,"lastAddress":"Amalienstraße 59, 80799 München, Germany"}
{"timestamp":"2016-10-13T10:50:00+0200","id":124026,"name":"Eva","coordinate":{"longitude":11.57789993,"latitude":48.1534996},"fuelLevel":0.61,"lastAddress":"Türkenstraße 95, 80799 München, Germany"}
{"timestamp":"2016-10-13T10:50:00+0200","id":124025,"name":"Elli","coordinate":{"longitude":11.57699966,"latitude":48.15810013},"fuelLevel":0.87,"lastAddress":"Römerstraße 1, 80801 München, Germany"}
{"timestamp":"2016-10-13T10:50:00+0200","id":124033,"name":"Johanna","coordinate":{"longitude":11.57750034,"latitude":48.15060043},"fuelLevel":0.73,"lastAddress":"Schellingstraße 26, 80799 München, Germany"}
{"timestamp":"2016-10-13T10:50:00+0200","id":124044,"name":"Uschi","coordinate":{"longitude":11.57260036,"latitude":48.13209915},"fuelLevel":0.9199999999999999,"lastAddress":"Müllerstraße 18, 80469 München, Germany"}
{"timestamp":"2016-10-13T10:50:00+0200","id":124040,"name":"Reserl","coordinate":{"longitude":11.57190037,"latitude":48.13169861},"fuelLevel":0.83,"lastAddress":"Müllerstraße 24, 80469 München, Germany"}
{"timestamp":"2016-10-13T10:50:00+0200","id":124021,"name":"Xaver","coordinate":{"longitude":11.5802002,"latitude":48.12979889},"fuelLevel":0.9199999999999999,"lastAddress":"Erhardtstraße 27, 80469 München, Germany"}
{"timestamp":"2016-10-13T10:50:00+0200","id":124014,"name":"Quirin","coordinate":{"longitude":11.59829998,"latitude":48.13460159},"fuelLevel":0.57,"lastAddress":"Johannispl. 23, 81667 München, Germany"}
{"timestamp":"2016-10-13T10:50:00+0200","id":124034,"name":"Kathi","coordinate":{"longitude":11.60200024,"latitude":48.13000107},"fuelLevel":0.82,"lastAddress":"Breisacher Str. 1, 81667 München, Germany"}
{"timestamp":"2016-10-13T10:50:00+0200","id":124023,"name":"Babsi","coordinate":{"longitude":11.5625,"latitude":48.12609863},"fuelLevel":0.9,"lastAddress":"Thalkirchner Str. 78, 80337 München, Germany"}
{"timestamp":"2016-10-13T10:50:00+0200","id":124016,"name":"Sepp","coordinate":{"longitude":11.60239983,"latitude":48.12889862},"fuelLevel":0.9099999999999999,"lastAddress":"Wörthstraße 42, 81667 München, Germany"}
{"timestamp":"2016-10-13T10:50:00+0200","id":124038,"name":"Magda","coordinate":{"longitude":11.60039997,"latitude":48.12820053},"fuelLevel":0.67,"lastAddress":"Gravelottestraße 1, 81667 München, Germany"}
{"timestamp":"2016-10-13T10:50:00+0200","id":124022,"name":"Anne","coordinate":{"longitude":11.5965004,"latitude":48.12720108},"fuelLevel":0.8300000000000001,"lastAddress":"Rosenheimer Str. 87, 81667 München, Germany"}
{"timestamp":"2016-10-13T10:50:00+0200","id":124011,"name":"Maxl","coordinate":{"longitude":11.5951004,"latitude":48.12739944},"fuelLevel":0.6699999999999999,"lastAddress":"Balanstraße 11, 81669 München, Germany"}
{"timestamp":"2016-10-13T10:50:00+0200","id":124003,"name":"Franzl","coordinate":{"longitude":11.59309959,"latitude":48.12739944},"fuelLevel":0.8,"lastAddress":"Franziskanerstraße 8, 81669 München, Germany"}
{"timestamp":"2016-10-13T10:50:00+0200","id":124010,"name":"Luitpold","coordinate":{"longitude":11.58460045,"latitude":48.12749863},"fuelLevel":0.9400000000000001,"lastAddress":"Lilienstraße 75, 81669 München, Germany"}
{"timestamp":"2016-10-13T10:50:00+0200","id":124006,"name":"Gustl","coordinate":{"longitude":11.57400036,"latitude":48.12070084},"fuelLevel":0.9500000000000001,"lastAddress":"Humboldtstraße 17, 81543 München, Germany"}
{"timestamp":"2016-10-13T10:50:00+0200","id":124049,"name":"Marei","coordinate":{"longitude":11.57369995,"latitude":48.12229919},"fuelLevel":0.9400000000000001,"lastAddress":"Eduard-Schmid-Straße 34, 81541 München, Germany"}
{"timestamp":"2016-10-13T10:50:00+0200","id":124045,"name":"Vroni","coordinate":{"longitude":11.56540012,"latitude":48.12360001},"fuelLevel":0.64,"lastAddress":"Geyerstraße 19, 80469 München, Germany"}
{"timestamp":"2016-10-13T10:50:00+0200","id":124018,"name":"Toni","coordinate":{"longitude":11.56970024,"latitude":48.12969971},"fuelLevel":0.66,"lastAddress":"Hans-Sachs-Straße 14, 80469 München, Germany"}
{"timestamp":"2016-10-13T10:50:00+0200","id":124031,"name":"Heidi","coordinate":{"longitude":11.56659985,"latitude":48.15200043},"fuelLevel":0.6499999999999999,"lastAddress":"Heßstraße 44, 80798 München, Germany"}
{"timestamp":"2016-10-13T10:50:00+0200","id":124047,"name":"Walli","coordinate":{"longitude":11.57019997,"latitude":48.14960098},"fuelLevel":0.71,"lastAddress":"Theresienstraße, 80333 München, Germany"}
{"timestamp":"2016-10-13T10:50:00+0200","id":124002,"name":"Ferdl","coordinate":{"longitude":11.56270027,"latitude":48.15499878},"fuelLevel":0.9444444444444444,"lastAddress":"Zentnerstraße 7, 80798 München, Germany"}
{"timestamp":"2016-10-13T10:50:00+0200","id":124048,"name":"Wiggerl","coordinate":{"longitude":11.58090019,"latitude":48.16249847},"fuelLevel":0.66,"lastAddress":"Herzogstraße 29, 80803 München, Germany"}
{"timestamp":"2016-10-13T10:50:00+0200","id":124028,"name":"Gitte","coordinate":{"longitude":11.57719994,"latitude":48.16009903},"fuelLevel":0.76,"lastAddress":"Hohenzollernstraße 41, 80801 München, Germany"}
{"timestamp":"2016-10-13T10:50:00+0200","id":124027,"name":"Fanni","coordinate":{"longitude":11.58460045,"latitude":48.16080093},"fuelLevel":0.7899999999999999,"lastAddress":"Kaiserstraße 12, 80801 München, Germany"}
{"timestamp":"2016-10-13T10:50:00+0200","id":124005,"name":"Georg","coordinate":{"longitude":11.57499981,"latitude":48.16090012},"fuelLevel":0.56,"lastAddress":"Belgradstraße 5A, 80796 München, Germany"}
{"timestamp":"2016-10-13T10:50:00+0200","id":124032,"name":"Irmi","coordinate":{"longitude":11.57320023,"latitude":48.16019821},"fuelLevel":0.64,"lastAddress":"Isabellastraße 44, 80796 München, Germany"}
{"timestamp":"2016-10-13T10:50:00+0200","id":124037,"name":"Luise","coordinate":{"longitude":11.57040024,"latitude":48.1576004},"fuelLevel":0.52,"lastAddress":"Agnesstraße 14, 80798 München, Germany"}
{"timestamp":"2016-10-13T10:50:00+0200","id":124017,"name":"Siggi","coordinate":{"longitude":11.57269955,"latitude":48.16090012},"fuelLevel":0.56,"lastAddress":"Marina Trofimova, 80796 München, Germany"}
{"timestamp":"2016-10-13T10:50:00+0200","id":124029,"name":"Hannah","coordinate":{"longitude":11.51019955,"latitude":48.04520035},"fuelLevel":0.7,"lastAddress":"Gistlstraße 159, 82049 Pullach im Isartal, Germany"}
{"timestamp":"2016-10-13T10:50:00+0200","id":124008,"name":"Johann","coordinate":{"longitude":11.50990009,"latitude":48.04550171},"fuelLevel":0.87,"lastAddress":"Gistlstraße 159, 82049 Pullach im Isartal, Germany"}
{"timestamp":"2016-10-13T10:50:00+0200","id":124009,"name":"Ludwig","coordinate":{"longitude":11.58399963,"latitude":48.16210175},"fuelLevel":0.71,"lastAddress":"Herzogstraße 11, 80803 München, Germany"}
{"timestamp":"2016-10-13T10:50:00+0200","id":124007,"name":"Jakob","coordinate":{"longitude":11.57730007,"latitude":48.16669846},"fuelLevel":0.9400000000000001,"lastAddress":"Ansprengerstraße 22, 80803 München, Germany"}