{"timestamp":"2016-11-11T06:05:00+0100","id":124026,"name":"Eva","coordinate":{"longitude":11.57978821,"latitude":48.1526947},"fuelLevel":0.89,"lastAddress":"Akademiestraße 11, 80799 München, Germany"}
{"timestamp":"2016-11-11T06:05:00+0100","id":124025,"name":"Elli","coordinate":{"longitude":11.57791138,"latitude":48.14982605},"fuelLevel":0.5599999999999999,"lastAddress":"Amalienstraße 57, 80799 München, Germany"}
{"timestamp":"2016-11-11T06:05:00+0100","id":124040,"name":"Reserl","coordinate":{"longitude":11.5776062,"latitude":48.12979126},"fuelLevel":0.75,"lastAddress":"Baaderstraße 35-39, 80469 München, Germany"}
{"timestamp":"2016-11-11T06:05:00+0100","id":124021,"name":"Xaver","coordinate":{"longitude":11.57247925,"latitude":48.13279724},"fuelLevel":0.75,"lastAddress":"Theklastraße 1, 80469 München, Germany"}
{"timestamp":"2016-11-11T06:05:00+0100","id":124014,"name":"Quirin","coordinate":{"longitude":11.5990448,"latitude":48.13653564},"fuelLevel":0.9583333333333334,"lastAddress":"Ismaninger Str. 10, 81675 München, Germany"}
{"timestamp":"2016-11-11T06:05:00+0100","id":124034,"name":"Kathi","coordinate":{"longitude":11.60531616,"latitude":48.12969971},"fuelLevel":0.9099999999999999,"lastAddress":"Elsässer Str. 31, 81667 München, Germany"}
{"timestamp":"2016-11-11T06:05:00+0100","id":124030,"name":"Hedwig","coordinate":{"longitude":11.56268311,"latitude":48.12660217},"fuelLevel":0.66,"lastAddress":"Thalkirchner Str. 68, 80337 München, Germany"}
{"timestamp":"2016-11-11T06:05:00+0100","id":124023,"name":"Babsi","coordinate":{"longitude":11.56739807,"latitude":48.13108826},"fuelLevel":0.72,"lastAddress":"Pestalozzistraße 9-11, 80469 München, Germany"}
{"timestamp":"2016-11-11T06:05:00+0100","id":124016,"name":"Sepp","coordinate":{"longitude":11.59918213,"latitude":48.13040161},"fuelLevel":0.59,"lastAddress":"Metzstraße 32, 81667 München, Germany"}
{"timestamp":"2016-11-11T06:05:00+0100","id":124000,"name":"Bertl","coordinate":{"longitude":11.59700012,"latitude":48.12799072},"fuelLevel":0.58,"lastAddress":"Lothringer Str. 4-6, 81667 München, Germany"}
{"timestamp":"2016-11-11T06:05:00+0100","id":124003,"name":"Franzl","coordinate":{"longitude":11.58988953,"latitude":48.12518311},"fuelLevel":0.79,"lastAddress":"Franziskanerstraße 43, 81669 München, Germany"}
{"timestamp":"2016-11-11T06:05:00+0100","id":124010,"name":"Luitpold","coordinate":{"longitude":11.58399963,"latitude":48.12649536},"fuelLevel":0.63,"lastAddress":"Sammtstraße 9, 81669 München, Germany"}
{"timestamp":"2016-11-11T06:05:00+0100","id":124019,"name":"Valentin","coordinate":{"longitude":11.58189392,"latitude":48.12101746},"fuelLevel":0.6499999999999999,"lastAddress":"Hochstraße 81, 81541 München, Germany"}
{"timestamp":"2016-11-11T06:05:00+0100","id":124035,"name":"Leonie","coordinate":{"longitude":11.58129883,"latitude":48.12750244},"fuelLevel":0.64,"lastAddress":"Schweigerstraße 4, 81541 München, Germany"}
{"timestamp":"2016-11-11T06:05:00+0100","id":124006,"name":"Gustl","coordinate":{"longitude":11.57800007,"latitude":48.12279892},"fuelLevel":0.5900000000000001,"lastAddress":"Entenbachstraße 26, 81541 München, Germany"}
{"timestamp":"2016-11-11T06:05:00+0100","id":124045,"name":"Vroni","coordinate":{"longitude":11.56770039,"latitude":48.1269989},"fuelLevel":0.8500000000000001,"lastAddress":"Holzstraße 49-51, 80469 München, Germany"}
{"timestamp":"2016-11-11T06:05:00+0100","id":124018,"name":"Toni","coordinate":{"longitude":11.56918335,"latitude":48.12399292},"fuelLevel":0.58,"lastAddress":"Wittelsbacherstraße 10-11, 80469 München, Germany"}
{"timestamp":"2016-11-11T06:05:00+0100","id":124012,"name":"Peter","coordinate":{"longitude":11.56120014,"latitude":48.15430069},"fuelLevel":0.73,"lastAddress":"Schleißheimer Str. 84, 80797 München, Germany"}
{"timestamp":"2016-11-11T06:05:00+0100","id":124004,"name":"Fridl","coordinate":{"longitude":11.56190491,"latitude":48.15679932},"fuelLevel":0.9199999999999999,"lastAddress":"Schleißheimer Str. 75, 80797 München, Germany"}
{"timestamp":"2016-11-11T06:05:00+0100","id":124031,"name":"Heidi","coordinate":{"longitude":11.56390381,"latitude":48.15058899},"fuelLevel":0.55,"lastAddress":"Augustenstraße 77-79, 80333 München, Germany"}
{"timestamp":"2016-11-11T06:05:00+0100","id":124047,"name":"Walli","coordinate":{"longitude":11.5664978,"latitude":48.14930725},"fuelLevel":0.8,"lastAddress":"Luisenstraße 47A, 80333 München, Germany"}
{"timestamp":"2016-11-11T06:05:00+0100","id":124002,"name":"Ferdl","coordinate":{"longitude":11.56350708,"latitude":48.14971924},"fuelLevel":0.76,"lastAddress":"Augustenstraße 72, 80333 München, Germany"}
{"timestamp":"2016-11-11T06:05:00+0100","id":124048,"name":"Wiggerl","coordinate":{"longitude":11.57781982,"latitude":48.15789795},"fuelLevel":0.88,"lastAddress":"Franz-Joseph-Straße 36A, 80801 München, Germany"}
{"timestamp":"2016-11-11T06:05:00+0100","id":124028,"name":"Gitte","coordinate":{"longitude":11.5781002,"latitude":48.15790176},"fuelLevel":0.58,"lastAddress":"Franz-Joseph-Straße 34, 80801 München, Germany"}
{"timestamp":"2016-11-11T06:05:00+0100","id":124001,"name":"Edmund","coordinate":{"longitude":11.57670593,"latitude":48.1612854},"fuelLevel":0.63,"lastAddress":"Kaiserstraße 59-61, 80801 München, Germany"}
{"timestamp":"2016-11-11T06:05:00+0100","id":124032,"name":"Irmi","coordinate":{"longitude":11.57481384,"latitude":48.15951538},"fuelLevel":0.58,"lastAddress":"Nordendstraße 64, 80801 München, Germany"}
{"timestamp":"2016-11-11T06:05:00+0100","id":124017,"name":"Siggi","coordinate":{"longitude":11.56900024,"latitude":48.15940094},"fuelLevel":0.9099999999999999,"lastAddress":"Tengstraße 31, 80796 München, Germany"}
{"timestamp":"2016-11-11T06:05:00+0100","id":124029,"name":"Hannah","coordinate":{"longitude":11.50949097,"latitude":48.04548645},"fuelLevel":0.89,"lastAddress":"Seitnerstraße 70, 82049 Pullach im Isartal, Germany"}
{"timestamp":"2016-11-11T06:05:00+0100","id":124008,"name":"Johann","coordinate":{"longitude":11.50979614,"latitude":48.04518127},"fuelLevel":0.87,"lastAddress":"Seitnerstraße 70, 82049 Pullach im Isartal, Germany"}
{"timestamp":"2016-11-11T06:05:00+0100","id":124039,"name":"Marie","coordinate":{"longitude":11.50950623,"latitude":48.04547119},"fuelLevel":0.86,"lastAddress":"Seitnerstraße 70, 82049 Pullach im Isartal, Germany"}
{"timestamp":"2016-11-11T06:05:00+0100","id":124009,"name":"Ludwig","coordinate":{"longitude":11.58270264,"latitude":48.16529846},"fuelLevel":0.66,"lastAddress":"Muffatstraße 3, 80803 München, Germany"}
{"timestamp":"2016-11-11T06:05:00+0100","id":124007,"name":"Jakob","coordinate":{"longitude":11.57409668,"latitude":48.16430664},"fuelLevel":0.84,"lastAddress":"Belgradstraße 37, 80796 München, Germany"}