{"timestamp":"2016-10-13T21:25:00+0200","id":124041,"name":"Sophie","coordinate":{"longitude":11.5781002,"latitude":48.15010071},"fuelLevel":0.86,"lastAddress":"Amalienstraße 61, 80799 München, Germany"}
{"timestamp":"2016-10-13T21:25:00+0200","id":124026,"name":"Eva","coordinate":{"longitude":11.57830048,"latitude":48.15340042},"fuelLevel":0.61,"lastAddress":"Türkenstraße 93, 80799 München, Germany"}
{"timestamp":"2016-10-13T21:25:00+0200","id":124025,"name":"Elli","coordinate":{"longitude":11.57670021,"latitude":48.15739822},"fuelLevel":0.87,"lastAddress":"Franz-Joseph-Straße 41, 80801 München, Germany"}
{"timestamp":"2016-10-13T21:25:00+0200","id":124033,"name":"Johanna","coordinate":{"longitude":11.57670021,"latitude":48.15010071},"fuelLevel":0.73,"lastAddress":"Schellingstraße 26-28, 80799 München, Germany"}
{"timestamp":"2016-10-13T21:25:00+0200","id":124036,"name":"Liesel","coordinate":{"longitude":11.57839966,"latitude":48.14910126},"fuelLevel":0.9400000000000001,"lastAddress":"Amalienstraße 46, 80799 München, Germany"}
{"timestamp":"2016-10-13T21:25:00+0200","id":124044,"name":"Uschi","coordinate":{"longitude":11.57250023,"latitude":48.13190079},"fuelLevel":0.9199999999999999,"lastAddress":"Müllerstraße 20, 80469 München, Germany"}
{"timestamp":"2016-10-13T21:25:00+0200","id":124024,"name":"Christl","coordinate":{"longitude":11.57530022,"latitude":48.12860107},"fuelLevel":0.9299999999999999,"lastAddress":"Fraunhoferstraße 39, 80469 München, Germany"}
{"timestamp":"2016-10-13T21:25:00+0200","id":124040,"name":"Reserl","coordinate":{"longitude":11.57180023,"latitude":48.13180161},"fuelLevel":0.83,"lastAddress":"Müllerstraße 24, 80469 München, Germany"}
{"timestamp":"2016-10-13T21:25:00+0200","id":124021,"name":"Xaver","coordinate":{"longitude":11.58030033,"latitude":48.13010025},"fuelLevel":0.9199999999999999,"lastAddress":"Erhardtstraße 27, 80469 München, Germany"}
{"timestamp":"2016-10-13T21:25:00+0200","id":124014,"name":"Quirin","coordinate":{"longitude":11.59759998,"latitude":48.13460159},"fuelLevel":0.57,"lastAddress":"Innere Wiener Straße 58, 81667 München, Germany"}
{"timestamp":"2016-10-13T21:25:00+0200","id":124034,"name":"Kathi","coordinate":{"longitude":11.60519981,"latitude":48.13370132},"fuelLevel":0.73,"lastAddress":"Flurstraße 2-4, 81675 München, Germany"}
{"timestamp":"2016-10-13T21:25:00+0200","id":124038,"name":"Magda","coordinate":{"longitude":11.60029984,"latitude":48.12829971},"fuelLevel":0.67,"lastAddress":"Pariser Pl., 81667 München, Germany"}
{"timestamp":"2016-10-13T21:25:00+0200","id":124022,"name":"Anne","coordinate":{"longitude":11.60029984,"latitude":48.12580109},"fuelLevel":0.7999999999999999,"lastAddress":"Orleansstraße 34, 81667 München, Germany"}
{"timestamp":"2016-10-13T21:25:00+0200","id":124000,"name":"Bertl","coordinate":{"longitude":11.59819984,"latitude":48.12670135},"fuelLevel":0.8,"lastAddress":"Pariser Str. 22, 81667 München, Germany"}
{"timestamp":"2016-10-13T21:25:00+0200","id":124013,"name":"Poldi","coordinate":{"longitude":11.5941,"latitude":48.12659836},"fuelLevel":0.6000000000000001,"lastAddress":"Rablstraße 44, 81669 München, Germany"}
{"timestamp":"2016-10-13T21:25:00+0200","id":124011,"name":"Maxl","coordinate":{"longitude":11.59500027,"latitude":48.12770081},"fuelLevel":0.6699999999999999,"lastAddress":"Rosenheimer Str. 66, 81669 München, Germany"}
{"timestamp":"2016-10-13T21:25:00+0200","id":124003,"name":"Franzl","coordinate":{"longitude":11.59290028,"latitude":48.12730026},"fuelLevel":0.8,"lastAddress":"Rablstraße 37, 81669 München, Germany"}
{"timestamp":"2016-10-13T21:25:00+0200","id":124010,"name":"Luitpold","coordinate":{"longitude":11.58450031,"latitude":48.12770081},"fuelLevel":0.9400000000000001,"lastAddress":"Lilienstraße 66, 81669 München, Germany"}
{"timestamp":"2016-10-13T21:25:00+0200","id":124006,"name":"Gustl","coordinate":{"longitude":11.57460022,"latitude":48.12030029},"fuelLevel":0.9500000000000001,"lastAddress":"Oefelestraße 8, 81543 München, Germany"}
{"timestamp":"2016-10-13T21:25:00+0200","id":124020,"name":"Vinzenz","coordinate":{"longitude":11.5781002,"latitude":48.1228981},"fuelLevel":0.81,"lastAddress":"Entenbachstraße 26, 81541 München, Germany"}
{"timestamp":"2016-10-13T21:25:00+0200","id":124049,"name":"Marei","coordinate":{"longitude":11.57419968,"latitude":48.12239838},"fuelLevel":0.9400000000000001,"lastAddress":"Sommerstraße 8, 81543 München, Germany"}
{"timestamp":"2016-10-13T21:25:00+0200","id":124045,"name":"Vroni","coordinate":{"longitude":11.5649004,"latitude":48.12419891},"fuelLevel":0.64,"lastAddress":"Kapuzinerstraße 37, 80469 München, Germany"}
{"timestamp":"2016-10-13T21:25:00+0200","id":124018,"name":"Toni","coordinate":{"longitude":11.56960011,"latitude":48.12979889},"fuelLevel":0.66,"lastAddress":"Hans-Sachs-Straße 12, 80469 München, Germany"}
{"timestamp":"2016-10-13T21:25:00+0200","id":124012,"name":"Peter","coordinate":{"longitude":11.56159973,"latitude":48.15420151},"fuelLevel":0.9500000000000001,"lastAddress":"Schellingstraße 141, 80798 München, Germany"}
{"timestamp":"2016-10-13T21:25:00+0200","id":124031,"name":"Heidi","coordinate":{"longitude":11.56659985,"latitude":48.15169907},"fuelLevel":0.6499999999999999,"lastAddress":"Heßstraße 23, 80798 München, Germany"}
{"timestamp":"2016-10-13T21:25:00+0200","id":124047,"name":"Walli","coordinate":{"longitude":11.57079983,"latitude":48.14929962},"fuelLevel":0.71,"lastAddress":"Theresienstraße, 80333 München, Germany"}
{"timestamp":"2016-10-13T21:25:00+0200","id":124002,"name":"Ferdl","coordinate":{"longitude":11.56400013,"latitude":48.15439987},"fuelLevel":0.9444444444444444,"lastAddress":"Schwindstraße 19, 80798 München, Germany"}
{"timestamp":"2016-10-13T21:25:00+0200","id":124048,"name":"Wiggerl","coordinate":{"longitude":11.58080006,"latitude":48.16289902},"fuelLevel":0.66,"lastAddress":"Herzogstraße 36, 80803 München, Germany"}
{"timestamp":"2016-10-13T21:25:00+0200","id":124028,"name":"Gitte","coordinate":{"longitude":11.57559967,"latitude":48.16040039},"fuelLevel":0.7200000000000001,"lastAddress":"Hohenzollernstraße 78, 80801 München, Germany"}
{"timestamp":"2016-10-13T21:25:00+0200","id":124027,"name":"Fanni","coordinate":{"longitude":11.58430004,"latitude":48.16040039},"fuelLevel":0.7899999999999999,"lastAddress":"Kaiserstraße 9, 80801 München, Germany"}
{"timestamp":"2016-10-13T21:25:00+0200","id":124005,"name":"Georg","coordinate":{"longitude":11.57559967,"latitude":48.16159821},"fuelLevel":0.56,"lastAddress":"Viktor-Scheffel-Straße 19, 80803 München, Germany"}
{"timestamp":"2016-10-13T21:25:00+0200","id":124032,"name":"Irmi","coordinate":{"longitude":11.57289982,"latitude":48.16049957},"fuelLevel":0.64,"lastAddress":"Hohenzollernstraße 65, 80796 München, Germany"}
{"timestamp":"2016-10-13T21:25:00+0200","id":124037,"name":"Luise","coordinate":{"longitude":11.57009983,"latitude":48.15750122},"fuelLevel":0.52,"lastAddress":"Agnesstraße 16, 80798 München, Germany"}
{"timestamp":"2016-10-13T21:25:00+0200","id":124017,"name":"Siggi","coordinate":{"longitude":11.57250023,"latitude":48.16070175},"fuelLevel":0.56,"lastAddress":"Hohenzollernstraße 102, 80796 München, Germany"}
{"timestamp":"2016-10-13T21:25:00+0200","id":124029,"name":"Hannah","coordinate":{"longitude":11.51039982,"latitude":48.04539871},"fuelLevel":0.7,"lastAddress":"Gistlstraße 159, 82049 Pullach im Isartal, Germany"}
{"timestamp":"2016-10-13T21:25:00+0200","id":124008,"name":"Johann","coordinate":{"longitude":11.50990009,"latitude":48.04550171},"fuelLevel":0.87,"lastAddress":"Gistlstraße 159, 82049 Pullach im Isartal, Germany"}
{"timestamp":"2016-10-13T21:25:00+0200","id":124039,"name":"Marie","coordinate":{"longitude":11.50949955,"latitude":48.04539871},"fuelLevel":0.9099999999999999,"lastAddress":"Seitnerstraße 70, 82049 Pullach im Isartal, Germany"}
{"timestamp":"2016-10-13T21:25:00+0200","id":124009,"name":"Ludwig","coordinate":{"longitude":11.58409977,"latitude":48.16239929},"fuelLevel":0.71,"lastAddress":"Herzogstraße 12, 80803 München, Germany"}
{"timestamp":"2016-10-13T21:25:00+0200","id":124007,"name":"Jakob","coordinate":{"longitude":11.57689953,"latitude":48.16719818},"fuelLevel":0.9400000000000001,"lastAddress":"Karl-Theodor-Straße 68, 80803 München, Germany"}