{"timestamp":"2016-10-01T02:50:00+0200","id":124041,"name":"Sophie","coordinate":{"longitude":11.57730007,"latitude":48.14889908},"fuelLevel":0.93,"lastAddress":"Amalienstraße 45, 80799 München, Germany"}
{"timestamp":"2016-10-01T02:50:00+0200","id":124026,"name":"Eva","coordinate":{"longitude":11.57839966,"latitude":48.15359879},"fuelLevel":0.61,"lastAddress":"Türkenstraße 95, 80799 München, Germany"}
{"timestamp":"2016-10-01T02:50:00+0200","id":124025,"name":"Elli","coordinate":{"longitude":11.57649994,"latitude":48.15520096},"fuelLevel":0.77,"lastAddress":"Georgenstraße 46, 80799 München, Germany"}
{"timestamp":"2016-10-01T02:50:00+0200","id":124033,"name":"Johanna","coordinate":{"longitude":11.58119965,"latitude":48.15250015},"fuelLevel":0.88,"lastAddress":"Akademiestraße 5, 80799 München, Germany"}
{"timestamp":"2016-10-01T02:50:00+0200","id":124036,"name":"Liesel","coordinate":{"longitude":11.57509995,"latitude":48.15629959},"fuelLevel":0.6699999999999999,"lastAddress":"Nordendstraße 29, 80801 München, Germany"}
{"timestamp":"2016-10-01T02:50:00+0200","id":124024,"name":"Christl","coordinate":{"longitude":11.5788002,"latitude":48.13359833},"fuelLevel":0.8,"lastAddress":"Rumfordstraße 30, 80469 München, Germany"}
{"timestamp":"2016-10-01T02:50:00+0200","id":124040,"name":"Reserl","coordinate":{"longitude":11.57909966,"latitude":48.13100052},"fuelLevel":0.79,"lastAddress":"Baaderstraße 23, 80469 München, Germany"}
{"timestamp":"2016-10-01T02:50:00+0200","id":124021,"name":"Xaver","coordinate":{"longitude":11.58059978,"latitude":48.13190079},"fuelLevel":0.52,"lastAddress":"Kohlstraße 3, 80469 München, Germany"}
{"timestamp":"2016-10-01T02:50:00+0200","id":124014,"name":"Quirin","coordinate":{"longitude":11.6072998,"latitude":48.13090134},"fuelLevel":0.9099999999999999,"lastAddress":"Spicherenstraße 14, 81667 München, Germany"}
{"timestamp":"2016-10-01T02:50:00+0200","id":124034,"name":"Kathi","coordinate":{"longitude":11.60490036,"latitude":48.13230133},"fuelLevel":0.67,"lastAddress":"Elsässer Str. 6, 81667 München, Germany"}
{"timestamp":"2016-10-01T02:50:00+0200","id":124030,"name":"Hedwig","coordinate":{"longitude":11.56760025,"latitude":48.13150024},"fuelLevel":0.89,"lastAddress":"Pestalozzistraße 5, 80469 München, Germany"}
{"timestamp":"2016-10-01T02:50:00+0200","id":124023,"name":"Babsi","coordinate":{"longitude":11.56369972,"latitude":48.12730026},"fuelLevel":0.93,"lastAddress":"Thalkirchner Str. 54, 80337 München, Germany"}
{"timestamp":"2016-10-01T02:50:00+0200","id":124016,"name":"Sepp","coordinate":{"longitude":11.59829998,"latitude":48.12590027},"fuelLevel":0.9199999999999999,"lastAddress":"Bazeillesstraße 8, 81669 München, Germany"}
{"timestamp":"2016-10-01T02:50:00+0200","id":124038,"name":"Magda","coordinate":{"longitude":11.60000038,"latitude":48.12799835},"fuelLevel":0.76,"lastAddress":"Pariser Str. 38, 81667 München, Germany"}
{"timestamp":"2016-10-01T02:50:00+0200","id":124022,"name":"Anne","coordinate":{"longitude":11.59689999,"latitude":48.12670135},"fuelLevel":0.8900000000000001,"lastAddress":"Rosenheimer Str. 90, 81669 München, Germany"}
{"timestamp":"2016-10-01T02:50:00+0200","id":124000,"name":"Bertl","coordinate":{"longitude":11.59459972,"latitude":48.12939835},"fuelLevel":0.84,"lastAddress":"Steinstraße 70, 81667 München, Germany"}
{"timestamp":"2016-10-01T02:50:00+0200","id":124013,"name":"Poldi","coordinate":{"longitude":11.59430027,"latitude":48.12770081},"fuelLevel":0.79,"lastAddress":"Balanstraße 6A, 81669 München, Germany"}
{"timestamp":"2016-10-01T02:50:00+0200","id":124011,"name":"Maxl","coordinate":{"longitude":11.5927,"latitude":48.12559891},"fuelLevel":0.8099999999999999,"lastAddress":"Sieboldstraße 2, 81669 München, Germany"}
{"timestamp":"2016-10-01T02:50:00+0200","id":124003,"name":"Franzl","coordinate":{"longitude":11.59300041,"latitude":48.1271019},"fuelLevel":0.79,"lastAddress":"Franziskanerstraße 17, 81669 München, Germany"}
{"timestamp":"2016-10-01T02:50:00+0200","id":124010,"name":"Luitpold","coordinate":{"longitude":11.58580017,"latitude":48.12590027},"fuelLevel":0.88,"lastAddress":"Gebsattelstraße 2, 81541 München, Germany"}
{"timestamp":"2016-10-01T02:50:00+0200","id":124019,"name":"Valentin","coordinate":{"longitude":11.5848999,"latitude":48.12340164},"fuelLevel":0.9199999999999999,"lastAddress":"Hochstraße 51, 81541 München, Germany"}
{"timestamp":"2016-10-01T02:50:00+0200","id":124035,"name":"Leonie","coordinate":{"longitude":11.5855999,"latitude":48.1291008},"fuelLevel":0.7899999999999999,"lastAddress":"Schwarzstraße 2, 81669 München, Germany"}
{"timestamp":"2016-10-01T02:50:00+0200","id":124006,"name":"Gustl","coordinate":{"longitude":11.57759953,"latitude":48.12120056},"fuelLevel":0.9400000000000001,"lastAddress":"Falkenstraße 44, 81541 München, Germany"}
{"timestamp":"2016-10-01T02:50:00+0200","id":124020,"name":"Vinzenz","coordinate":{"longitude":11.57909966,"latitude":48.12400055},"fuelLevel":0.9099999999999999,"lastAddress":"Entenbachstraße 12, 81541 München, Germany"}
{"timestamp":"2016-10-01T02:50:00+0200","id":124049,"name":"Marei","coordinate":{"longitude":11.57400036,"latitude":48.11999893},"fuelLevel":0.7200000000000001,"lastAddress":"Humboldtstraße 22, 81543 München, Germany"}
{"timestamp":"2016-10-01T02:50:00+0200","id":124045,"name":"Vroni","coordinate":{"longitude":11.56739998,"latitude":48.12770081},"fuelLevel":0.9199999999999999,"lastAddress":"Holzstraße 34, 80469 München, Germany"}
{"timestamp":"2016-10-01T02:50:00+0200","id":124018,"name":"Toni","coordinate":{"longitude":11.57269955,"latitude":48.12979889},"fuelLevel":0.9299999999999999,"lastAddress":"Klenzestraße 46A, 80469 München, Germany"}
{"timestamp":"2016-10-01T02:50:00+0200","id":124012,"name":"Peter","coordinate":{"longitude":11.57260036,"latitude":48.14979935},"fuelLevel":1,"lastAddress":"Barer Str. 48-50, 80799 München, Germany"}
{"timestamp":"2016-10-01T02:50:00+0200","id":124004,"name":"Fridl","coordinate":{"longitude":11.56639957,"latitude":48.15599823},"fuelLevel":0.55,"lastAddress":"Josephspl. 7, 80798 München, Germany"}
{"timestamp":"2016-10-01T02:50:00+0200","id":124031,"name":"Heidi","coordinate":{"longitude":11.56649971,"latitude":48.14989853},"fuelLevel":0.8,"lastAddress":"Luisenstraße 53, 80333 München, Germany"}
{"timestamp":"2016-10-01T02:50:00+0200","id":124002,"name":"Ferdl","coordinate":{"longitude":11.56389999,"latitude":48.15110016},"fuelLevel":0.9500000000000001,"lastAddress":"Theresienstraße 63, 80333 München, Germany"}
{"timestamp":"2016-10-01T02:50:00+0200","id":124048,"name":"Wiggerl","coordinate":{"longitude":11.5770998,"latitude":48.15940094},"fuelLevel":0.7200000000000001,"lastAddress":"Römerstraße 11, 80801 München, Germany"}
{"timestamp":"2016-10-01T02:50:00+0200","id":124028,"name":"Gitte","coordinate":{"longitude":11.57979965,"latitude":48.16009903},"fuelLevel":0.77,"lastAddress":"Hohenzollernstraße 44, 80801 München, Germany"}
{"timestamp":"2016-10-01T02:50:00+0200","id":124027,"name":"Fanni","coordinate":{"longitude":11.57699966,"latitude":48.15980148},"fuelLevel":0.8099999999999999,"lastAddress":"Römerstraße 17, 80801 München, Germany"}
{"timestamp":"2016-10-01T02:50:00+0200","id":124005,"name":"Georg","coordinate":{"longitude":11.58119965,"latitude":48.15890121},"fuelLevel":0.69,"lastAddress":"Ainmillerstraße 20, 80801 München, Germany"}
{"timestamp":"2016-10-01T02:50:00+0200","id":124001,"name":"Edmund","coordinate":{"longitude":11.5781002,"latitude":48.15800095},"fuelLevel":0.62,"lastAddress":"Franz-Joseph-Straße 34, 80801 München, Germany"}
{"timestamp":"2016-10-01T02:50:00+0200","id":124032,"name":"Irmi","coordinate":{"longitude":11.57310009,"latitude":48.16019821},"fuelLevel":0.64,"lastAddress":"Isabellastraße 49, 80796 München, Germany"}
{"timestamp":"2016-10-01T02:50:00+0200","id":124037,"name":"Luise","coordinate":{"longitude":11.56620026,"latitude":48.15810013},"fuelLevel":0.9027777777777778,"lastAddress":"Hiltenspergerstraße 25, 80798 München, Germany"}
{"timestamp":"2016-10-01T02:50:00+0200","id":124017,"name":"Siggi","coordinate":{"longitude":11.57089996,"latitude":48.16109848},"fuelLevel":0.56,"lastAddress":"Hohenzollernstraße 114, 80796 München, Germany"}
{"timestamp":"2016-10-01T02:50:00+0200","id":124029,"name":"Hannah","coordinate":{"longitude":11.51019955,"latitude":48.04539871},"fuelLevel":0.71,"lastAddress":"Gistlstraße 159, 82049 Pullach im Isartal, Germany"}
{"timestamp":"2016-10-01T02:50:00+0200","id":124042,"name":"Tilli","coordinate":{"longitude":11.50959969,"latitude":48.04539871},"fuelLevel":0.77,"lastAddress":"Seitnerstraße 70, 82049 Pullach im Isartal, Germany"}
{"timestamp":"2016-10-01T02:50:00+0200","id":124008,"name":"Johann","coordinate":{"longitude":11.50959969,"latitude":48.04550171},"fuelLevel":0.87,"lastAddress":"Seitnerstraße 70, 82049 Pullach im Isartal, Germany"}
{"timestamp":"2016-10-01T02:50:00+0200","id":124009,"name":"Ludwig","coordinate":{"longitude":11.58539963,"latitude":48.16189957},"fuelLevel":0.8999999999999999,"lastAddress":"Herzogstraße 1B, 80803 München, Germany"}
{"timestamp":"2016-10-01T02:50:00+0200","id":124007,"name":"Jakob","coordinate":{"longitude":11.58619976,"latitude":48.16389847},"fuelLevel":0.9500000000000001,"lastAddress":"Leopoldstraße 87, 80802 München, Germany"}