{"timestamp":"2016-09-28T14:15:00+0200","id":124041,"name":"Sophie","coordinate":{"longitude":11.57769966,"latitude":48.15000153},"fuelLevel":0.93,"lastAddress":"Schellingstraße 18, 80799 München, Germany"}
{"timestamp":"2016-09-28T14:15:00+0200","id":124026,"name":"Eva","coordinate":{"longitude":11.57820034,"latitude":48.15359879},"fuelLevel":0.61,"lastAddress":"Türkenstraße 95, 80799 München, Germany"}
{"timestamp":"2016-09-28T14:15:00+0200","id":124025,"name":"Elli","coordinate":{"longitude":11.57820034,"latitude":48.1534996},"fuelLevel":0.85,"lastAddress":"Türkenstraße 93, 80799 München, Germany"}
{"timestamp":"2016-09-28T14:15:00+0200","id":124033,"name":"Johanna","coordinate":{"longitude":11.57900047,"latitude":48.15670013},"fuelLevel":0.89,"lastAddress":"Hohenstaufenstraße 13, 80801 München, Germany"}
{"timestamp":"2016-09-28T14:15:00+0200","id":124036,"name":"Liesel","coordinate":{"longitude":11.57489967,"latitude":48.15599823},"fuelLevel":0.6699999999999999,"lastAddress":"Nordendstraße 29, 80801 München, Germany"}
{"timestamp":"2016-09-28T14:15:00+0200","id":124044,"name":"Uschi","coordinate":{"longitude":11.57559967,"latitude":48.13029861},"fuelLevel":0.51,"lastAddress":"Reichenbachstraße 22, 80469 München, Germany"}
{"timestamp":"2016-09-28T14:15:00+0200","id":124024,"name":"Christl","coordinate":{"longitude":11.58059978,"latitude":48.13209915},"fuelLevel":0.83,"lastAddress":"Baaderstraße 2, 80469 München, Germany"}
{"timestamp":"2016-09-28T14:15:00+0200","id":124021,"name":"Xaver","coordinate":{"longitude":11.58049965,"latitude":48.13209915},"fuelLevel":0.52,"lastAddress":"Baaderstraße 2, 80469 München, Germany"}
{"timestamp":"2016-09-28T14:15:00+0200","id":124014,"name":"Quirin","coordinate":{"longitude":11.60919952,"latitude":48.1257019},"fuelLevel":0.62,"lastAddress":"Haager Str. 14, 81671 München, Germany"}
{"timestamp":"2016-09-28T14:15:00+0200","id":124034,"name":"Kathi","coordinate":{"longitude":11.60499954,"latitude":48.13240051},"fuelLevel":0.67,"lastAddress":"Elsässer Str. 4, 81667 München, Germany"}
{"timestamp":"2016-09-28T14:15:00+0200","id":124030,"name":"Hedwig","coordinate":{"longitude":11.56289959,"latitude":48.12659836},"fuelLevel":0.9099999999999999,"lastAddress":"Thalkirchner Str. 68, 80337 München, Germany"}
{"timestamp":"2016-09-28T14:15:00+0200","id":124023,"name":"Babsi","coordinate":{"longitude":11.56359959,"latitude":48.1269989},"fuelLevel":0.93,"lastAddress":"Thalkirchner Str. 54, 80337 München, Germany"}
{"timestamp":"2016-09-28T14:15:00+0200","id":124016,"name":"Sepp","coordinate":{"longitude":11.59869957,"latitude":48.12580109},"fuelLevel":0.9199999999999999,"lastAddress":"Rosenheimer Str. 125, 81667 München, Germany"}
{"timestamp":"2016-09-28T14:15:00+0200","id":124038,"name":"Magda","coordinate":{"longitude":11.59990025,"latitude":48.12810135},"fuelLevel":0.76,"lastAddress":"Pariser Str. 38, 81667 München, Germany"}
{"timestamp":"2016-09-28T14:15:00+0200","id":124022,"name":"Anne","coordinate":{"longitude":11.59689999,"latitude":48.12659836},"fuelLevel":0.8900000000000001,"lastAddress":"Rosenheimer Str. 90, 81669 München, Germany"}
{"timestamp":"2016-09-28T14:15:00+0200","id":124000,"name":"Bertl","coordinate":{"longitude":11.59449959,"latitude":48.12939835},"fuelLevel":0.8500000000000001,"lastAddress":"Steinstraße 70, 81667 München, Germany"}
{"timestamp":"2016-09-28T14:15:00+0200","id":124013,"name":"Poldi","coordinate":{"longitude":11.5934,"latitude":48.12749863},"fuelLevel":0.83,"lastAddress":"Franziskanerstraße 13, 81669 München, Germany"}
{"timestamp":"2016-09-28T14:15:00+0200","id":124011,"name":"Maxl","coordinate":{"longitude":11.5927,"latitude":48.12599945},"fuelLevel":0.8099999999999999,"lastAddress":"Sieboldstraße 2, 81669 München, Germany"}
{"timestamp":"2016-09-28T14:15:00+0200","id":124003,"name":"Franzl","coordinate":{"longitude":11.58950043,"latitude":48.12490082},"fuelLevel":0.88,"lastAddress":"Franziskanerstraße 49, 81669 München, Germany"}
{"timestamp":"2016-09-28T14:15:00+0200","id":124010,"name":"Luitpold","coordinate":{"longitude":11.58609962,"latitude":48.12580109},"fuelLevel":0.88,"lastAddress":"Gebsattelstraße 2, 81541 München, Germany"}
{"timestamp":"2016-09-28T14:15:00+0200","id":124019,"name":"Valentin","coordinate":{"longitude":11.58510017,"latitude":48.12350082},"fuelLevel":0.9199999999999999,"lastAddress":"Hochstraße 49C, 81541 München, Germany"}
{"timestamp":"2016-09-28T14:15:00+0200","id":124035,"name":"Leonie","coordinate":{"longitude":11.58590031,"latitude":48.12929916},"fuelLevel":0.7899999999999999,"lastAddress":"Schwarzstraße 1, 81669 München, Germany"}
{"timestamp":"2016-09-28T14:15:00+0200","id":124006,"name":"Gustl","coordinate":{"longitude":11.57820034,"latitude":48.12139893},"fuelLevel":0.93,"lastAddress":"Falkenstraße 40, 81541 München, Germany"}
{"timestamp":"2016-09-28T14:15:00+0200","id":124020,"name":"Vinzenz","coordinate":{"longitude":11.57970047,"latitude":48.1228981},"fuelLevel":0.9299999999999999,"lastAddress":"Falkenstraße 16, 81541 München, Germany"}
{"timestamp":"2016-09-28T14:15:00+0200","id":124049,"name":"Marei","coordinate":{"longitude":11.57409954,"latitude":48.11999893},"fuelLevel":0.7200000000000001,"lastAddress":"Humboldtstraße 23, 81543 München, Germany"}
{"timestamp":"2016-09-28T14:15:00+0200","id":124045,"name":"Vroni","coordinate":{"longitude":11.56750011,"latitude":48.12730026},"fuelLevel":0.9199999999999999,"lastAddress":"Holzstraße 47, 80469 München, Germany"}
{"timestamp":"2016-09-28T14:15:00+0200","id":124018,"name":"Toni","coordinate":{"longitude":11.56919956,"latitude":48.12630081},"fuelLevel":0.9500000000000001,"lastAddress":"Baumstraße 18, 80469 München, Germany"}
{"timestamp":"2016-09-28T14:15:00+0200","id":124004,"name":"Fridl","coordinate":{"longitude":11.56639957,"latitude":48.1568985},"fuelLevel":0.9500000000000001,"lastAddress":"Georgenstraße 116, 80798 München, Germany"}
{"timestamp":"2016-09-28T14:15:00+0200","id":124031,"name":"Heidi","coordinate":{"longitude":11.56659985,"latitude":48.14830017},"fuelLevel":0.8500000000000001,"lastAddress":"Technische Universität München, Arcisstraße 21, 80333 München, Germany"}
{"timestamp":"2016-09-28T14:15:00+0200","id":124047,"name":"Walli","coordinate":{"longitude":11.57120037,"latitude":48.15610123},"fuelLevel":0.8999999999999999,"lastAddress":"Georgenstraße 65, 80799 München, Germany"}
{"timestamp":"2016-09-28T14:15:00+0200","id":124002,"name":"Ferdl","coordinate":{"longitude":11.5642004,"latitude":48.15090179},"fuelLevel":0.9500000000000001,"lastAddress":"Theresienstraße 61, 80333 München, Germany"}
{"timestamp":"2016-09-28T14:15:00+0200","id":124048,"name":"Wiggerl","coordinate":{"longitude":11.57719994,"latitude":48.15930176},"fuelLevel":0.7200000000000001,"lastAddress":"Römerstraße 9, 80801 München, Germany"}
{"timestamp":"2016-09-28T14:15:00+0200","id":124028,"name":"Gitte","coordinate":{"longitude":11.58059978,"latitude":48.15810013},"fuelLevel":0.81,"lastAddress":"Habsburgerpl. 2, 80801 München, Germany"}
{"timestamp":"2016-09-28T14:15:00+0200","id":124027,"name":"Fanni","coordinate":{"longitude":11.5777998,"latitude":48.15950012},"fuelLevel":0.85,"lastAddress":"Römerstraße 14, 80801 München, Germany"}
{"timestamp":"2016-09-28T14:15:00+0200","id":124005,"name":"Georg","coordinate":{"longitude":11.58119965,"latitude":48.15890121},"fuelLevel":0.69,"lastAddress":"Ainmillerstraße 20, 80801 München, Germany"}
{"timestamp":"2016-09-28T14:15:00+0200","id":124032,"name":"Irmi","coordinate":{"longitude":11.57180023,"latitude":48.16090012},"fuelLevel":0.64,"lastAddress":"Hohenzollernstraße 108, 80796 München, Germany"}
{"timestamp":"2016-09-28T14:15:00+0200","id":124037,"name":"Luise","coordinate":{"longitude":11.56550026,"latitude":48.15930176},"fuelLevel":0.9400000000000001,"lastAddress":"Zentnerstraße 38, 80798 München, Germany"}
{"timestamp":"2016-09-28T14:15:00+0200","id":124017,"name":"Siggi","coordinate":{"longitude":11.57120037,"latitude":48.16080093},"fuelLevel":0.56,"lastAddress":"Hohenzollernstraße 110, 80796 München, Germany"}
{"timestamp":"2016-09-28T14:15:00+0200","id":124029,"name":"Hannah","coordinate":{"longitude":11.51010036,"latitude":48.04539871},"fuelLevel":0.7,"lastAddress":"Gistlstraße 159, 82049 Pullach im Isartal, Germany"}
{"timestamp":"2016-09-28T14:15:00+0200","id":124042,"name":"Tilli","coordinate":{"longitude":11.50990009,"latitude":48.04520035},"fuelLevel":0.81,"lastAddress":"Seitnerstraße 70, 82049 Pullach im Isartal, Germany"}
{"timestamp":"2016-09-28T14:15:00+0200","id":124039,"name":"Marie","coordinate":{"longitude":11.50949955,"latitude":48.04550171},"fuelLevel":0.89,"lastAddress":"Seitnerstraße 70, 82049 Pullach im Isartal, Germany"}
{"timestamp":"2016-09-28T14:15:00+0200","id":124009,"name":"Ludwig","coordinate":{"longitude":11.57830048,"latitude":48.16400146},"fuelLevel":0.9400000000000001,"lastAddress":"Cherubinistraße 2, 80803 München, Germany"}
{"timestamp":"2016-09-28T14:15:00+0200","id":124007,"name":"Jakob","coordinate":{"longitude":11.58640003,"latitude":48.16389847},"fuelLevel":0.9500000000000001,"lastAddress":"Leopoldstraße 85, 80802 München, Germany"}