{"timestamp":"2016-10-04T21:35:00+0200","id":124041,"name":"Sophie","coordinate":{"longitude":11.57820034,"latitude":48.15129852},"fuelLevel":0.93,"lastAddress":"Amalienstraße 81B, 80799 München, Germany"}
{"timestamp":"2016-10-04T21:35:00+0200","id":124026,"name":"Eva","coordinate":{"longitude":11.5781002,"latitude":48.15380096},"fuelLevel":0.61,"lastAddress":"Rambergstraße 4, 80799 München, Germany"}
{"timestamp":"2016-10-04T21:35:00+0200","id":124033,"name":"Johanna","coordinate":{"longitude":11.58150005,"latitude":48.15179825},"fuelLevel":0.84,"lastAddress":"Ludwigstraße 31, 80539 München, Germany"}
{"timestamp":"2016-10-04T21:35:00+0200","id":124036,"name":"Liesel","coordinate":{"longitude":11.57530022,"latitude":48.15650177},"fuelLevel":0.6699999999999999,"lastAddress":"Nordendstraße 38, 80801 München, Germany"}
{"timestamp":"2016-10-04T21:35:00+0200","id":124044,"name":"Uschi","coordinate":{"longitude":11.57250023,"latitude":48.13159943},"fuelLevel":0.9199999999999999,"lastAddress":"Müllerstraße 11, 80469 München, Germany"}
{"timestamp":"2016-10-04T21:35:00+0200","id":124024,"name":"Christl","coordinate":{"longitude":11.57940006,"latitude":48.13370132},"fuelLevel":0.8,"lastAddress":"Klenzestraße 1A, 80469 München, Germany"}
{"timestamp":"2016-10-04T21:35:00+0200","id":124040,"name":"Reserl","coordinate":{"longitude":11.57279968,"latitude":48.13199997},"fuelLevel":0.8999999999999999,"lastAddress":"Müllerstraße 7, 80469 München, Germany"}
{"timestamp":"2016-10-04T21:35:00+0200","id":124021,"name":"Xaver","coordinate":{"longitude":11.58160019,"latitude":48.13069916},"fuelLevel":0.9500000000000001,"lastAddress":"Erhardtstraße 27, 80469 München, Germany"}
{"timestamp":"2016-10-04T21:35:00+0200","id":124014,"name":"Quirin","coordinate":{"longitude":11.6079998,"latitude":48.13290024},"fuelLevel":0.63,"lastAddress":"Kirchenstraße 78-88, 81675 München, Germany"}
{"timestamp":"2016-10-04T21:35:00+0200","id":124034,"name":"Kathi","coordinate":{"longitude":11.60490036,"latitude":48.13209915},"fuelLevel":0.67,"lastAddress":"Elsässer Str. 16, 81667 München, Germany"}
{"timestamp":"2016-10-04T21:35:00+0200","id":124030,"name":"Hedwig","coordinate":{"longitude":11.56369972,"latitude":48.12749863},"fuelLevel":0.9199999999999999,"lastAddress":"Thalkirchner Str. 52, 80337 München, Germany"}
{"timestamp":"2016-10-04T21:35:00+0200","id":124023,"name":"Babsi","coordinate":{"longitude":11.56369972,"latitude":48.12689972},"fuelLevel":0.93,"lastAddress":"Thalkirchner Str. 54, 80337 München, Germany"}
{"timestamp":"2016-10-04T21:35:00+0200","id":124016,"name":"Sepp","coordinate":{"longitude":11.59860039,"latitude":48.12620163},"fuelLevel":0.9199999999999999,"lastAddress":"Rosenheimer Str. 123, 81667 München, Germany"}
{"timestamp":"2016-10-04T21:35:00+0200","id":124038,"name":"Magda","coordinate":{"longitude":11.60039997,"latitude":48.12850189},"fuelLevel":0.67,"lastAddress":"Pariser Str. 1, 81667 München, Germany"}
{"timestamp":"2016-10-04T21:35:00+0200","id":124022,"name":"Anne","coordinate":{"longitude":11.5965004,"latitude":48.12730026},"fuelLevel":0.87,"lastAddress":"Rosenheimer Str. 87, 81667 München, Germany"}
{"timestamp":"2016-10-04T21:35:00+0200","id":124000,"name":"Bertl","coordinate":{"longitude":11.59689999,"latitude":48.12960052},"fuelLevel":0.82,"lastAddress":"Kellerstraße 41, 81667 München, Germany"}
{"timestamp":"2016-10-04T21:35:00+0200","id":124013,"name":"Poldi","coordinate":{"longitude":11.59459972,"latitude":48.12779999},"fuelLevel":0.79,"lastAddress":"Balanstraße 4, 81669 München, Germany"}
{"timestamp":"2016-10-04T21:35:00+0200","id":124011,"name":"Maxl","coordinate":{"longitude":11.59309959,"latitude":48.12559891},"fuelLevel":0.7899999999999999,"lastAddress":"Sieboldstraße 9, 81669 München, Germany"}
{"timestamp":"2016-10-04T21:35:00+0200","id":124003,"name":"Franzl","coordinate":{"longitude":11.5927,"latitude":48.12739944},"fuelLevel":0.79,"lastAddress":"Rablstraße 37, 81669 München, Germany"}
{"timestamp":"2016-10-04T21:35:00+0200","id":124035,"name":"Leonie","coordinate":{"longitude":11.58600044,"latitude":48.12870026},"fuelLevel":0.7899999999999999,"lastAddress":"Franz-Prüller-Straße 1, 81669 München, Germany"}
{"timestamp":"2016-10-04T21:35:00+0200","id":124006,"name":"Gustl","coordinate":{"longitude":11.57769966,"latitude":48.12099838},"fuelLevel":0.9400000000000001,"lastAddress":"Falkenstraße 44, 81541 München, Germany"}
{"timestamp":"2016-10-04T21:35:00+0200","id":124020,"name":"Vinzenz","coordinate":{"longitude":11.57649994,"latitude":48.12469864},"fuelLevel":0.8999999999999999,"lastAddress":"Albanistraße 1, 81541 München, Germany"}
{"timestamp":"2016-10-04T21:35:00+0200","id":124049,"name":"Marei","coordinate":{"longitude":11.57439995,"latitude":48.11980057},"fuelLevel":0.69,"lastAddress":"Humboldtstraße 26, 81543 München, Germany"}
{"timestamp":"2016-10-04T21:35:00+0200","id":124045,"name":"Vroni","coordinate":{"longitude":11.56739998,"latitude":48.12770081},"fuelLevel":0.9199999999999999,"lastAddress":"Holzstraße 34, 80469 München, Germany"}
{"timestamp":"2016-10-04T21:35:00+0200","id":124018,"name":"Toni","coordinate":{"longitude":11.56999969,"latitude":48.13119888},"fuelLevel":0.9099999999999999,"lastAddress":"Angertorstraße 4, 80469 München, Germany"}
{"timestamp":"2016-10-04T21:35:00+0200","id":124012,"name":"Peter","coordinate":{"longitude":11.57229996,"latitude":48.15010071},"fuelLevel":1,"lastAddress":"Heßstraße 2, 80799 München, Germany"}
{"timestamp":"2016-10-04T21:35:00+0200","id":124004,"name":"Fridl","coordinate":{"longitude":11.56569958,"latitude":48.15660095},"fuelLevel":0.55,"lastAddress":"Hiltenspergerstraße 15, 80798 München, Germany"}
{"timestamp":"2016-10-04T21:35:00+0200","id":124031,"name":"Heidi","coordinate":{"longitude":11.56659985,"latitude":48.14960098},"fuelLevel":0.8,"lastAddress":"Luisenstraße 51-53, 80333 München, Germany"}
{"timestamp":"2016-10-04T21:35:00+0200","id":124047,"name":"Walli","coordinate":{"longitude":11.56989956,"latitude":48.15060043},"fuelLevel":0.83,"lastAddress":"Arcisstraße 32, 80799 München, Germany"}
{"timestamp":"2016-10-04T21:35:00+0200","id":124002,"name":"Ferdl","coordinate":{"longitude":11.56439972,"latitude":48.15250015},"fuelLevel":0.9500000000000001,"lastAddress":"Heßstraße 58, 80798 München, Germany"}
{"timestamp":"2016-10-04T21:35:00+0200","id":124048,"name":"Wiggerl","coordinate":{"longitude":11.5788002,"latitude":48.16130066},"fuelLevel":0.68,"lastAddress":"Kaiserstraße 38, 80801 München, Germany"}
{"timestamp":"2016-10-04T21:35:00+0200","id":124028,"name":"Gitte","coordinate":{"longitude":11.57750034,"latitude":48.16070175},"fuelLevel":0.75,"lastAddress":"Römerstraße 22, 80801 München, Germany"}
{"timestamp":"2016-10-04T21:35:00+0200","id":124027,"name":"Fanni","coordinate":{"longitude":11.57759953,"latitude":48.1590004},"fuelLevel":0.7899999999999999,"lastAddress":"Ainmillerstraße 33, 80801 München, Germany"}
{"timestamp":"2016-10-04T21:35:00+0200","id":124005,"name":"Georg","coordinate":{"longitude":11.58180046,"latitude":48.1590004},"fuelLevel":0.66,"lastAddress":"Ainmillerstraße 18, 80801 München, Germany"}
{"timestamp":"2016-10-04T21:35:00+0200","id":124032,"name":"Irmi","coordinate":{"longitude":11.57339954,"latitude":48.16019821},"fuelLevel":0.64,"lastAddress":"Isabellastraße 46, 80796 München, Germany"}
{"timestamp":"2016-10-04T21:35:00+0200","id":124037,"name":"Luise","coordinate":{"longitude":11.56639957,"latitude":48.15790176},"fuelLevel":0.58,"lastAddress":"Agnesstraße 38, 80798 München, Germany"}
{"timestamp":"2016-10-04T21:35:00+0200","id":124017,"name":"Siggi","coordinate":{"longitude":11.57069969,"latitude":48.15969849},"fuelLevel":0.56,"lastAddress":"Bauerstraße 19, 80796 München, Germany"}
{"timestamp":"2016-10-04T21:35:00+0200","id":124029,"name":"Hannah","coordinate":{"longitude":11.51049995,"latitude":48.04510117},"fuelLevel":0.71,"lastAddress":"Gistlstraße 159, 82049 Pullach im Isartal, Germany"}
{"timestamp":"2016-10-04T21:35:00+0200","id":124008,"name":"Johann","coordinate":{"longitude":11.50990009,"latitude":48.04539871},"fuelLevel":0.87,"lastAddress":"Gistlstraße 159, 82049 Pullach im Isartal, Germany"}
{"timestamp":"2016-10-04T21:35:00+0200","id":124039,"name":"Marie","coordinate":{"longitude":11.50949955,"latitude":48.04550171},"fuelLevel":0.58,"lastAddress":"Seitnerstraße 70, 82049 Pullach im Isartal, Germany"}
{"timestamp":"2016-10-04T21:35:00+0200","id":124009,"name":"Ludwig","coordinate":{"longitude":11.58530045,"latitude":48.1617012},"fuelLevel":0.8999999999999999,"lastAddress":"Leopoldstraße 61, 80802 München, Germany"}