{"timestamp":"2016-10-12T12:40:00+0200","id":124041,"name":"Sophie","coordinate":{"longitude":11.57830048,"latitude":48.15000153},"fuelLevel":0.86,"lastAddress":"Amalienstraße 52, 80799 München, Germany"}
{"timestamp":"2016-10-12T12:40:00+0200","id":124026,"name":"Eva","coordinate":{"longitude":11.57830048,"latitude":48.15380096},"fuelLevel":0.61,"lastAddress":"Türkenstraße 104, 80799 München, Germany"}
{"timestamp":"2016-10-12T12:40:00+0200","id":124025,"name":"Elli","coordinate":{"longitude":11.57619953,"latitude":48.15769958},"fuelLevel":0.9,"lastAddress":"Franz-Joseph-Straße 46, 80801 München, Germany"}
{"timestamp":"2016-10-12T12:40:00+0200","id":124044,"name":"Uschi","coordinate":{"longitude":11.57339954,"latitude":48.13180161},"fuelLevel":0.9199999999999999,"lastAddress":"Müllerstraße 7, 80469 München, Germany"}
{"timestamp":"2016-10-12T12:40:00+0200","id":124040,"name":"Reserl","coordinate":{"longitude":11.57199955,"latitude":48.13169861},"fuelLevel":0.83,"lastAddress":"Müllerstraße 24, 80469 München, Germany"}
{"timestamp":"2016-10-12T12:40:00+0200","id":124021,"name":"Xaver","coordinate":{"longitude":11.57999992,"latitude":48.13029861},"fuelLevel":0.9199999999999999,"lastAddress":"Bob‑van‑Benthem‑Platz 1, 80469 München, Germany"}
{"timestamp":"2016-10-12T12:40:00+0200","id":124016,"name":"Sepp","coordinate":{"longitude":11.6019001,"latitude":48.12900162},"fuelLevel":0.9099999999999999,"lastAddress":"Wörthstraße 38, 81667 München, Germany"}
{"timestamp":"2016-10-12T12:40:00+0200","id":124038,"name":"Magda","coordinate":{"longitude":11.60039997,"latitude":48.12810135},"fuelLevel":0.67,"lastAddress":"Gravelottestraße 1, 81667 München, Germany"}
{"timestamp":"2016-10-12T12:40:00+0200","id":124022,"name":"Anne","coordinate":{"longitude":11.59640026,"latitude":48.1271019},"fuelLevel":0.8300000000000001,"lastAddress":"Rosenheimer Str. 82, 81669 München, Germany"}
{"timestamp":"2016-10-12T12:40:00+0200","id":124000,"name":"Bertl","coordinate":{"longitude":11.59799957,"latitude":48.12620163},"fuelLevel":0.8,"lastAddress":"Rosenheimer Str. 119, 81667 München, Germany"}
{"timestamp":"2016-10-12T12:40:00+0200","id":124013,"name":"Poldi","coordinate":{"longitude":11.59519958,"latitude":48.12810135},"fuelLevel":0.79,"lastAddress":"Metzstraße 1, 81667 München, Germany"}
{"timestamp":"2016-10-12T12:40:00+0200","id":124011,"name":"Maxl","coordinate":{"longitude":11.59440041,"latitude":48.12789917},"fuelLevel":0.6699999999999999,"lastAddress":"Balanstraße 2, 81669 München, Germany"}
{"timestamp":"2016-10-12T12:40:00+0200","id":124003,"name":"Franzl","coordinate":{"longitude":11.59220028,"latitude":48.12739944},"fuelLevel":0.8,"lastAddress":"Rablstraße 31, 81669 München, Germany"}
{"timestamp":"2016-10-12T12:40:00+0200","id":124010,"name":"Luitpold","coordinate":{"longitude":11.58440018,"latitude":48.12770081},"fuelLevel":0.9400000000000001,"lastAddress":"Lilienstraße 66, 81669 München, Germany"}
{"timestamp":"2016-10-12T12:40:00+0200","id":124006,"name":"Gustl","coordinate":{"longitude":11.57460022,"latitude":48.12030029},"fuelLevel":0.9500000000000001,"lastAddress":"Oefelestraße 8, 81543 München, Germany"}
{"timestamp":"2016-10-12T12:40:00+0200","id":124020,"name":"Vinzenz","coordinate":{"longitude":11.57849979,"latitude":48.12279892},"fuelLevel":0.8999999999999999,"lastAddress":"Entenbachstraße 27, 81541 München, Germany"}
{"timestamp":"2016-10-12T12:40:00+0200","id":124045,"name":"Vroni","coordinate":{"longitude":11.56519985,"latitude":48.1242981},"fuelLevel":0.64,"lastAddress":"Kapuzinerstraße 37, 80469 München, Germany"}
{"timestamp":"2016-10-12T12:40:00+0200","id":124018,"name":"Toni","coordinate":{"longitude":11.56939983,"latitude":48.12990189},"fuelLevel":0.66,"lastAddress":"Hans-Sachs-Straße 12, 80469 München, Germany"}
{"timestamp":"2016-10-12T12:40:00+0200","id":124004,"name":"Fridl","coordinate":{"longitude":11.55669975,"latitude":48.1548996},"fuelLevel":0.9600000000000001,"lastAddress":"Heßstraße 108, 80797 München, Germany"}
{"timestamp":"2016-10-12T12:40:00+0200","id":124031,"name":"Heidi","coordinate":{"longitude":11.56649971,"latitude":48.15179825},"fuelLevel":0.6499999999999999,"lastAddress":"Heßstraße 44, 80798 München, Germany"}
{"timestamp":"2016-10-12T12:40:00+0200","id":124047,"name":"Walli","coordinate":{"longitude":11.57009983,"latitude":48.14960098},"fuelLevel":0.71,"lastAddress":"Theresienstraße 90, 80333 München, Germany"}
{"timestamp":"2016-10-12T12:40:00+0200","id":124002,"name":"Ferdl","coordinate":{"longitude":11.56849957,"latitude":48.14830017},"fuelLevel":0.9444444444444444,"lastAddress":"Arcisstraße 21, 80333 München, Germany"}
{"timestamp":"2016-10-12T12:40:00+0200","id":124048,"name":"Wiggerl","coordinate":{"longitude":11.58080006,"latitude":48.16270065},"fuelLevel":0.66,"lastAddress":"Herzogstraße 36, 80803 München, Germany"}
{"timestamp":"2016-10-12T12:40:00+0200","id":124027,"name":"Fanni","coordinate":{"longitude":11.58450031,"latitude":48.16070175},"fuelLevel":0.7899999999999999,"lastAddress":"Kaiserstraße 12, 80801 München, Germany"}
{"timestamp":"2016-10-12T12:40:00+0200","id":124005,"name":"Georg","coordinate":{"longitude":11.57549953,"latitude":48.16199875},"fuelLevel":0.56,"lastAddress":"Viktor-Scheffel-Straße 19-21, 80803 München, Germany"}
{"timestamp":"2016-10-12T12:40:00+0200","id":124032,"name":"Irmi","coordinate":{"longitude":11.57310009,"latitude":48.16040039},"fuelLevel":0.64,"lastAddress":"Isabellastraße 49, 80796 München, Germany"}
{"timestamp":"2016-10-12T12:40:00+0200","id":124037,"name":"Luise","coordinate":{"longitude":11.57009983,"latitude":48.15739822},"fuelLevel":0.52,"lastAddress":"Agnesstraße 15, 80798 München, Germany"}
{"timestamp":"2016-10-12T12:40:00+0200","id":124017,"name":"Siggi","coordinate":{"longitude":11.57260036,"latitude":48.16070175},"fuelLevel":0.56,"lastAddress":"Hohenzollernstraße 102, 80796 München, Germany"}
{"timestamp":"2016-10-12T12:40:00+0200","id":124029,"name":"Hannah","coordinate":{"longitude":11.51029968,"latitude":48.04539871},"fuelLevel":0.7,"lastAddress":"Gistlstraße 159, 82049 Pullach im Isartal, Germany"}
{"timestamp":"2016-10-12T12:40:00+0200","id":124008,"name":"Johann","coordinate":{"longitude":11.50990009,"latitude":48.04550171},"fuelLevel":0.87,"lastAddress":"Gistlstraße 159, 82049 Pullach im Isartal, Germany"}
{"timestamp":"2016-10-12T12:40:00+0200","id":124009,"name":"Ludwig","coordinate":{"longitude":11.58500004,"latitude":48.16220093},"fuelLevel":0.8999999999999999,"lastAddress":"Herzogstraße 2, 80803 München, Germany"}
{"timestamp":"2016-10-12T12:40:00+0200","id":124007,"name":"Jakob","coordinate":{"longitude":11.57699966,"latitude":48.16680145},"fuelLevel":0.9400000000000001,"lastAddress":"Karl-Theodor-Straße 63, 80803 München, Germany"}