{"timestamp":"2016-09-27T05:10:00+0200","id":124041,"name":"Sophie","coordinate":{"longitude":11.57759953,"latitude":48.15039825},"fuelLevel":0.93,"lastAddress":"Schellingstraße 26, 80799 München, Germany"}
{"timestamp":"2016-09-27T05:10:00+0200","id":124026,"name":"Eva","coordinate":{"longitude":11.5781002,"latitude":48.15380096},"fuelLevel":0.61,"lastAddress":"Rambergstraße 4, 80799 München, Germany"}
{"timestamp":"2016-09-27T05:10:00+0200","id":124025,"name":"Elli","coordinate":{"longitude":11.57849979,"latitude":48.15309906},"fuelLevel":0.85,"lastAddress":"Akademiestraße 4, 80799 München, Germany"}
{"timestamp":"2016-09-27T05:10:00+0200","id":124033,"name":"Johanna","coordinate":{"longitude":11.5781002,"latitude":48.15370178},"fuelLevel":0.89,"lastAddress":"Rambergstraße 3, 80799 München, Germany"}
{"timestamp":"2016-09-27T05:10:00+0200","id":124036,"name":"Liesel","coordinate":{"longitude":11.57530022,"latitude":48.15629959},"fuelLevel":0.6699999999999999,"lastAddress":"Nordendstraße 36, 80801 München, Germany"}
{"timestamp":"2016-09-27T05:10:00+0200","id":124044,"name":"Uschi","coordinate":{"longitude":11.57549953,"latitude":48.13019943},"fuelLevel":0.51,"lastAddress":"Reichenbachstraße 24, 80469 München, Germany"}
{"timestamp":"2016-09-27T05:10:00+0200","id":124024,"name":"Christl","coordinate":{"longitude":11.58059978,"latitude":48.13190079},"fuelLevel":0.83,"lastAddress":"Kohlstraße 3, 80469 München, Germany"}
{"timestamp":"2016-09-27T05:10:00+0200","id":124021,"name":"Xaver","coordinate":{"longitude":11.58049965,"latitude":48.13190079},"fuelLevel":0.52,"lastAddress":"Kohlstraße 4, 80469 München, Germany"}
{"timestamp":"2016-09-27T05:10:00+0200","id":124014,"name":"Quirin","coordinate":{"longitude":11.60330009,"latitude":48.13330078},"fuelLevel":0.63,"lastAddress":"Kirchenstraße 40, 81675 München, Germany"}
{"timestamp":"2016-09-27T05:10:00+0200","id":124034,"name":"Kathi","coordinate":{"longitude":11.60509968,"latitude":48.13240051},"fuelLevel":0.67,"lastAddress":"Elsässer Str. 4, 81667 München, Germany"}
{"timestamp":"2016-09-27T05:10:00+0200","id":124030,"name":"Hedwig","coordinate":{"longitude":11.56270027,"latitude":48.12680054},"fuelLevel":0.9099999999999999,"lastAddress":"Thalkirchner Str. 70, 80337 München, Germany"}
{"timestamp":"2016-09-27T05:10:00+0200","id":124023,"name":"Babsi","coordinate":{"longitude":11.5635004,"latitude":48.12720108},"fuelLevel":0.93,"lastAddress":"Thalkirchner Str. 54, 80337 München, Germany"}
{"timestamp":"2016-09-27T05:10:00+0200","id":124016,"name":"Sepp","coordinate":{"longitude":11.59829998,"latitude":48.12580109},"fuelLevel":0.9199999999999999,"lastAddress":"Rosenheimer Str. 100, 81669 München, Germany"}
{"timestamp":"2016-09-27T05:10:00+0200","id":124038,"name":"Magda","coordinate":{"longitude":11.59969997,"latitude":48.12810135},"fuelLevel":0.76,"lastAddress":"Pariser Str. 29A, 81667 München, Germany"}
{"timestamp":"2016-09-27T05:10:00+0200","id":124022,"name":"Anne","coordinate":{"longitude":11.59710026,"latitude":48.1271019},"fuelLevel":0.8900000000000001,"lastAddress":"Rosenheimer Str. 105, 81667 München, Germany"}
{"timestamp":"2016-09-27T05:10:00+0200","id":124000,"name":"Bertl","coordinate":{"longitude":11.5948,"latitude":48.12939835},"fuelLevel":0.8500000000000001,"lastAddress":"Steinstraße 79A, 81667 München, Germany"}
{"timestamp":"2016-09-27T05:10:00+0200","id":124013,"name":"Poldi","coordinate":{"longitude":11.59539986,"latitude":48.12659836},"fuelLevel":0.83,"lastAddress":"Balanstraße 23, 81669 München, Germany"}
{"timestamp":"2016-09-27T05:10:00+0200","id":124011,"name":"Maxl","coordinate":{"longitude":11.59210014,"latitude":48.12580109},"fuelLevel":0.8099999999999999,"lastAddress":"Franziskanerstraße 16, 81669 München, Germany"}
{"timestamp":"2016-09-27T05:10:00+0200","id":124003,"name":"Franzl","coordinate":{"longitude":11.58909988,"latitude":48.12559891},"fuelLevel":0.88,"lastAddress":"Franziskanerstraße 36, 81669 München, Germany"}
{"timestamp":"2016-09-27T05:10:00+0200","id":124010,"name":"Luitpold","coordinate":{"longitude":11.58580017,"latitude":48.12599945},"fuelLevel":0.88,"lastAddress":"Gebsattelstraße 2, 81541 München, Germany"}
{"timestamp":"2016-09-27T05:10:00+0200","id":124019,"name":"Valentin","coordinate":{"longitude":11.58500004,"latitude":48.12350082},"fuelLevel":0.9199999999999999,"lastAddress":"Hochstraße 49C, 81541 München, Germany"}
{"timestamp":"2016-09-27T05:10:00+0200","id":124035,"name":"Leonie","coordinate":{"longitude":11.58580017,"latitude":48.1291008},"fuelLevel":0.7899999999999999,"lastAddress":"Schwarzstraße 4, 81669 München, Germany"}
{"timestamp":"2016-09-27T05:10:00+0200","id":124006,"name":"Gustl","coordinate":{"longitude":11.57759953,"latitude":48.12099838},"fuelLevel":0.93,"lastAddress":"Falkenstraße 44, 81541 München, Germany"}
{"timestamp":"2016-09-27T05:10:00+0200","id":124020,"name":"Vinzenz","coordinate":{"longitude":11.57960033,"latitude":48.1230011},"fuelLevel":0.9299999999999999,"lastAddress":"Falkenstraße 18, 81541 München, Germany"}
{"timestamp":"2016-09-27T05:10:00+0200","id":124049,"name":"Marei","coordinate":{"longitude":11.57400036,"latitude":48.12009811},"fuelLevel":0.7200000000000001,"lastAddress":"Humboldtstraße 22, 81543 München, Germany"}
{"timestamp":"2016-09-27T05:10:00+0200","id":124045,"name":"Vroni","coordinate":{"longitude":11.56709957,"latitude":48.12760162},"fuelLevel":0.9199999999999999,"lastAddress":"Pestalozzistraße 56, 80469 München, Germany"}
{"timestamp":"2016-09-27T05:10:00+0200","id":124043,"name":"Traudl","coordinate":{"longitude":11.57450008,"latitude":48.12820053},"fuelLevel":0.71,"lastAddress":"Baaderstraße 86, 80469 München, Germany"}
{"timestamp":"2016-09-27T05:10:00+0200","id":124018,"name":"Toni","coordinate":{"longitude":11.56910038,"latitude":48.12649918},"fuelLevel":0.9500000000000001,"lastAddress":"Baumstraße 18, 80469 München, Germany"}
{"timestamp":"2016-09-27T05:10:00+0200","id":124012,"name":"Peter","coordinate":{"longitude":11.57250023,"latitude":48.14989853},"fuelLevel":1,"lastAddress":"Barer Str. 29, 80799 München, Germany"}
{"timestamp":"2016-09-27T05:10:00+0200","id":124004,"name":"Fridl","coordinate":{"longitude":11.56589985,"latitude":48.15579987},"fuelLevel":0.7799999999999999,"lastAddress":"Hiltenspergerstraße 3, 80798 München, Germany"}
{"timestamp":"2016-09-27T05:10:00+0200","id":124031,"name":"Heidi","coordinate":{"longitude":11.56610012,"latitude":48.14810181},"fuelLevel":0.8500000000000001,"lastAddress":"Gabelsbergerstraße 53, 80333 München, Germany"}
{"timestamp":"2016-09-27T05:10:00+0200","id":124047,"name":"Walli","coordinate":{"longitude":11.57120037,"latitude":48.15639877},"fuelLevel":0.8999999999999999,"lastAddress":"Georgenstraße 82, 80799 München, Germany"}
{"timestamp":"2016-09-27T05:10:00+0200","id":124002,"name":"Ferdl","coordinate":{"longitude":11.56369972,"latitude":48.15090179},"fuelLevel":0.61,"lastAddress":"Augustenstraße 81, 80333 München, Germany"}
{"timestamp":"2016-09-27T05:10:00+0200","id":124048,"name":"Wiggerl","coordinate":{"longitude":11.57740021,"latitude":48.15909958},"fuelLevel":0.7200000000000001,"lastAddress":"Ainmillerstraße 42, 80801 München, Germany"}
{"timestamp":"2016-09-27T05:10:00+0200","id":124028,"name":"Gitte","coordinate":{"longitude":11.58090019,"latitude":48.15790176},"fuelLevel":0.81,"lastAddress":"Franz-Joseph-Straße 18, 80801 München, Germany"}
{"timestamp":"2016-09-27T05:10:00+0200","id":124027,"name":"Fanni","coordinate":{"longitude":11.57719994,"latitude":48.15919876},"fuelLevel":0.85,"lastAddress":"Römerstraße 9, 80801 München, Germany"}
{"timestamp":"2016-09-27T05:10:00+0200","id":124005,"name":"Georg","coordinate":{"longitude":11.58139992,"latitude":48.15869904},"fuelLevel":0.69,"lastAddress":"Ainmillerstraße 15, 80801 München, Germany"}
{"timestamp":"2016-09-27T05:10:00+0200","id":124032,"name":"Irmi","coordinate":{"longitude":11.57279968,"latitude":48.16040039},"fuelLevel":0.64,"lastAddress":"Hohenzollernstraße 65, 80796 München, Germany"}
{"timestamp":"2016-09-27T05:10:00+0200","id":124017,"name":"Siggi","coordinate":{"longitude":11.57079983,"latitude":48.16090012},"fuelLevel":0.56,"lastAddress":"Hohenzollernstraße 114, 80796 München, Germany"}
{"timestamp":"2016-09-27T05:10:00+0200","id":124029,"name":"Hannah","coordinate":{"longitude":11.51019955,"latitude":48.04539871},"fuelLevel":0.7,"lastAddress":"Gistlstraße 159, 82049 Pullach im Isartal, Germany"}
{"timestamp":"2016-09-27T05:10:00+0200","id":124042,"name":"Tilli","coordinate":{"longitude":11.50949955,"latitude":48.04550171},"fuelLevel":0.84,"lastAddress":"Seitnerstraße 70, 82049 Pullach im Isartal, Germany"}
{"timestamp":"2016-09-27T05:10:00+0200","id":124039,"name":"Marie","coordinate":{"longitude":11.50959969,"latitude":48.04539871},"fuelLevel":0.89,"lastAddress":"Seitnerstraße 70, 82049 Pullach im Isartal, Germany"}
{"timestamp":"2016-09-27T05:10:00+0200","id":124009,"name":"Ludwig","coordinate":{"longitude":11.5777998,"latitude":48.16429901},"fuelLevel":0.9400000000000001,"lastAddress":"Cherubinistraße 5, 80803 München, Germany"}
{"timestamp":"2016-09-27T05:10:00+0200","id":124007,"name":"Jakob","coordinate":{"longitude":11.58609962,"latitude":48.16419983},"fuelLevel":0.9500000000000001,"lastAddress":"Erwin-Planck-Weg, 80803 München, Germany"}