{"timestamp":"2016-11-22T05:45:00+0100","id":124041,"name":"Sophie","coordinate":{"longitude":11.5789032,"latitude":48.15301514},"fuelLevel":0.5599999999999999,"lastAddress":"Akademiestraße 2, 80799 München, Germany"}
{"timestamp":"2016-11-22T05:45:00+0100","id":124026,"name":"Eva","coordinate":{"longitude":11.58129883,"latitude":48.15240479},"fuelLevel":0.75,"lastAddress":"Akademiestraße 3, 80799 München, Germany"}
{"timestamp":"2016-11-22T05:45:00+0100","id":124025,"name":"Elli","coordinate":{"longitude":11.58131409,"latitude":48.1525116},"fuelLevel":0.8400000000000001,"lastAddress":"Akademiestraße 3, 80799 München, Germany"}
{"timestamp":"2016-11-22T05:45:00+0100","id":124024,"name":"Christl","coordinate":{"longitude":11.57698059,"latitude":48.13279724},"fuelLevel":0.6499999999999999,"lastAddress":"Buttermelcherstraße 4, 80469 München, Germany"}
{"timestamp":"2016-11-22T05:45:00+0100","id":124040,"name":"Reserl","coordinate":{"longitude":11.57470703,"latitude":48.12910461},"fuelLevel":0.83,"lastAddress":"Fraunhoferstraße 31, 80469 München, Germany"}
{"timestamp":"2016-11-22T05:45:00+0100","id":124021,"name":"Xaver","coordinate":{"longitude":11.58189392,"latitude":48.13108826},"fuelLevel":0.77,"lastAddress":"Kohlstraße 11, 80469 München, Germany"}
{"timestamp":"2016-11-22T05:45:00+0100","id":124014,"name":"Quirin","coordinate":{"longitude":11.59919739,"latitude":48.13600159},"fuelLevel":0.6527777777777778,"lastAddress":"Einsteinstraße 3, 81675 München, Germany"}
{"timestamp":"2016-11-22T05:45:00+0100","id":124034,"name":"Kathi","coordinate":{"longitude":11.60580444,"latitude":48.1308136},"fuelLevel":0.75,"lastAddress":"Breisacher Str. 24, 81667 München, Germany"}
{"timestamp":"2016-11-22T05:45:00+0100","id":124030,"name":"Hedwig","coordinate":{"longitude":11.56147766,"latitude":48.12658691},"fuelLevel":0.86,"lastAddress":"Maistraße 59, 80337 München, Germany"}
{"timestamp":"2016-11-22T05:45:00+0100","id":124000,"name":"Bertl","coordinate":{"longitude":11.59489441,"latitude":48.13101196},"fuelLevel":0.8999999999999999,"lastAddress":"Milchstraße 2, 81667 München, Germany"}
{"timestamp":"2016-11-22T05:45:00+0100","id":124013,"name":"Poldi","coordinate":{"longitude":11.58961487,"latitude":48.125},"fuelLevel":0.79,"lastAddress":"Franziskanerstraße 47, 81669 München, Germany"}
{"timestamp":"2016-11-22T05:45:00+0100","id":124003,"name":"Franzl","coordinate":{"longitude":11.58808899,"latitude":48.12541199},"fuelLevel":0.7200000000000001,"lastAddress":"Gebsattelstraße 16, 81541 München, Germany"}
{"timestamp":"2016-11-22T05:45:00+0100","id":124010,"name":"Luitpold","coordinate":{"longitude":11.58829975,"latitude":48.12919998},"fuelLevel":0.38999999999999996,"lastAddress":"Hochstraße 13, 81669 München, Germany"}
{"timestamp":"2016-11-22T05:45:00+0100","id":124019,"name":"Valentin","coordinate":{"longitude":11.58200073,"latitude":48.1210022},"fuelLevel":0.64,"lastAddress":"Hochstraße 81, 81541 München, Germany"}
{"timestamp":"2016-11-22T05:45:00+0100","id":124006,"name":"Gustl","coordinate":{"longitude":11.57600403,"latitude":48.12098694},"fuelLevel":0.86,"lastAddress":"Kolumbusstraße 22, 81543 München, Germany"}
{"timestamp":"2016-11-22T05:45:00+0100","id":124020,"name":"Vinzenz","coordinate":{"longitude":11.5770874,"latitude":48.12321472},"fuelLevel":0.86,"lastAddress":"Schlotthauerstraße 11, 81541 München, Germany"}
{"timestamp":"2016-11-22T05:45:00+0100","id":124049,"name":"Marei","coordinate":{"longitude":11.5776062,"latitude":48.12037659},"fuelLevel":0.8999999999999999,"lastAddress":"Dollmannstraße 4, 81541 München, Germany"}
{"timestamp":"2016-11-22T05:45:00+0100","id":124012,"name":"Peter","coordinate":{"longitude":11.55999756,"latitude":48.15499878},"fuelLevel":0.6,"lastAddress":"Schellingstraße 138, 80797 München, Germany"}
{"timestamp":"2016-11-22T05:45:00+0100","id":124004,"name":"Fridl","coordinate":{"longitude":11.55908203,"latitude":48.15386963},"fuelLevel":0.86,"lastAddress":"Heßstraße 79, 80797 München, Germany"}
{"timestamp":"2016-11-22T05:45:00+0100","id":124031,"name":"Heidi","coordinate":{"longitude":11.57020569,"latitude":48.14952087},"fuelLevel":0.51,"lastAddress":"Theresienstraße, 80333 München, Germany"}
{"timestamp":"2016-11-22T05:45:00+0100","id":124047,"name":"Walli","coordinate":{"longitude":11.56718445,"latitude":48.15080261},"fuelLevel":0.75,"lastAddress":"Luisenstraße 63, 80798 München, Germany"}
{"timestamp":"2016-11-22T05:45:00+0100","id":124002,"name":"Ferdl","coordinate":{"longitude":11.56399536,"latitude":48.15029907},"fuelLevel":0.8999999999999999,"lastAddress":"Augustenstraße 76, 80333 München, Germany"}
{"timestamp":"2016-11-22T05:45:00+0100","id":124048,"name":"Wiggerl","coordinate":{"longitude":11.57740784,"latitude":48.15899658},"fuelLevel":0.8,"lastAddress":"Ainmillerstraße 33, 80801 München, Germany"}
{"timestamp":"2016-11-22T05:45:00+0100","id":124027,"name":"Fanni","coordinate":{"longitude":11.58340454,"latitude":48.16090393},"fuelLevel":0.8800000000000001,"lastAddress":"Kaiserstraße 22, 80801 München, Germany"}
{"timestamp":"2016-11-22T05:45:00+0100","id":124005,"name":"Georg","coordinate":{"longitude":11.57691956,"latitude":48.15830994},"fuelLevel":0.8,"lastAddress":"Römerstraße 3, 80801 München, Germany"}
{"timestamp":"2016-11-22T05:45:00+0100","id":124001,"name":"Edmund","coordinate":{"longitude":11.58058167,"latitude":48.16090393},"fuelLevel":0.5599999999999999,"lastAddress":"Friedrichstraße 36, 80801 München, Germany"}
{"timestamp":"2016-11-22T05:45:00+0100","id":124032,"name":"Irmi","coordinate":{"longitude":11.5736084,"latitude":48.15681458},"fuelLevel":0.63,"lastAddress":"Arcisstraße 65, 80801 München, Germany"}
{"timestamp":"2016-11-22T05:45:00+0100","id":124037,"name":"Luise","coordinate":{"longitude":11.56231689,"latitude":48.15730286},"fuelLevel":0.55,"lastAddress":"Schleißheimer Str. 108-110, 80797 München, Germany"}
{"timestamp":"2016-11-22T05:45:00+0100","id":124029,"name":"Hannah","coordinate":{"longitude":11.50958252,"latitude":48.04550171},"fuelLevel":0.89,"lastAddress":"Seitnerstraße 70, 82049 Pullach im Isartal, Germany"}
{"timestamp":"2016-11-22T05:45:00+0100","id":124039,"name":"Marie","coordinate":{"longitude":11.50570011,"latitude":48.04430008},"fuelLevel":0.76,"lastAddress":"Wolfratshauser Str. 138, 82049 Pullach im Isartal, Germany"}
{"timestamp":"2016-11-22T05:45:00+0100","id":124009,"name":"Ludwig","coordinate":{"longitude":11.58241272,"latitude":48.1656189},"fuelLevel":0.7200000000000001,"lastAddress":"Muffatstraße 8, 80803 München, Germany"}
{"timestamp":"2016-11-22T05:45:00+0100","id":124007,"name":"Jakob","coordinate":{"longitude":11.57652283,"latitude":48.16671753},"fuelLevel":0.6499999999999999,"lastAddress":"Karl-Theodor-Straße 63, 80803 München, Germany"}