{"timestamp":"2016-10-19T15:35:00+0200","id":124041,"name":"Sophie","coordinate":{"longitude":11.57839966,"latitude":48.1534996},"fuelLevel":0.8300000000000001,"lastAddress":"Türkenstraße 93, 80799 München, Germany"}
{"timestamp":"2016-10-19T15:35:00+0200","id":124026,"name":"Eva","coordinate":{"longitude":11.58110046,"latitude":48.15000153},"fuelLevel":0.9199999999999999,"lastAddress":"Ludwigstraße 24, 80539 München, Germany"}
{"timestamp":"2016-10-19T15:35:00+0200","id":124025,"name":"Elli","coordinate":{"longitude":11.57940006,"latitude":48.15570068},"fuelLevel":0.8300000000000001,"lastAddress":"Konradstraße 16, 80801 München, Germany"}
{"timestamp":"2016-10-19T15:35:00+0200","id":124040,"name":"Reserl","coordinate":{"longitude":11.57250023,"latitude":48.13270187},"fuelLevel":0.77,"lastAddress":"Theklastraße 1, 80469 München, Germany"}
{"timestamp":"2016-10-19T15:35:00+0200","id":124014,"name":"Quirin","coordinate":{"longitude":11.59770012,"latitude":48.13439941},"fuelLevel":0.57,"lastAddress":"Johannispl. 21, 81667 München, Germany"}
{"timestamp":"2016-10-19T15:35:00+0200","id":124034,"name":"Kathi","coordinate":{"longitude":11.60910034,"latitude":48.13280106},"fuelLevel":0.57,"lastAddress":"Kirchenstraße 91A, 81675 München, Germany"}
{"timestamp":"2016-10-19T15:35:00+0200","id":124016,"name":"Sepp","coordinate":{"longitude":11.59799957,"latitude":48.12620163},"fuelLevel":0.88,"lastAddress":"Rosenheimer Str. 119, 81667 München, Germany"}
{"timestamp":"2016-10-19T15:35:00+0200","id":124038,"name":"Magda","coordinate":{"longitude":11.60039997,"latitude":48.12820053},"fuelLevel":0.67,"lastAddress":"Gravelottestraße 1, 81667 München, Germany"}
{"timestamp":"2016-10-19T15:35:00+0200","id":124013,"name":"Poldi","coordinate":{"longitude":11.59420013,"latitude":48.12770081},"fuelLevel":0.61,"lastAddress":"Balanstraße 6A, 81669 München, Germany"}
{"timestamp":"2016-10-19T15:35:00+0200","id":124011,"name":"Maxl","coordinate":{"longitude":11.5948,"latitude":48.12749863},"fuelLevel":0.6699999999999999,"lastAddress":"Balanstraße 9, 81669 München, Germany"}
{"timestamp":"2016-10-19T15:35:00+0200","id":124003,"name":"Franzl","coordinate":{"longitude":11.59329987,"latitude":48.12639999},"fuelLevel":0.7799999999999999,"lastAddress":"Enzenspergerstraße 1, 81669 München, Germany"}
{"timestamp":"2016-10-19T15:35:00+0200","id":124010,"name":"Luitpold","coordinate":{"longitude":11.58759975,"latitude":48.12739944},"fuelLevel":0.87,"lastAddress":"Hochstraße 19C, 81669 München, Germany"}
{"timestamp":"2016-10-19T15:35:00+0200","id":124020,"name":"Vinzenz","coordinate":{"longitude":11.57820034,"latitude":48.12530136},"fuelLevel":0.75,"lastAddress":"Asamstraße 6, 81541 München, Germany"}
{"timestamp":"2016-10-19T15:35:00+0200","id":124049,"name":"Marei","coordinate":{"longitude":11.57409954,"latitude":48.12239838},"fuelLevel":0.9400000000000001,"lastAddress":"Sommerstraße 8, 81543 München, Germany"}
{"timestamp":"2016-10-19T15:35:00+0200","id":124045,"name":"Vroni","coordinate":{"longitude":11.56509972,"latitude":48.12369919},"fuelLevel":0.64,"lastAddress":"Kapuzinerstraße 46, 80469 München, Germany"}
{"timestamp":"2016-10-19T15:35:00+0200","id":124018,"name":"Toni","coordinate":{"longitude":11.57009983,"latitude":48.12990189},"fuelLevel":0.6499999999999999,"lastAddress":"Hans-Sachs-Straße 7, 80469 München, Germany"}
{"timestamp":"2016-10-19T15:35:00+0200","id":124012,"name":"Peter","coordinate":{"longitude":11.56130028,"latitude":48.15480042},"fuelLevel":0.9600000000000001,"lastAddress":"Schleißheimer Str. 51, 80797 München, Germany"}
{"timestamp":"2016-10-19T15:35:00+0200","id":124004,"name":"Fridl","coordinate":{"longitude":11.55589962,"latitude":48.15520096},"fuelLevel":0.58,"lastAddress":"Lothstraße 64, 80335 München, Germany"}
{"timestamp":"2016-10-19T15:35:00+0200","id":124031,"name":"Heidi","coordinate":{"longitude":11.5635004,"latitude":48.14989853},"fuelLevel":0.62,"lastAddress":"Augustenstraße 72, 80333 München, Germany"}
{"timestamp":"2016-10-19T15:35:00+0200","id":124047,"name":"Walli","coordinate":{"longitude":11.57219982,"latitude":48.1495018},"fuelLevel":0.6499999999999999,"lastAddress":"Barer Str. 29, 80799 München, Germany"}
{"timestamp":"2016-10-19T15:35:00+0200","id":124048,"name":"Wiggerl","coordinate":{"longitude":11.58069992,"latitude":48.1629982},"fuelLevel":0.67,"lastAddress":"Herzogstraße 38, 80803 München, Germany"}
{"timestamp":"2016-10-19T15:35:00+0200","id":124028,"name":"Gitte","coordinate":{"longitude":11.57590008,"latitude":48.16030121},"fuelLevel":0.7200000000000001,"lastAddress":"Hohenzollernstraße 76-78, 80801 München, Germany"}
{"timestamp":"2016-10-19T15:35:00+0200","id":124032,"name":"Irmi","coordinate":{"longitude":11.57089996,"latitude":48.15890121},"fuelLevel":0.9400000000000001,"lastAddress":"Jakob-Klar-Straße 4, 80796 München, Germany"}
{"timestamp":"2016-10-19T15:35:00+0200","id":124017,"name":"Siggi","coordinate":{"longitude":11.57250023,"latitude":48.16030121},"fuelLevel":0.56,"lastAddress":"Hohenzollernstraße 67, 80796 München, Germany"}
{"timestamp":"2016-10-19T15:35:00+0200","id":124029,"name":"Hannah","coordinate":{"longitude":11.51000023,"latitude":48.04539871},"fuelLevel":0.59,"lastAddress":"Gistlstraße 159, 82049 Pullach im Isartal, Germany"}
{"timestamp":"2016-10-19T15:35:00+0200","id":124009,"name":"Ludwig","coordinate":{"longitude":11.58609962,"latitude":48.16500092},"fuelLevel":0.59,"lastAddress":"Leopoldstraße 102, 80802 München, Germany"}
{"timestamp":"2016-10-19T15:35:00+0200","id":124007,"name":"Jakob","coordinate":{"longitude":11.57450008,"latitude":48.16730118},"fuelLevel":0.9500000000000001,"lastAddress":"Karl-Theodor-Straße 82, 80803 München, Germany"}