{"timestamp":"2016-10-02T22:45:00+0200","id":124041,"name":"Sophie","coordinate":{"longitude":11.57759953,"latitude":48.14979935},"fuelLevel":0.93,"lastAddress":"Schellingstraße 11-13, 80799 München, Germany"}
{"timestamp":"2016-10-02T22:45:00+0200","id":124026,"name":"Eva","coordinate":{"longitude":11.57849979,"latitude":48.15340042},"fuelLevel":0.61,"lastAddress":"Türkenstraße 93, 80799 München, Germany"}
{"timestamp":"2016-10-02T22:45:00+0200","id":124025,"name":"Elli","coordinate":{"longitude":11.57579994,"latitude":48.15219879},"fuelLevel":0.9500000000000001,"lastAddress":"Nordendstraße 1A, 80799 München, Germany"}
{"timestamp":"2016-10-02T22:45:00+0200","id":124033,"name":"Johanna","coordinate":{"longitude":11.58170033,"latitude":48.15169907},"fuelLevel":0.84,"lastAddress":"Leopoldstraße 4, 80802 München, Germany"}
{"timestamp":"2016-10-02T22:45:00+0200","id":124036,"name":"Liesel","coordinate":{"longitude":11.57509995,"latitude":48.15620041},"fuelLevel":0.6699999999999999,"lastAddress":"Nordendstraße 29, 80801 München, Germany"}
{"timestamp":"2016-10-02T22:45:00+0200","id":124024,"name":"Christl","coordinate":{"longitude":11.57940006,"latitude":48.13370132},"fuelLevel":0.8,"lastAddress":"Klenzestraße 1A, 80469 München, Germany"}
{"timestamp":"2016-10-02T22:45:00+0200","id":124040,"name":"Reserl","coordinate":{"longitude":11.5717001,"latitude":48.13130188},"fuelLevel":0.89,"lastAddress":"Fraunhoferstraße 1, 80469 München, Germany"}
{"timestamp":"2016-10-02T22:45:00+0200","id":124021,"name":"Xaver","coordinate":{"longitude":11.58080006,"latitude":48.13180161},"fuelLevel":0.52,"lastAddress":"Kohlstraße 5, 80469 München, Germany"}
{"timestamp":"2016-10-02T22:45:00+0200","id":124014,"name":"Quirin","coordinate":{"longitude":11.60830021,"latitude":48.13290024},"fuelLevel":0.6499999999999999,"lastAddress":"Kirchenstraße 85, 81675 München, Germany"}
{"timestamp":"2016-10-02T22:45:00+0200","id":124034,"name":"Kathi","coordinate":{"longitude":11.60509968,"latitude":48.13230133},"fuelLevel":0.67,"lastAddress":"Elsässer Str. 6, 81667 München, Germany"}
{"timestamp":"2016-10-02T22:45:00+0200","id":124030,"name":"Hedwig","coordinate":{"longitude":11.56359959,"latitude":48.12749863},"fuelLevel":0.9199999999999999,"lastAddress":"Thalkirchner Str. 52, 80337 München, Germany"}
{"timestamp":"2016-10-02T22:45:00+0200","id":124023,"name":"Babsi","coordinate":{"longitude":11.56359959,"latitude":48.1271019},"fuelLevel":0.93,"lastAddress":"Thalkirchner Str. 54, 80337 München, Germany"}
{"timestamp":"2016-10-02T22:45:00+0200","id":124016,"name":"Sepp","coordinate":{"longitude":11.59869957,"latitude":48.1257019},"fuelLevel":0.9199999999999999,"lastAddress":"Rosenheimer Str. 102, 81669 München, Germany"}
{"timestamp":"2016-10-02T22:45:00+0200","id":124038,"name":"Magda","coordinate":{"longitude":11.60029984,"latitude":48.12810135},"fuelLevel":0.67,"lastAddress":"Gravelottestraße 1, 81667 München, Germany"}
{"timestamp":"2016-10-02T22:45:00+0200","id":124022,"name":"Anne","coordinate":{"longitude":11.5958004,"latitude":48.1271019},"fuelLevel":0.87,"lastAddress":"Rosenheimer Str. 76, 81669 München, Germany"}
{"timestamp":"2016-10-02T22:45:00+0200","id":124000,"name":"Bertl","coordinate":{"longitude":11.59700012,"latitude":48.12950134},"fuelLevel":0.82,"lastAddress":"Kellerstraße 34-36, 81667 München, Germany"}
{"timestamp":"2016-10-02T22:45:00+0200","id":124013,"name":"Poldi","coordinate":{"longitude":11.59459972,"latitude":48.12760162},"fuelLevel":0.79,"lastAddress":"Metzstraße, 81669 München, Germany"}
{"timestamp":"2016-10-02T22:45:00+0200","id":124011,"name":"Maxl","coordinate":{"longitude":11.5934,"latitude":48.12559891},"fuelLevel":0.8099999999999999,"lastAddress":"Barnabasstraße 3, 81669 München, Germany"}
{"timestamp":"2016-10-02T22:45:00+0200","id":124003,"name":"Franzl","coordinate":{"longitude":11.59350014,"latitude":48.12720108},"fuelLevel":0.79,"lastAddress":"Rablstraße 39, 81669 München, Germany"}
{"timestamp":"2016-10-02T22:45:00+0200","id":124010,"name":"Luitpold","coordinate":{"longitude":11.58600044,"latitude":48.1257019},"fuelLevel":0.88,"lastAddress":"Gebsattelstraße 2, 81541 München, Germany"}
{"timestamp":"2016-10-02T22:45:00+0200","id":124019,"name":"Valentin","coordinate":{"longitude":11.58469963,"latitude":48.12360001},"fuelLevel":0.9199999999999999,"lastAddress":"Hochstraße 49C, 81541 München, Germany"}
{"timestamp":"2016-10-02T22:45:00+0200","id":124035,"name":"Leonie","coordinate":{"longitude":11.58600044,"latitude":48.12919998},"fuelLevel":0.7899999999999999,"lastAddress":"Schwarzstraße 3, 81669 München, Germany"}
{"timestamp":"2016-10-02T22:45:00+0200","id":124006,"name":"Gustl","coordinate":{"longitude":11.57830048,"latitude":48.12049866},"fuelLevel":0.9400000000000001,"lastAddress":"Dollmannstraße 5A, 81541 München, Germany"}
{"timestamp":"2016-10-02T22:45:00+0200","id":124020,"name":"Vinzenz","coordinate":{"longitude":11.57870007,"latitude":48.12360001},"fuelLevel":0.9099999999999999,"lastAddress":"Entenbachstraße 16, 81541 München, Germany"}
{"timestamp":"2016-10-02T22:45:00+0200","id":124049,"name":"Marei","coordinate":{"longitude":11.57409954,"latitude":48.12009811},"fuelLevel":0.7200000000000001,"lastAddress":"Oefelestraße 5, 81543 München, Germany"}
{"timestamp":"2016-10-02T22:45:00+0200","id":124045,"name":"Vroni","coordinate":{"longitude":11.56729984,"latitude":48.12770081},"fuelLevel":0.9199999999999999,"lastAddress":"Holzstraße 34, 80469 München, Germany"}
{"timestamp":"2016-10-02T22:45:00+0200","id":124018,"name":"Toni","coordinate":{"longitude":11.56980038,"latitude":48.13029861},"fuelLevel":0.9099999999999999,"lastAddress":"Hans-Sachs-Straße 6, 80469 München, Germany"}
{"timestamp":"2016-10-02T22:45:00+0200","id":124012,"name":"Peter","coordinate":{"longitude":11.57240009,"latitude":48.14989853},"fuelLevel":1,"lastAddress":"Barer Str. 29, 80799 München, Germany"}
{"timestamp":"2016-10-02T22:45:00+0200","id":124004,"name":"Fridl","coordinate":{"longitude":11.56579971,"latitude":48.15660095},"fuelLevel":0.55,"lastAddress":"Hiltenspergerstraße 15, 80798 München, Germany"}
{"timestamp":"2016-10-02T22:45:00+0200","id":124031,"name":"Heidi","coordinate":{"longitude":11.56659985,"latitude":48.15000153},"fuelLevel":0.8,"lastAddress":"Luisenstraße 55, 80333 München, Germany"}
{"timestamp":"2016-10-02T22:45:00+0200","id":124002,"name":"Ferdl","coordinate":{"longitude":11.56480026,"latitude":48.15179825},"fuelLevel":0.9500000000000001,"lastAddress":"Augustenstraße 92, 80798 München, Germany"}
{"timestamp":"2016-10-02T22:45:00+0200","id":124048,"name":"Wiggerl","coordinate":{"longitude":11.57859993,"latitude":48.16139984},"fuelLevel":0.68,"lastAddress":"Kaiserstraße 38, 80801 München, Germany"}
{"timestamp":"2016-10-02T22:45:00+0200","id":124028,"name":"Gitte","coordinate":{"longitude":11.57719994,"latitude":48.16019821},"fuelLevel":0.75,"lastAddress":"Hohenzollernstraße 70, 80801 München, Germany"}
{"timestamp":"2016-10-02T22:45:00+0200","id":124027,"name":"Fanni","coordinate":{"longitude":11.57800007,"latitude":48.15869904},"fuelLevel":0.7899999999999999,"lastAddress":"Ainmillerstraße 31, 80801 München, Germany"}
{"timestamp":"2016-10-02T22:45:00+0200","id":124005,"name":"Georg","coordinate":{"longitude":11.58119965,"latitude":48.15919876},"fuelLevel":0.66,"lastAddress":"Ainmillerstraße 22, 80801 München, Germany"}
{"timestamp":"2016-10-02T22:45:00+0200","id":124032,"name":"Irmi","coordinate":{"longitude":11.57310009,"latitude":48.16019821},"fuelLevel":0.64,"lastAddress":"Isabellastraße 49, 80796 München, Germany"}
{"timestamp":"2016-10-02T22:45:00+0200","id":124037,"name":"Luise","coordinate":{"longitude":11.56639957,"latitude":48.15800095},"fuelLevel":0.58,"lastAddress":"Hiltenspergerstraße 18, 80798 München, Germany"}
{"timestamp":"2016-10-02T22:45:00+0200","id":124017,"name":"Siggi","coordinate":{"longitude":11.57069969,"latitude":48.16080093},"fuelLevel":0.56,"lastAddress":"Hohenzollernstraße 81, 80796 München, Germany"}
{"timestamp":"2016-10-02T22:45:00+0200","id":124029,"name":"Hannah","coordinate":{"longitude":11.51029968,"latitude":48.04529953},"fuelLevel":0.71,"lastAddress":"Gistlstraße 159, 82049 Pullach im Isartal, Germany"}
{"timestamp":"2016-10-02T22:45:00+0200","id":124042,"name":"Tilli","coordinate":{"longitude":11.50969982,"latitude":48.04539871},"fuelLevel":0.77,"lastAddress":"Seitnerstraße 70, 82049 Pullach im Isartal, Germany"}
{"timestamp":"2016-10-02T22:45:00+0200","id":124039,"name":"Marie","coordinate":{"longitude":11.75329971,"latitude":46.55680084},"fuelLevel":0.5555555555555556,"lastAddress":"Str. Rainell, 65, 39048 Selva di Val Gardena BZ, Italy"}
{"timestamp":"2016-10-02T22:45:00+0200","id":124009,"name":"Ludwig","coordinate":{"longitude":11.5848999,"latitude":48.16149902},"fuelLevel":0.8999999999999999,"lastAddress":"Leopoldstraße 61, 80802 München, Germany"}
{"timestamp":"2016-10-02T22:45:00+0200","id":124007,"name":"Jakob","coordinate":{"longitude":11.58670044,"latitude":48.16379929},"fuelLevel":0.9500000000000001,"lastAddress":"Leopoldstraße 85, 80802 München, Germany"}