{"timestamp":"2016-11-22T21:05:00+0100","id":124041,"name":"Sophie","coordinate":{"longitude":11.57891846,"latitude":48.15299988},"fuelLevel":0.5599999999999999,"lastAddress":"Akademiestraße 2, 80799 München, Germany"}
{"timestamp":"2016-11-22T21:05:00+0100","id":124026,"name":"Eva","coordinate":{"longitude":11.58128357,"latitude":48.15238953},"fuelLevel":0.75,"lastAddress":"Akademiestraße 3, 80799 München, Germany"}
{"timestamp":"2016-11-22T21:05:00+0100","id":124025,"name":"Elli","coordinate":{"longitude":11.58129883,"latitude":48.15249634},"fuelLevel":0.8400000000000001,"lastAddress":"Akademiestraße 3, 80799 München, Germany"}
{"timestamp":"2016-11-22T21:05:00+0100","id":124033,"name":"Johanna","coordinate":{"longitude":11.57980347,"latitude":48.15280151},"fuelLevel":0.7799999999999999,"lastAddress":"Akademiestraße 11, 80799 München, Germany"}
{"timestamp":"2016-11-22T21:05:00+0100","id":124024,"name":"Christl","coordinate":{"longitude":11.57701111,"latitude":48.13279724},"fuelLevel":0.6499999999999999,"lastAddress":"Buttermelcherstraße 4, 80469 München, Germany"}
{"timestamp":"2016-11-22T21:05:00+0100","id":124040,"name":"Reserl","coordinate":{"longitude":11.57479954,"latitude":48.1291008},"fuelLevel":0.83,"lastAddress":"Fraunhoferstraße 31, 80469 München, Germany"}
{"timestamp":"2016-11-22T21:05:00+0100","id":124021,"name":"Xaver","coordinate":{"longitude":11.58195496,"latitude":48.13108826},"fuelLevel":0.77,"lastAddress":"Kohlstraße 11, 80469 München, Germany"}
{"timestamp":"2016-11-22T21:05:00+0100","id":124014,"name":"Quirin","coordinate":{"longitude":11.60040283,"latitude":48.13400269},"fuelLevel":0.87,"lastAddress":"Kirchenstraße 12, 81675 München, Germany"}
{"timestamp":"2016-11-22T21:05:00+0100","id":124034,"name":"Kathi","coordinate":{"longitude":11.6058197,"latitude":48.13079834},"fuelLevel":0.75,"lastAddress":"Breisacher Str. 24, 81667 München, Germany"}
{"timestamp":"2016-11-22T21:05:00+0100","id":124030,"name":"Hedwig","coordinate":{"longitude":11.56137085,"latitude":48.1265564},"fuelLevel":0.86,"lastAddress":"Maistraße 59, 80337 München, Germany"}
{"timestamp":"2016-11-22T21:05:00+0100","id":124023,"name":"Babsi","coordinate":{"longitude":11.5644989,"latitude":48.13079834},"fuelLevel":0.91,"lastAddress":"Frauenlobstraße 2, 80337 München, Germany"}
{"timestamp":"2016-11-22T21:05:00+0100","id":124000,"name":"Bertl","coordinate":{"longitude":11.59490967,"latitude":48.1309967},"fuelLevel":0.8999999999999999,"lastAddress":"Milchstraße 2, 81667 München, Germany"}
{"timestamp":"2016-11-22T21:05:00+0100","id":124013,"name":"Poldi","coordinate":{"longitude":11.58961487,"latitude":48.12501526},"fuelLevel":0.79,"lastAddress":"Franziskanerstraße 47, 81669 München, Germany"}
{"timestamp":"2016-11-22T21:05:00+0100","id":124011,"name":"Maxl","coordinate":{"longitude":11.59370041,"latitude":48.12829971},"fuelLevel":0.5599999999999999,"lastAddress":"Franziskanerstraße 2, 81669 München, Germany"}
{"timestamp":"2016-11-22T21:05:00+0100","id":124003,"name":"Franzl","coordinate":{"longitude":11.58811951,"latitude":48.12538147},"fuelLevel":0.7200000000000001,"lastAddress":"Gebsattelstraße 16, 81541 München, Germany"}
{"timestamp":"2016-11-22T21:05:00+0100","id":124010,"name":"Luitpold","coordinate":{"longitude":11.58772278,"latitude":48.12780762},"fuelLevel":0.87,"lastAddress":"Hochstraße 19, 81669 München, Germany"}
{"timestamp":"2016-11-22T21:05:00+0100","id":124019,"name":"Valentin","coordinate":{"longitude":11.58200073,"latitude":48.1210022},"fuelLevel":0.64,"lastAddress":"Hochstraße 81, 81541 München, Germany"}
{"timestamp":"2016-11-22T21:05:00+0100","id":124035,"name":"Leonie","coordinate":{"longitude":11.58348083,"latitude":48.12767029},"fuelLevel":0.8800000000000001,"lastAddress":"Zeppelinstraße 39, 81669 München, Germany"}
{"timestamp":"2016-11-22T21:05:00+0100","id":124006,"name":"Gustl","coordinate":{"longitude":11.57600021,"latitude":48.12099838},"fuelLevel":0.86,"lastAddress":"Kolumbusstraße 22, 81543 München, Germany"}
{"timestamp":"2016-11-22T21:05:00+0100","id":124020,"name":"Vinzenz","coordinate":{"longitude":11.5770874,"latitude":48.1231842},"fuelLevel":0.86,"lastAddress":"Schlotthauerstraße 11, 81541 München, Germany"}
{"timestamp":"2016-11-22T21:05:00+0100","id":124049,"name":"Marei","coordinate":{"longitude":11.5776062,"latitude":48.12039185},"fuelLevel":0.8999999999999999,"lastAddress":"Dollmannstraße 4, 81541 München, Germany"}
{"timestamp":"2016-11-22T21:05:00+0100","id":124018,"name":"Toni","coordinate":{"longitude":11.56890869,"latitude":48.12397766},"fuelLevel":0.9099999999999999,"lastAddress":"Wittelsbacherstraße 10-11, 80469 München, Germany"}
{"timestamp":"2016-11-22T21:05:00+0100","id":124012,"name":"Peter","coordinate":{"longitude":11.5599823,"latitude":48.15499878},"fuelLevel":0.6,"lastAddress":"Schellingstraße 138, 80797 München, Germany"}
{"timestamp":"2016-11-22T21:05:00+0100","id":124004,"name":"Fridl","coordinate":{"longitude":11.55908203,"latitude":48.15391541},"fuelLevel":0.86,"lastAddress":"Heßstraße 79, 80797 München, Germany"}
{"timestamp":"2016-11-22T21:05:00+0100","id":124031,"name":"Heidi","coordinate":{"longitude":11.57020569,"latitude":48.14949036},"fuelLevel":0.51,"lastAddress":"Theresienstraße, 80333 München, Germany"}
{"timestamp":"2016-11-22T21:05:00+0100","id":124047,"name":"Walli","coordinate":{"longitude":11.56718445,"latitude":48.15080261},"fuelLevel":0.75,"lastAddress":"Luisenstraße 63, 80798 München, Germany"}
{"timestamp":"2016-11-22T21:05:00+0100","id":124002,"name":"Ferdl","coordinate":{"longitude":11.56400013,"latitude":48.15029907},"fuelLevel":0.8999999999999999,"lastAddress":"Augustenstraße 76, 80333 München, Germany"}
{"timestamp":"2016-11-22T21:05:00+0100","id":124048,"name":"Wiggerl","coordinate":{"longitude":11.57739258,"latitude":48.15899658},"fuelLevel":0.8,"lastAddress":"Ainmillerstraße 33, 80801 München, Germany"}
{"timestamp":"2016-11-22T21:05:00+0100","id":124028,"name":"Gitte","coordinate":{"longitude":11.579422,"latitude":48.1577301},"fuelLevel":0.9099999999999999,"lastAddress":"Franz-Joseph-Straße 25, 80801 München, Germany"}
{"timestamp":"2016-11-22T21:05:00+0100","id":124027,"name":"Fanni","coordinate":{"longitude":11.58340454,"latitude":48.16091919},"fuelLevel":0.8800000000000001,"lastAddress":"Kaiserstraße 22, 80801 München, Germany"}
{"timestamp":"2016-11-22T21:05:00+0100","id":124005,"name":"Georg","coordinate":{"longitude":11.5769043,"latitude":48.15829468},"fuelLevel":0.8,"lastAddress":"Römerstraße 3, 80801 München, Germany"}
{"timestamp":"2016-11-22T21:05:00+0100","id":124001,"name":"Edmund","coordinate":{"longitude":11.58061218,"latitude":48.16090393},"fuelLevel":0.5599999999999999,"lastAddress":"Kaiserstraße 33, 80801 München, Germany"}
{"timestamp":"2016-11-22T21:05:00+0100","id":124032,"name":"Irmi","coordinate":{"longitude":11.5749054,"latitude":48.15969849},"fuelLevel":0.61,"lastAddress":"Kurfürstenpl. 1A, 80796 München, Germany"}
{"timestamp":"2016-11-22T21:05:00+0100","id":124037,"name":"Luise","coordinate":{"longitude":11.56230164,"latitude":48.15731812},"fuelLevel":0.55,"lastAddress":"Schleißheimer Str. 79, 80797 München, Germany"}
{"timestamp":"2016-11-22T21:05:00+0100","id":124017,"name":"Siggi","coordinate":{"longitude":11.5692997,"latitude":48.15919876},"fuelLevel":0.63,"lastAddress":"Elisabethstraße 30, 80796 München, Germany"}
{"timestamp":"2016-11-22T21:05:00+0100","id":124039,"name":"Marie","coordinate":{"longitude":11.50570011,"latitude":48.04430008},"fuelLevel":0.76,"lastAddress":"Wolfratshauser Str. 138, 82049 Pullach im Isartal, Germany"}
{"timestamp":"2016-11-22T21:05:00+0100","id":124009,"name":"Ludwig","coordinate":{"longitude":11.58239746,"latitude":48.16560364},"fuelLevel":0.7200000000000001,"lastAddress":"Muffatstraße 8, 80803 München, Germany"}
{"timestamp":"2016-11-22T21:05:00+0100","id":124007,"name":"Jakob","coordinate":{"longitude":11.57649231,"latitude":48.16668701},"fuelLevel":0.6499999999999999,"lastAddress":"Karl-Theodor-Straße 63, 80803 München, Germany"}