{"timestamp":"2016-10-17T03:40:00+0200","id":124041,"name":"Sophie","coordinate":{"longitude":11.57839966,"latitude":48.15380096},"fuelLevel":0.8300000000000001,"lastAddress":"Türkenstraße 104, 80799 München, Germany"}
{"timestamp":"2016-10-17T03:40:00+0200","id":124026,"name":"Eva","coordinate":{"longitude":11.58110046,"latitude":48.14989853},"fuelLevel":0.9199999999999999,"lastAddress":"Ludwigstraße 24, 80539 München, Germany"}
{"timestamp":"2016-10-17T03:40:00+0200","id":124025,"name":"Elli","coordinate":{"longitude":11.57929993,"latitude":48.15570068},"fuelLevel":0.8300000000000001,"lastAddress":"Konradstraße 16, 80801 München, Germany"}
{"timestamp":"2016-10-17T03:40:00+0200","id":124044,"name":"Uschi","coordinate":{"longitude":11.57209969,"latitude":48.13150024},"fuelLevel":0.8,"lastAddress":"Müllerstraße 15, 80469 München, Germany"}
{"timestamp":"2016-10-17T03:40:00+0200","id":124040,"name":"Reserl","coordinate":{"longitude":11.57260036,"latitude":48.13240051},"fuelLevel":0.79,"lastAddress":"Blumenstraße 19, 80331 München, Germany"}
{"timestamp":"2016-10-17T03:40:00+0200","id":124021,"name":"Xaver","coordinate":{"longitude":11.58069992,"latitude":48.12990189},"fuelLevel":0.9199999999999999,"lastAddress":"Erhardtstraße 27, 80469 München, Germany"}
{"timestamp":"2016-10-17T03:40:00+0200","id":124014,"name":"Quirin","coordinate":{"longitude":11.59759998,"latitude":48.13470078},"fuelLevel":0.57,"lastAddress":"Innere Wiener Straße 58, 81667 München, Germany"}
{"timestamp":"2016-10-17T03:40:00+0200","id":124034,"name":"Kathi","coordinate":{"longitude":11.60900021,"latitude":48.13290024},"fuelLevel":0.57,"lastAddress":"Kirchenstraße 89, 81675 München, Germany"}
{"timestamp":"2016-10-17T03:40:00+0200","id":124016,"name":"Sepp","coordinate":{"longitude":11.59819984,"latitude":48.12609863},"fuelLevel":0.88,"lastAddress":"Rosenheimer Str. 123, 81667 München, Germany"}
{"timestamp":"2016-10-17T03:40:00+0200","id":124038,"name":"Magda","coordinate":{"longitude":11.60050011,"latitude":48.12810135},"fuelLevel":0.67,"lastAddress":"Gravelottestraße 1, 81667 München, Germany"}
{"timestamp":"2016-10-17T03:40:00+0200","id":124013,"name":"Poldi","coordinate":{"longitude":11.59440041,"latitude":48.12779999},"fuelLevel":0.61,"lastAddress":"Balanstraße 4, 81669 München, Germany"}
{"timestamp":"2016-10-17T03:40:00+0200","id":124011,"name":"Maxl","coordinate":{"longitude":11.59519958,"latitude":48.12789917},"fuelLevel":0.6699999999999999,"lastAddress":"Rosenheimer Str. 75, 81667 München, Germany"}
{"timestamp":"2016-10-17T03:40:00+0200","id":124003,"name":"Franzl","coordinate":{"longitude":11.59290028,"latitude":48.12760162},"fuelLevel":0.8,"lastAddress":"Franziskanerstraße 8, 81669 München, Germany"}
{"timestamp":"2016-10-17T03:40:00+0200","id":124010,"name":"Luitpold","coordinate":{"longitude":11.58790016,"latitude":48.12760162},"fuelLevel":0.87,"lastAddress":"Hochstraße 19, 81669 München, Germany"}
{"timestamp":"2016-10-17T03:40:00+0200","id":124020,"name":"Vinzenz","coordinate":{"longitude":11.57820034,"latitude":48.1230011},"fuelLevel":0.81,"lastAddress":"Entenbachstraße 29, 81541 München, Germany"}
{"timestamp":"2016-10-17T03:40:00+0200","id":124049,"name":"Marei","coordinate":{"longitude":11.57419968,"latitude":48.12250137},"fuelLevel":0.9400000000000001,"lastAddress":"Eduard-Schmid-Straße 34, 81541 München, Germany"}
{"timestamp":"2016-10-17T03:40:00+0200","id":124045,"name":"Vroni","coordinate":{"longitude":11.5649004,"latitude":48.12409973},"fuelLevel":0.64,"lastAddress":"Kapuzinerstraße 37, 80469 München, Germany"}
{"timestamp":"2016-10-17T03:40:00+0200","id":124018,"name":"Toni","coordinate":{"longitude":11.56999969,"latitude":48.12950134},"fuelLevel":0.6499999999999999,"lastAddress":"Hans-Sachs-Straße 11, 80469 München, Germany"}
{"timestamp":"2016-10-17T03:40:00+0200","id":124012,"name":"Peter","coordinate":{"longitude":11.56120014,"latitude":48.15459824},"fuelLevel":0.9600000000000001,"lastAddress":"Schleißheimer Str. 49, 80797 München, Germany"}
{"timestamp":"2016-10-17T03:40:00+0200","id":124004,"name":"Fridl","coordinate":{"longitude":11.55580044,"latitude":48.15530014},"fuelLevel":0.58,"lastAddress":"Lothstraße 64, 80335 München, Germany"}
{"timestamp":"2016-10-17T03:40:00+0200","id":124031,"name":"Heidi","coordinate":{"longitude":11.56709957,"latitude":48.15200043},"fuelLevel":0.63,"lastAddress":"Heßstraße 46, 80798 München, Germany"}
{"timestamp":"2016-10-17T03:40:00+0200","id":124047,"name":"Walli","coordinate":{"longitude":11.56949997,"latitude":48.14920044},"fuelLevel":0.71,"lastAddress":"Arcisstraße 21, 80333 München, Germany"}
{"timestamp":"2016-10-17T03:40:00+0200","id":124048,"name":"Wiggerl","coordinate":{"longitude":11.58069992,"latitude":48.16260147},"fuelLevel":0.67,"lastAddress":"Herzogstraße 31, 80803 München, Germany"}
{"timestamp":"2016-10-17T03:40:00+0200","id":124028,"name":"Gitte","coordinate":{"longitude":11.57520008,"latitude":48.16070175},"fuelLevel":0.7200000000000001,"lastAddress":"Belgradstraße 2, 80796 München, Germany"}
{"timestamp":"2016-10-17T03:40:00+0200","id":124032,"name":"Irmi","coordinate":{"longitude":11.57089996,"latitude":48.16090012},"fuelLevel":0.44,"lastAddress":"Hohenzollernstraße 112, 80796 München, Germany"}
{"timestamp":"2016-10-17T03:40:00+0200","id":124037,"name":"Luise","coordinate":{"longitude":11.57069969,"latitude":48.15729904},"fuelLevel":0.52,"lastAddress":"Agnesstraße 9, 80798 München, Germany"}
{"timestamp":"2016-10-17T03:40:00+0200","id":124017,"name":"Siggi","coordinate":{"longitude":11.57250023,"latitude":48.16070175},"fuelLevel":0.56,"lastAddress":"Hohenzollernstraße 102, 80796 München, Germany"}
{"timestamp":"2016-10-17T03:40:00+0200","id":124029,"name":"Hannah","coordinate":{"longitude":11.50949955,"latitude":48.04510117},"fuelLevel":0.59,"lastAddress":"Seitnerstraße 70, 82049 Pullach im Isartal, Germany"}
{"timestamp":"2016-10-17T03:40:00+0200","id":124039,"name":"Marie","coordinate":{"longitude":11.50940037,"latitude":48.04539871},"fuelLevel":0.63,"lastAddress":"Seitnerstraße 70, 82049 Pullach im Isartal, Germany"}
{"timestamp":"2016-10-17T03:40:00+0200","id":124009,"name":"Ludwig","coordinate":{"longitude":11.58360004,"latitude":48.16270065},"fuelLevel":0.6499999999999999,"lastAddress":"Wilhelmstraße 39, 80801 München, Germany"}