{"timestamp":"2016-10-07T17:05:00+0200","id":124041,"name":"Sophie","coordinate":{"longitude":11.5777998,"latitude":48.14989853},"fuelLevel":0.9400000000000001,"lastAddress":"Schellingstraße 16, 80799 München, Germany"}
{"timestamp":"2016-10-07T17:05:00+0200","id":124026,"name":"Eva","coordinate":{"longitude":11.57839966,"latitude":48.15359879},"fuelLevel":0.61,"lastAddress":"Türkenstraße 95, 80799 München, Germany"}
{"timestamp":"2016-10-07T17:05:00+0200","id":124025,"name":"Elli","coordinate":{"longitude":11.57610035,"latitude":48.1576004},"fuelLevel":0.9,"lastAddress":"Franz-Joseph-Straße 43, 80801 München, Germany"}
{"timestamp":"2016-10-07T17:05:00+0200","id":124033,"name":"Johanna","coordinate":{"longitude":11.58160019,"latitude":48.15140152},"fuelLevel":0.82,"lastAddress":"Ludwigstraße 29, 80539 München, Germany"}
{"timestamp":"2016-10-07T17:05:00+0200","id":124036,"name":"Liesel","coordinate":{"longitude":11.60879993,"latitude":48.12630081},"fuelLevel":0.6699999999999999,"lastAddress":"Haager Str. 12-14, 81671 München, Germany"}
{"timestamp":"2016-10-07T17:05:00+0200","id":124044,"name":"Uschi","coordinate":{"longitude":11.57250023,"latitude":48.13180161},"fuelLevel":0.9199999999999999,"lastAddress":"Müllerstraße 9, 80469 München, Germany"}
{"timestamp":"2016-10-07T17:05:00+0200","id":124024,"name":"Christl","coordinate":{"longitude":11.5795002,"latitude":48.13370132},"fuelLevel":0.8,"lastAddress":"Klenzestraße 1A, 80469 München, Germany"}
{"timestamp":"2016-10-07T17:05:00+0200","id":124040,"name":"Reserl","coordinate":{"longitude":11.5717001,"latitude":48.13169861},"fuelLevel":0.83,"lastAddress":"Müllerstraße 26, 80469 München, Germany"}
{"timestamp":"2016-10-07T17:05:00+0200","id":124021,"name":"Xaver","coordinate":{"longitude":11.58170033,"latitude":48.13069916},"fuelLevel":0.9500000000000001,"lastAddress":"Erhardtstraße 27, 80469 München, Germany"}
{"timestamp":"2016-10-07T17:05:00+0200","id":124014,"name":"Quirin","coordinate":{"longitude":11.60509968,"latitude":48.13280106},"fuelLevel":0.6000000000000001,"lastAddress":"Elsässer Str. 2, 81667 München, Germany"}
{"timestamp":"2016-10-07T17:05:00+0200","id":124034,"name":"Kathi","coordinate":{"longitude":11.60480022,"latitude":48.13240051},"fuelLevel":0.66,"lastAddress":"Elsässer Str. 6, 81667 München, Germany"}
{"timestamp":"2016-10-07T17:05:00+0200","id":124016,"name":"Sepp","coordinate":{"longitude":11.59840012,"latitude":48.1257019},"fuelLevel":0.9299999999999999,"lastAddress":"Rosenheimer Str. 100, 81669 München, Germany"}
{"timestamp":"2016-10-07T17:05:00+0200","id":124038,"name":"Magda","coordinate":{"longitude":11.60039997,"latitude":48.12820053},"fuelLevel":0.67,"lastAddress":"Gravelottestraße 1, 81667 München, Germany"}
{"timestamp":"2016-10-07T17:05:00+0200","id":124022,"name":"Anne","coordinate":{"longitude":11.59420013,"latitude":48.12789917},"fuelLevel":0.86,"lastAddress":"Balanstraße 2, 81669 München, Germany"}
{"timestamp":"2016-10-07T17:05:00+0200","id":124000,"name":"Bertl","coordinate":{"longitude":11.59459972,"latitude":48.12810135},"fuelLevel":0.82,"lastAddress":"Rosenheimer Str. 62, 81669 München, Germany"}
{"timestamp":"2016-10-07T17:05:00+0200","id":124013,"name":"Poldi","coordinate":{"longitude":11.59560013,"latitude":48.12820053},"fuelLevel":0.79,"lastAddress":"Metzstraße 2, 81667 München, Germany"}
{"timestamp":"2016-10-07T17:05:00+0200","id":124011,"name":"Maxl","coordinate":{"longitude":11.59319973,"latitude":48.125},"fuelLevel":0.73,"lastAddress":"St.-Wolfgangs-Platz 11, 81669 München, Germany"}
{"timestamp":"2016-10-07T17:05:00+0200","id":124003,"name":"Franzl","coordinate":{"longitude":11.59319973,"latitude":48.12749863},"fuelLevel":0.8,"lastAddress":"Franziskanerstraße 13, 81669 München, Germany"}
{"timestamp":"2016-10-07T17:05:00+0200","id":124010,"name":"Luitpold","coordinate":{"longitude":11.58430004,"latitude":48.12749863},"fuelLevel":0.9500000000000001,"lastAddress":"Lilienstraße 68, 81669 München, Germany"}
{"timestamp":"2016-10-07T17:05:00+0200","id":124019,"name":"Valentin","coordinate":{"longitude":11.58530045,"latitude":48.12400055},"fuelLevel":0.87,"lastAddress":"Hochstraße 47A, 81541 München, Germany"}
{"timestamp":"2016-10-07T17:05:00+0200","id":124035,"name":"Leonie","coordinate":{"longitude":11.5862999,"latitude":48.12960052},"fuelLevel":0.7899999999999999,"lastAddress":"Lilienstraße 26, 81669 München, Germany"}
{"timestamp":"2016-10-07T17:05:00+0200","id":124006,"name":"Gustl","coordinate":{"longitude":11.57759953,"latitude":48.12110138},"fuelLevel":0.9400000000000001,"lastAddress":"Falkenstraße 44, 81541 München, Germany"}
{"timestamp":"2016-10-07T17:05:00+0200","id":124020,"name":"Vinzenz","coordinate":{"longitude":11.57699966,"latitude":48.12440109},"fuelLevel":0.8999999999999999,"lastAddress":"Albanistraße 5, 81541 München, Germany"}
{"timestamp":"2016-10-07T17:05:00+0200","id":124049,"name":"Marei","coordinate":{"longitude":11.57429981,"latitude":48.11989975},"fuelLevel":0.69,"lastAddress":"Humboldtstraße 24-26, 81543 München, Germany"}
{"timestamp":"2016-10-07T17:05:00+0200","id":124045,"name":"Vroni","coordinate":{"longitude":11.56729984,"latitude":48.12770081},"fuelLevel":0.9199999999999999,"lastAddress":"Holzstraße 34, 80469 München, Germany"}
{"timestamp":"2016-10-07T17:05:00+0200","id":124018,"name":"Toni","coordinate":{"longitude":11.57019997,"latitude":48.13090134},"fuelLevel":0.9199999999999999,"lastAddress":"Müllerstraße 34, 80469 München, Germany"}
{"timestamp":"2016-10-07T17:05:00+0200","id":124012,"name":"Peter","coordinate":{"longitude":11.57250023,"latitude":48.14979935},"fuelLevel":1,"lastAddress":"Barer Str. 48-50, 80799 München, Germany"}
{"timestamp":"2016-10-07T17:05:00+0200","id":124004,"name":"Fridl","coordinate":{"longitude":11.56480026,"latitude":48.1568985},"fuelLevel":0.55,"lastAddress":"Georgenstraße 126, 80798 München, Germany"}
{"timestamp":"2016-10-07T17:05:00+0200","id":124031,"name":"Heidi","coordinate":{"longitude":11.56879997,"latitude":48.15299988},"fuelLevel":0.8,"lastAddress":"Zieblandstraße 21, 80799 München, Germany"}
{"timestamp":"2016-10-07T17:05:00+0200","id":124047,"name":"Walli","coordinate":{"longitude":11.57019997,"latitude":48.15050125},"fuelLevel":0.83,"lastAddress":"Arcisstraße 32, 80799 München, Germany"}
{"timestamp":"2016-10-07T17:05:00+0200","id":124002,"name":"Ferdl","coordinate":{"longitude":11.56470013,"latitude":48.15219879},"fuelLevel":0.9500000000000001,"lastAddress":"Heßstraße 39/41, 80798 München, Germany"}
{"timestamp":"2016-10-07T17:05:00+0200","id":124048,"name":"Wiggerl","coordinate":{"longitude":11.5788002,"latitude":48.16120148},"fuelLevel":0.68,"lastAddress":"Kaiserstraße 45, 80801 München, Germany"}
{"timestamp":"2016-10-07T17:05:00+0200","id":124028,"name":"Gitte","coordinate":{"longitude":11.57699966,"latitude":48.16040039},"fuelLevel":0.75,"lastAddress":"Römerstraße 21, 80801 München, Germany"}
{"timestamp":"2016-10-07T17:05:00+0200","id":124027,"name":"Fanni","coordinate":{"longitude":11.57789993,"latitude":48.1590004},"fuelLevel":0.7899999999999999,"lastAddress":"Ainmillerstraße 40, 80801 München, Germany"}
{"timestamp":"2016-10-07T17:05:00+0200","id":124005,"name":"Georg","coordinate":{"longitude":11.58150005,"latitude":48.15869904},"fuelLevel":0.66,"lastAddress":"Ainmillerstraße 15, 80801 München, Germany"}
{"timestamp":"2016-10-07T17:05:00+0200","id":124001,"name":"Edmund","coordinate":{"longitude":11.57900047,"latitude":48.15769958},"fuelLevel":0.5700000000000001,"lastAddress":"Franz-Joseph-Straße 27, 80801 München, Germany"}
{"timestamp":"2016-10-07T17:05:00+0200","id":124032,"name":"Irmi","coordinate":{"longitude":11.57310009,"latitude":48.16019821},"fuelLevel":0.64,"lastAddress":"Isabellastraße 49, 80796 München, Germany"}
{"timestamp":"2016-10-07T17:05:00+0200","id":124017,"name":"Siggi","coordinate":{"longitude":11.57159996,"latitude":48.16090012},"fuelLevel":0.56,"lastAddress":"Hohenzollernstraße 108, 80796 München, Germany"}
{"timestamp":"2016-10-07T17:05:00+0200","id":124029,"name":"Hannah","coordinate":{"longitude":11.51029968,"latitude":48.04539871},"fuelLevel":0.7,"lastAddress":"Gistlstraße 159, 82049 Pullach im Isartal, Germany"}
{"timestamp":"2016-10-07T17:05:00+0200","id":124008,"name":"Johann","coordinate":{"longitude":11.51000023,"latitude":48.04550171},"fuelLevel":0.87,"lastAddress":"Gistlstraße 159, 82049 Pullach im Isartal, Germany"}
{"timestamp":"2016-10-07T17:05:00+0200","id":124039,"name":"Marie","coordinate":{"longitude":11.50959969,"latitude":48.04550171},"fuelLevel":0.58,"lastAddress":"Seitnerstraße 70, 82049 Pullach im Isartal, Germany"}
{"timestamp":"2016-10-07T17:05:00+0200","id":124009,"name":"Ludwig","coordinate":{"longitude":11.5848999,"latitude":48.16210175},"fuelLevel":0.8999999999999999,"lastAddress":"Herzogstraße 4, 80803 München, Germany"}
{"timestamp":"2016-10-07T17:05:00+0200","id":124007,"name":"Jakob","coordinate":{"longitude":11.57479954,"latitude":48.16669846},"fuelLevel":0.9400000000000001,"lastAddress":"Karl-Theodor-Straße 75, 80803 München, Germany"}