{"timestamp":"2016-10-22T08:20:32+0200","id":124025,"name":"Elli","coordinate":{"longitude":11.57929993,"latitude":48.1557312},"fuelLevel":0.8300000000000001,"lastAddress":"Konradstraße 16, 80801 München, Germany"}
{"timestamp":"2016-10-22T08:20:32+0200","id":124033,"name":"Johanna","coordinate":{"longitude":11.50650024,"latitude":48.09120178},"fuelLevel":0.6597222222222222,"lastAddress":"Meglingerstraße 27, 81477 München, Germany"}
{"timestamp":"2016-10-22T08:20:32+0200","id":124021,"name":"Xaver","coordinate":{"longitude":11.57359314,"latitude":48.13000488},"fuelLevel":0.77,"lastAddress":"Klenzestraße 49, 80469 München, Germany"}
{"timestamp":"2016-10-22T08:20:32+0200","id":124014,"name":"Quirin","coordinate":{"longitude":11.5970459,"latitude":48.13442993},"fuelLevel":0.5299999999999999,"lastAddress":"Innere Wiener Straße 55, 81667 München, Germany"}
{"timestamp":"2016-10-22T08:20:32+0200","id":124030,"name":"Hedwig","coordinate":{"longitude":11.61260033,"latitude":48.12179947},"fuelLevel":0.9236111111111112,"lastAddress":"Aschheimer Str. 21, 81671 München, Germany"}
{"timestamp":"2016-10-22T08:20:32+0200","id":124022,"name":"Anne","coordinate":{"longitude":11.59768677,"latitude":48.12628174},"fuelLevel":0.6900000000000001,"lastAddress":"Rosenheimer Str. 94, 81669 München, Germany"}
{"timestamp":"2016-10-22T08:20:32+0200","id":124013,"name":"Poldi","coordinate":{"longitude":11.59430027,"latitude":48.12799835},"fuelLevel":0.61,"lastAddress":"Rosenheimer Pl. 2, 81669 München, Germany"}
{"timestamp":"2016-10-22T08:20:32+0200","id":124011,"name":"Maxl","coordinate":{"longitude":11.59757996,"latitude":48.12411499},"fuelLevel":0.61,"lastAddress":"Orleansstraße 4A, 81669 München, Germany"}
{"timestamp":"2016-10-22T08:20:32+0200","id":124003,"name":"Franzl","coordinate":{"longitude":11.59850025,"latitude":48.12590027},"fuelLevel":0.22,"lastAddress":"Rosenheimer Str. 125, 81667 München, Germany"}
{"timestamp":"2016-10-22T08:20:32+0200","id":124019,"name":"Valentin","coordinate":{"longitude":11.58198547,"latitude":48.12519836},"fuelLevel":0.76,"lastAddress":"Mariahilfpl. 23, 81541 München, Germany"}
{"timestamp":"2016-10-22T08:20:32+0200","id":124006,"name":"Gustl","coordinate":{"longitude":11.57750034,"latitude":48.1242981},"fuelLevel":0.8300000000000001,"lastAddress":"Asamstraße 13, 81541 München, Germany"}
{"timestamp":"2016-10-22T08:20:32+0200","id":124020,"name":"Vinzenz","coordinate":{"longitude":11.57801819,"latitude":48.12542725},"fuelLevel":0.75,"lastAddress":"Boosstraße 7, 81541 München, Germany"}
{"timestamp":"2016-10-22T08:20:32+0200","id":124049,"name":"Marei","coordinate":{"longitude":11.57402039,"latitude":48.12229919},"fuelLevel":0.9400000000000001,"lastAddress":"Sommerstraße 8, 81543 München, Germany"}
{"timestamp":"2016-10-22T08:20:32+0200","id":124045,"name":"Vroni","coordinate":{"longitude":11.56517029,"latitude":48.12400818},"fuelLevel":0.64,"lastAddress":"Kapuzinerstraße 39, 80469 München, Germany"}
{"timestamp":"2016-10-22T08:20:32+0200","id":124018,"name":"Toni","coordinate":{"longitude":11.57149982,"latitude":48.13280106},"fuelLevel":0.6499999999999999,"lastAddress":"Unterer Anger 3, 80331 München, Germany"}
{"timestamp":"2016-10-22T08:20:32+0200","id":124012,"name":"Peter","coordinate":{"longitude":11.55619812,"latitude":48.15519714},"fuelLevel":0.26999999999999996,"lastAddress":"Heßstraße 112, 80797 München, Germany"}
{"timestamp":"2016-10-22T08:20:32+0200","id":124004,"name":"Fridl","coordinate":{"longitude":11.56260014,"latitude":48.1576004},"fuelLevel":0.58,"lastAddress":"Schleißheimer Str. 110, 80797 München, Germany"}
{"timestamp":"2016-10-22T08:20:32+0200","id":124031,"name":"Heidi","coordinate":{"longitude":11.56303406,"latitude":48.15020752},"fuelLevel":0.62,"lastAddress":"Augustenstraße 69, 80333 München, Germany"}
{"timestamp":"2016-10-22T08:20:32+0200","id":124048,"name":"Wiggerl","coordinate":{"longitude":11.57531738,"latitude":48.15890503},"fuelLevel":0.6000000000000001,"lastAddress":"Nordendstraße 62, 80801 München, Germany"}
{"timestamp":"2016-10-22T08:20:32+0200","id":124028,"name":"Gitte","coordinate":{"longitude":11.57571411,"latitude":48.15911865},"fuelLevel":0.7200000000000001,"lastAddress":"Ainmillerstraße 41, 80801 München, Germany"}
{"timestamp":"2016-10-22T08:20:32+0200","id":124001,"name":"Edmund","coordinate":{"longitude":11.57498169,"latitude":48.16181946},"fuelLevel":0.45,"lastAddress":"Viktor-Scheffel-Straße 23, 80803 München, Germany"}
{"timestamp":"2016-10-22T08:20:32+0200","id":124032,"name":"Irmi","coordinate":{"longitude":11.56559753,"latitude":48.1592865},"fuelLevel":0.64,"lastAddress":"Zentnerstraße 38, 80798 München, Germany"}
{"timestamp":"2016-10-22T08:20:32+0200","id":124037,"name":"Luise","coordinate":{"longitude":11.57211304,"latitude":48.15710449},"fuelLevel":0.9500000000000001,"lastAddress":"Agnesstraße 1-3, 80801 München, Germany"}
{"timestamp":"2016-10-22T08:20:32+0200","id":124017,"name":"Siggi","coordinate":{"longitude":11.56779957,"latitude":48.15940094},"fuelLevel":0.54,"lastAddress":"Elisabethstraße 40, 80796 München, Germany"}
{"timestamp":"2016-10-22T08:20:32+0200","id":124008,"name":"Johann","coordinate":{"longitude":11.50971985,"latitude":48.04550171},"fuelLevel":0.44999999999999996,"lastAddress":"Seitnerstraße 70, 82049 Pullach im Isartal, Germany"}
{"timestamp":"2016-10-22T08:20:32+0200","id":124009,"name":"Ludwig","coordinate":{"longitude":11.58639526,"latitude":48.16540527},"fuelLevel":0.59,"lastAddress":"Leopoldstraße 106, 80802 München, Germany"}