{"timestamp":"2016-10-20T08:15:00+0200","id":124041,"name":"Sophie","coordinate":{"longitude":11.58090019,"latitude":48.15140152},"fuelLevel":0.78,"lastAddress":"Hauptgebäude, Geschwister-Scholl-Platz 1, 80539 München, Germany"}
{"timestamp":"2016-10-20T08:15:00+0200","id":124026,"name":"Eva","coordinate":{"longitude":11.58069992,"latitude":48.15039825},"fuelLevel":0.9199999999999999,"lastAddress":"Geschwister-Scholl-Platz 1, 80539 München, Germany"}
{"timestamp":"2016-10-20T08:15:00+0200","id":124025,"name":"Elli","coordinate":{"longitude":11.57929993,"latitude":48.15570068},"fuelLevel":0.8300000000000001,"lastAddress":"Konradstraße 16, 80801 München, Germany"}
{"timestamp":"2016-10-20T08:15:00+0200","id":124044,"name":"Uschi","coordinate":{"longitude":11.57260036,"latitude":48.13190079},"fuelLevel":0.71,"lastAddress":"Müllerstraße 9, 80469 München, Germany"}
{"timestamp":"2016-10-20T08:15:00+0200","id":124040,"name":"Reserl","coordinate":{"longitude":11.57240009,"latitude":48.13299942},"fuelLevel":0.77,"lastAddress":"Blumenstraße 28, 80331 München, Germany"}
{"timestamp":"2016-10-20T08:15:00+0200","id":124014,"name":"Quirin","coordinate":{"longitude":11.59720039,"latitude":48.13439941},"fuelLevel":0.57,"lastAddress":"Innere Wiener Straße 55-57, 81667 München, Germany"}
{"timestamp":"2016-10-20T08:15:00+0200","id":124034,"name":"Kathi","coordinate":{"longitude":11.60890007,"latitude":48.13280106},"fuelLevel":0.57,"lastAddress":"Kirchenstraße 89, 81675 München, Germany"}
{"timestamp":"2016-10-20T08:15:00+0200","id":124013,"name":"Poldi","coordinate":{"longitude":11.59420013,"latitude":48.12779999},"fuelLevel":0.61,"lastAddress":"Balanstraße 2, 81669 München, Germany"}
{"timestamp":"2016-10-20T08:15:00+0200","id":124011,"name":"Maxl","coordinate":{"longitude":11.59469986,"latitude":48.12810135},"fuelLevel":0.6699999999999999,"lastAddress":"Rosenheimer Str. 62, 81667 München, Germany"}
{"timestamp":"2016-10-20T08:15:00+0200","id":124003,"name":"Franzl","coordinate":{"longitude":11.59319973,"latitude":48.1271019},"fuelLevel":0.7799999999999999,"lastAddress":"Franziskanerstraße 17, 81669 München, Germany"}
{"timestamp":"2016-10-20T08:15:00+0200","id":124010,"name":"Luitpold","coordinate":{"longitude":11.58749962,"latitude":48.12720108},"fuelLevel":0.87,"lastAddress":"Hochstraße 19C, 81669 München, Germany"}
{"timestamp":"2016-10-20T08:15:00+0200","id":124020,"name":"Vinzenz","coordinate":{"longitude":11.57789993,"latitude":48.12540054},"fuelLevel":0.75,"lastAddress":"Boosstraße 4-8, 81541 München, Germany"}
{"timestamp":"2016-10-20T08:15:00+0200","id":124049,"name":"Marei","coordinate":{"longitude":11.57429981,"latitude":48.12269974},"fuelLevel":0.9400000000000001,"lastAddress":"Eduard-Schmid-Straße 34, 81541 München, Germany"}
{"timestamp":"2016-10-20T08:15:00+0200","id":124045,"name":"Vroni","coordinate":{"longitude":11.56519985,"latitude":48.12440109},"fuelLevel":0.64,"lastAddress":"Geyerstraße 26, 80469 München, Germany"}
{"timestamp":"2016-10-20T08:15:00+0200","id":124018,"name":"Toni","coordinate":{"longitude":11.56960011,"latitude":48.12919998},"fuelLevel":0.6499999999999999,"lastAddress":"Hans-Sachs-Straße 18, 80469 München, Germany"}
{"timestamp":"2016-10-20T08:15:00+0200","id":124004,"name":"Fridl","coordinate":{"longitude":11.55580044,"latitude":48.15520096},"fuelLevel":0.58,"lastAddress":"Lothstraße 64, 80335 München, Germany"}
{"timestamp":"2016-10-20T08:15:00+0200","id":124031,"name":"Heidi","coordinate":{"longitude":11.56299973,"latitude":48.14989853},"fuelLevel":0.62,"lastAddress":"Augustenstraße 65, 80333 München, Germany"}
{"timestamp":"2016-10-20T08:15:00+0200","id":124047,"name":"Walli","coordinate":{"longitude":11.5717001,"latitude":48.14789963},"fuelLevel":0.6499999999999999,"lastAddress":"Barer Str. 40, 80333 München, Germany"}
{"timestamp":"2016-10-20T08:15:00+0200","id":124028,"name":"Gitte","coordinate":{"longitude":11.57559967,"latitude":48.15999985},"fuelLevel":0.7200000000000001,"lastAddress":"Kurfürstenpl. 6, 80796 München, Germany"}
{"timestamp":"2016-10-20T08:15:00+0200","id":124032,"name":"Irmi","coordinate":{"longitude":11.57059956,"latitude":48.15909958},"fuelLevel":0.9400000000000001,"lastAddress":"Jakob-Klar-Straße 1, 80796 München, Germany"}
{"timestamp":"2016-10-20T08:15:00+0200","id":124037,"name":"Luise","coordinate":{"longitude":11.57229996,"latitude":48.15769958},"fuelLevel":0.9500000000000001,"lastAddress":"Elisabethstraße 5, 80796 München, Germany"}
{"timestamp":"2016-10-20T08:15:00+0200","id":124029,"name":"Hannah","coordinate":{"longitude":11.51000023,"latitude":48.04570007},"fuelLevel":0.59,"lastAddress":"Gistlstraße 159, 82049 Pullach im Isartal, Germany"}
{"timestamp":"2016-10-20T08:15:00+0200","id":124009,"name":"Ludwig","coordinate":{"longitude":11.58609962,"latitude":48.16490173},"fuelLevel":0.59,"lastAddress":"Leopoldstraße 102, 80802 München, Germany"}
{"timestamp":"2016-10-20T08:15:00+0200","id":124007,"name":"Jakob","coordinate":{"longitude":11.57429981,"latitude":48.16719818},"fuelLevel":0.9500000000000001,"lastAddress":"Karl-Theodor-Straße 84, 80803 München, Germany"}