{"timestamp":"2016-10-12T11:45:00+0200","id":124041,"name":"Sophie","coordinate":{"longitude":11.57820034,"latitude":48.15000153},"fuelLevel":0.86,"lastAddress":"Amalienstraße 61, 80799 München, Germany"}
{"timestamp":"2016-10-12T11:45:00+0200","id":124026,"name":"Eva","coordinate":{"longitude":11.5781002,"latitude":48.15370178},"fuelLevel":0.61,"lastAddress":"Rambergstraße 3, 80799 München, Germany"}
{"timestamp":"2016-10-12T11:45:00+0200","id":124025,"name":"Elli","coordinate":{"longitude":11.57619953,"latitude":48.15769958},"fuelLevel":0.9,"lastAddress":"Franz-Joseph-Straße 46, 80801 München, Germany"}
{"timestamp":"2016-10-12T11:45:00+0200","id":124036,"name":"Liesel","coordinate":{"longitude":11.58160019,"latitude":48.15069962},"fuelLevel":0.5900000000000001,"lastAddress":"Ludwigstraße 29, 80539 München, Germany"}
{"timestamp":"2016-10-12T11:45:00+0200","id":124044,"name":"Uschi","coordinate":{"longitude":11.57209969,"latitude":48.13169861},"fuelLevel":0.9199999999999999,"lastAddress":"Müllerstraße 24, 80469 München, Germany"}
{"timestamp":"2016-10-12T11:45:00+0200","id":124024,"name":"Christl","coordinate":{"longitude":11.57470036,"latitude":48.13370132},"fuelLevel":0.51,"lastAddress":"Am Einlaß 1-3, 80469 München, Germany"}
{"timestamp":"2016-10-12T11:45:00+0200","id":124040,"name":"Reserl","coordinate":{"longitude":11.57219982,"latitude":48.13159943},"fuelLevel":0.83,"lastAddress":"Müllerstraße 13, 80469 München, Germany"}
{"timestamp":"2016-10-12T11:45:00+0200","id":124021,"name":"Xaver","coordinate":{"longitude":11.58040047,"latitude":48.13000107},"fuelLevel":0.9199999999999999,"lastAddress":"Erhardtstraße 27, 80469 München, Germany"}
{"timestamp":"2016-10-12T11:45:00+0200","id":124016,"name":"Sepp","coordinate":{"longitude":11.6019001,"latitude":48.12900162},"fuelLevel":0.9099999999999999,"lastAddress":"Wörthstraße 38, 81667 München, Germany"}
{"timestamp":"2016-10-12T11:45:00+0200","id":124038,"name":"Magda","coordinate":{"longitude":11.60029984,"latitude":48.1283989},"fuelLevel":0.67,"lastAddress":"Pariser Pl., 81667 München, Germany"}
{"timestamp":"2016-10-12T11:45:00+0200","id":124022,"name":"Anne","coordinate":{"longitude":11.59640026,"latitude":48.1271019},"fuelLevel":0.8300000000000001,"lastAddress":"Rosenheimer Str. 82, 81669 München, Germany"}
{"timestamp":"2016-10-12T11:45:00+0200","id":124000,"name":"Bertl","coordinate":{"longitude":11.59809971,"latitude":48.12620163},"fuelLevel":0.8,"lastAddress":"Rosenheimer Str. 119, 81667 München, Germany"}
{"timestamp":"2016-10-12T11:45:00+0200","id":124013,"name":"Poldi","coordinate":{"longitude":11.59449959,"latitude":48.12820053},"fuelLevel":0.79,"lastAddress":"Rosenheimer Str. 63, 81667 München, Germany"}
{"timestamp":"2016-10-12T11:45:00+0200","id":124011,"name":"Maxl","coordinate":{"longitude":11.59459972,"latitude":48.12760162},"fuelLevel":0.6699999999999999,"lastAddress":"Metzstraße, 81669 München, Germany"}
{"timestamp":"2016-10-12T11:45:00+0200","id":124003,"name":"Franzl","coordinate":{"longitude":11.59230042,"latitude":48.1271019},"fuelLevel":0.8,"lastAddress":"Rablstraße 26, 81669 München, Germany"}
{"timestamp":"2016-10-12T11:45:00+0200","id":124010,"name":"Luitpold","coordinate":{"longitude":11.58450031,"latitude":48.12760162},"fuelLevel":0.9400000000000001,"lastAddress":"Lilienstraße 66, 81669 München, Germany"}
{"timestamp":"2016-10-12T11:45:00+0200","id":124006,"name":"Gustl","coordinate":{"longitude":11.57479954,"latitude":48.12039948},"fuelLevel":0.9500000000000001,"lastAddress":"Oefelestraße 8, 81543 München, Germany"}
{"timestamp":"2016-10-12T11:45:00+0200","id":124020,"name":"Vinzenz","coordinate":{"longitude":11.57820034,"latitude":48.12279892},"fuelLevel":0.8999999999999999,"lastAddress":"Entenbachstraße 27, 81541 München, Germany"}
{"timestamp":"2016-10-12T11:45:00+0200","id":124045,"name":"Vroni","coordinate":{"longitude":11.56519985,"latitude":48.1242981},"fuelLevel":0.64,"lastAddress":"Kapuzinerstraße 37, 80469 München, Germany"}
{"timestamp":"2016-10-12T11:45:00+0200","id":124018,"name":"Toni","coordinate":{"longitude":11.56939983,"latitude":48.12990189},"fuelLevel":0.66,"lastAddress":"Hans-Sachs-Straße 12, 80469 München, Germany"}
{"timestamp":"2016-10-12T11:45:00+0200","id":124004,"name":"Fridl","coordinate":{"longitude":11.55630016,"latitude":48.1548996},"fuelLevel":0.9600000000000001,"lastAddress":"Heßstraße 110, 80797 München, Germany"}
{"timestamp":"2016-10-12T11:45:00+0200","id":124031,"name":"Heidi","coordinate":{"longitude":11.56669998,"latitude":48.15179825},"fuelLevel":0.6499999999999999,"lastAddress":"Heßstraße 42, 80798 München, Germany"}
{"timestamp":"2016-10-12T11:45:00+0200","id":124047,"name":"Walli","coordinate":{"longitude":11.5703001,"latitude":48.14960098},"fuelLevel":0.71,"lastAddress":"Theresienstraße, 80333 München, Germany"}
{"timestamp":"2016-10-12T11:45:00+0200","id":124002,"name":"Ferdl","coordinate":{"longitude":11.56849957,"latitude":48.14830017},"fuelLevel":0.9444444444444444,"lastAddress":"Arcisstraße 21, 80333 München, Germany"}
{"timestamp":"2016-10-12T11:45:00+0200","id":124048,"name":"Wiggerl","coordinate":{"longitude":11.58030033,"latitude":48.16239929},"fuelLevel":0.66,"lastAddress":"Viktoriastraße 2, 80803 München, Germany"}
{"timestamp":"2016-10-12T11:45:00+0200","id":124028,"name":"Gitte","coordinate":{"longitude":11.57769966,"latitude":48.16030121},"fuelLevel":0.75,"lastAddress":"Römerstraße 16A, 80801 München, Germany"}
{"timestamp":"2016-10-12T11:45:00+0200","id":124027,"name":"Fanni","coordinate":{"longitude":11.58440018,"latitude":48.16059875},"fuelLevel":0.7899999999999999,"lastAddress":"Kaiserstraße 9, 80801 München, Germany"}
{"timestamp":"2016-10-12T11:45:00+0200","id":124005,"name":"Georg","coordinate":{"longitude":11.57569981,"latitude":48.16180038},"fuelLevel":0.56,"lastAddress":"Viktor-Scheffel-Straße 19, 80803 München, Germany"}
{"timestamp":"2016-10-12T11:45:00+0200","id":124032,"name":"Irmi","coordinate":{"longitude":11.57320023,"latitude":48.16030121},"fuelLevel":0.64,"lastAddress":"Isabellastraße 46-48, 80796 München, Germany"}
{"timestamp":"2016-10-12T11:45:00+0200","id":124037,"name":"Luise","coordinate":{"longitude":11.57069969,"latitude":48.15710068},"fuelLevel":0.52,"lastAddress":"Agnesstraße 9, 80798 München, Germany"}
{"timestamp":"2016-10-12T11:45:00+0200","id":124017,"name":"Siggi","coordinate":{"longitude":11.57260036,"latitude":48.1595993},"fuelLevel":0.56,"lastAddress":"Isabellastraße 43, 80796 München, Germany"}
{"timestamp":"2016-10-12T11:45:00+0200","id":124029,"name":"Hannah","coordinate":{"longitude":11.51029968,"latitude":48.04539871},"fuelLevel":0.7,"lastAddress":"Gistlstraße 159, 82049 Pullach im Isartal, Germany"}
{"timestamp":"2016-10-12T11:45:00+0200","id":124008,"name":"Johann","coordinate":{"longitude":11.50990009,"latitude":48.04550171},"fuelLevel":0.87,"lastAddress":"Gistlstraße 159, 82049 Pullach im Isartal, Germany"}
{"timestamp":"2016-10-12T11:45:00+0200","id":124009,"name":"Ludwig","coordinate":{"longitude":11.58479977,"latitude":48.16220093},"fuelLevel":0.8999999999999999,"lastAddress":"Herzogstraße 4, 80803 München, Germany"}
{"timestamp":"2016-10-12T11:45:00+0200","id":124007,"name":"Jakob","coordinate":{"longitude":11.57699966,"latitude":48.16680145},"fuelLevel":0.9400000000000001,"lastAddress":"Karl-Theodor-Straße 63, 80803 München, Germany"}