{"timestamp":"2016-10-21T11:55:32+0200","id":124041,"name":"Sophie","coordinate":{"longitude":11.58104897,"latitude":48.15137482},"fuelLevel":0.78,"lastAddress":"Hauptgebäude, Geschwister-Scholl-Platz 1, 80539 München, Germany"}
{"timestamp":"2016-10-21T11:55:32+0200","id":124026,"name":"Eva","coordinate":{"longitude":11.58108234,"latitude":48.14993286},"fuelLevel":0.9199999999999999,"lastAddress":"Ludwigstraße 24, 80539 München, Germany"}
{"timestamp":"2016-10-21T11:55:32+0200","id":124025,"name":"Elli","coordinate":{"longitude":11.57964134,"latitude":48.15634918},"fuelLevel":0.8300000000000001,"lastAddress":"Friedrichstraße 11, 80801 München, Germany"}
{"timestamp":"2016-10-21T11:55:32+0200","id":124040,"name":"Reserl","coordinate":{"longitude":11.57269955,"latitude":48.13259888},"fuelLevel":0.77,"lastAddress":"Theklastraße 1, 80469 München, Germany"}
{"timestamp":"2016-10-21T11:55:32+0200","id":124014,"name":"Quirin","coordinate":{"longitude":11.59687042,"latitude":48.13444901},"fuelLevel":0.5299999999999999,"lastAddress":"Wiener Platz 8, 81667 München, Germany"}
{"timestamp":"2016-10-21T11:55:32+0200","id":124034,"name":"Kathi","coordinate":{"longitude":11.6090641,"latitude":48.1328392},"fuelLevel":0.57,"lastAddress":"Kirchenstraße 91A, 81675 München, Germany"}
{"timestamp":"2016-10-21T11:55:32+0200","id":124016,"name":"Sepp","coordinate":{"longitude":11.59749985,"latitude":48.12670135},"fuelLevel":0.86,"lastAddress":"Pariser Str. 11, 81667 München, Germany"}
{"timestamp":"2016-10-21T11:55:32+0200","id":124000,"name":"Bertl","coordinate":{"longitude":11.59626961,"latitude":48.13320541},"fuelLevel":0.86,"lastAddress":"Steinstraße 17, 81667 München, Germany"}
{"timestamp":"2016-10-21T11:55:32+0200","id":124013,"name":"Poldi","coordinate":{"longitude":11.59430027,"latitude":48.12799835},"fuelLevel":0.61,"lastAddress":"Rosenheimer Pl. 2, 81669 München, Germany"}
{"timestamp":"2016-10-21T11:55:32+0200","id":124011,"name":"Maxl","coordinate":{"longitude":11.5974369,"latitude":48.12422943},"fuelLevel":0.61,"lastAddress":"Orleansstraße 1, 81669 München, Germany"}
{"timestamp":"2016-10-21T11:55:32+0200","id":124003,"name":"Franzl","coordinate":{"longitude":11.59355164,"latitude":48.12696838},"fuelLevel":0.7799999999999999,"lastAddress":"Rablstraße 41, 81669 München, Germany"}
{"timestamp":"2016-10-21T11:55:32+0200","id":124020,"name":"Vinzenz","coordinate":{"longitude":11.57806206,"latitude":48.12532425},"fuelLevel":0.75,"lastAddress":"Boosstraße 9, 81541 München, Germany"}
{"timestamp":"2016-10-21T11:55:32+0200","id":124049,"name":"Marei","coordinate":{"longitude":11.57406998,"latitude":48.12229156},"fuelLevel":0.9400000000000001,"lastAddress":"Sommerstraße 8, 81543 München, Germany"}
{"timestamp":"2016-10-21T11:55:32+0200","id":124045,"name":"Vroni","coordinate":{"longitude":11.56509781,"latitude":48.12413788},"fuelLevel":0.64,"lastAddress":"Kapuzinerstraße 37, 80469 München, Germany"}
{"timestamp":"2016-10-21T11:55:32+0200","id":124018,"name":"Toni","coordinate":{"longitude":11.56970024,"latitude":48.12900162},"fuelLevel":0.6499999999999999,"lastAddress":"Hans-Sachs-Straße 15-17, 80469 München, Germany"}
{"timestamp":"2016-10-21T11:55:32+0200","id":124004,"name":"Fridl","coordinate":{"longitude":11.55580044,"latitude":48.15520096},"fuelLevel":0.58,"lastAddress":"Lothstraße 64, 80335 München, Germany"}
{"timestamp":"2016-10-21T11:55:32+0200","id":124031,"name":"Heidi","coordinate":{"longitude":11.56324291,"latitude":48.14991379},"fuelLevel":0.62,"lastAddress":"Augustenstraße 63, 80333 München, Germany"}
{"timestamp":"2016-10-21T11:55:32+0200","id":124047,"name":"Walli","coordinate":{"longitude":11.57220459,"latitude":48.14949036},"fuelLevel":0.6499999999999999,"lastAddress":"Barer Str. 29, 80799 München, Germany"}
{"timestamp":"2016-10-21T11:55:32+0200","id":124048,"name":"Wiggerl","coordinate":{"longitude":11.58290005,"latitude":48.15850067},"fuelLevel":0.63,"lastAddress":"Wilhelmstraße 4, 80801 München, Germany"}
{"timestamp":"2016-10-21T11:55:32+0200","id":124028,"name":"Gitte","coordinate":{"longitude":11.57559967,"latitude":48.16040039},"fuelLevel":0.7200000000000001,"lastAddress":"Hohenzollernstraße 78, 80801 München, Germany"}
{"timestamp":"2016-10-21T11:55:32+0200","id":124037,"name":"Luise","coordinate":{"longitude":11.572155,"latitude":48.15735245},"fuelLevel":0.9500000000000001,"lastAddress":"Agnesstraße 6, 80801 München, Germany"}
{"timestamp":"2016-10-21T11:55:32+0200","id":124017,"name":"Siggi","coordinate":{"longitude":11.56777954,"latitude":48.15939331},"fuelLevel":0.54,"lastAddress":"Elisabethstraße 40, 80796 München, Germany"}
{"timestamp":"2016-10-21T11:55:32+0200","id":124024,"name":"Christl","coordinate":{"longitude":11.50570679,"latitude":48.04438782},"fuelLevel":0.125,"lastAddress":"Dr.-Carl-von-Linde-Straße 6-14, 82049 Pullach im Isartal, Germany"}
{"timestamp":"2016-10-21T11:55:32+0200","id":124009,"name":"Ludwig","coordinate":{"longitude":11.58510685,"latitude":48.16546249},"fuelLevel":0.59,"lastAddress":"Karl-Theodor-Straße 10, 80803 München, Germany"}
{"timestamp":"2016-10-21T11:55:32+0200","id":124007,"name":"Jakob","coordinate":{"longitude":11.57369995,"latitude":48.16749573},"fuelLevel":0.8999999999999999,"lastAddress":"Belgradstraße 71, 80804 München, Germany"}