{"timestamp":"2016-10-04T11:30:00+0200","id":124041,"name":"Sophie","coordinate":{"longitude":11.57769966,"latitude":48.15010071},"fuelLevel":0.93,"lastAddress":"Schellingstraße 18, 80799 München, Germany"}
{"timestamp":"2016-10-04T11:30:00+0200","id":124026,"name":"Eva","coordinate":{"longitude":11.5781002,"latitude":48.15380096},"fuelLevel":0.61,"lastAddress":"Rambergstraße 4, 80799 München, Germany"}
{"timestamp":"2016-10-04T11:30:00+0200","id":124025,"name":"Elli","coordinate":{"longitude":11.57600021,"latitude":48.15200043},"fuelLevel":0.9500000000000001,"lastAddress":"Nordendstraße 2, 80799 München, Germany"}
{"timestamp":"2016-10-04T11:30:00+0200","id":124033,"name":"Johanna","coordinate":{"longitude":11.58129978,"latitude":48.15140152},"fuelLevel":0.84,"lastAddress":"Adalbertstraße 6, 80799 München, Germany"}
{"timestamp":"2016-10-04T11:30:00+0200","id":124036,"name":"Liesel","coordinate":{"longitude":11.57520008,"latitude":48.15629959},"fuelLevel":0.6699999999999999,"lastAddress":"Nordendstraße 36, 80801 München, Germany"}
{"timestamp":"2016-10-04T11:30:00+0200","id":124024,"name":"Christl","coordinate":{"longitude":11.5795002,"latitude":48.13380051},"fuelLevel":0.8,"lastAddress":"Klenzestraße 1A, 80469 München, Germany"}
{"timestamp":"2016-10-04T11:30:00+0200","id":124014,"name":"Quirin","coordinate":{"longitude":11.60840034,"latitude":48.13290024},"fuelLevel":0.63,"lastAddress":"Kirchenstraße 87, 81675 München, Germany"}
{"timestamp":"2016-10-04T11:30:00+0200","id":124034,"name":"Kathi","coordinate":{"longitude":11.60499954,"latitude":48.13230133},"fuelLevel":0.67,"lastAddress":"Elsässer Str. 6, 81667 München, Germany"}
{"timestamp":"2016-10-04T11:30:00+0200","id":124030,"name":"Hedwig","coordinate":{"longitude":11.56359959,"latitude":48.12760162},"fuelLevel":0.9199999999999999,"lastAddress":"Thalkirchner Str. 52, 80337 München, Germany"}
{"timestamp":"2016-10-04T11:30:00+0200","id":124023,"name":"Babsi","coordinate":{"longitude":11.56309986,"latitude":48.12760162},"fuelLevel":0.93,"lastAddress":"Thalkirchner Str. 56, 80337 München, Germany"}
{"timestamp":"2016-10-04T11:30:00+0200","id":124016,"name":"Sepp","coordinate":{"longitude":11.59860039,"latitude":48.12609863},"fuelLevel":0.9199999999999999,"lastAddress":"Rosenheimer Str. 125, 81667 München, Germany"}
{"timestamp":"2016-10-04T11:30:00+0200","id":124022,"name":"Anne","coordinate":{"longitude":11.59689999,"latitude":48.12720108},"fuelLevel":0.87,"lastAddress":"Rosenheimer Str. 101, 81667 München, Germany"}
{"timestamp":"2016-10-04T11:30:00+0200","id":124000,"name":"Bertl","coordinate":{"longitude":11.59689999,"latitude":48.12960052},"fuelLevel":0.82,"lastAddress":"Kellerstraße 41, 81667 München, Germany"}
{"timestamp":"2016-10-04T11:30:00+0200","id":124013,"name":"Poldi","coordinate":{"longitude":11.59459972,"latitude":48.12789917},"fuelLevel":0.79,"lastAddress":"Rosenheimer Str. 62, 81669 München, Germany"}
{"timestamp":"2016-10-04T11:30:00+0200","id":124011,"name":"Maxl","coordinate":{"longitude":11.59249973,"latitude":48.12639999},"fuelLevel":0.78,"lastAddress":"Franziskanerstraße 14, 81669 München, Germany"}
{"timestamp":"2016-10-04T11:30:00+0200","id":124003,"name":"Franzl","coordinate":{"longitude":11.59319973,"latitude":48.12730026},"fuelLevel":0.79,"lastAddress":"Franziskanerstraße 15, 81669 München, Germany"}
{"timestamp":"2016-10-04T11:30:00+0200","id":124010,"name":"Luitpold","coordinate":{"longitude":11.58430004,"latitude":48.12490082},"fuelLevel":0.88,"lastAddress":"Mariahilfpl. 14, 81541 München, Germany"}
{"timestamp":"2016-10-04T11:30:00+0200","id":124019,"name":"Valentin","coordinate":{"longitude":11.58510017,"latitude":48.12360001},"fuelLevel":0.9199999999999999,"lastAddress":"Hochstraße 49C, 81541 München, Germany"}
{"timestamp":"2016-10-04T11:30:00+0200","id":124035,"name":"Leonie","coordinate":{"longitude":11.58549976,"latitude":48.12900162},"fuelLevel":0.7899999999999999,"lastAddress":"Schwarzstraße 4, 81669 München, Germany"}
{"timestamp":"2016-10-04T11:30:00+0200","id":124006,"name":"Gustl","coordinate":{"longitude":11.57740021,"latitude":48.12120056},"fuelLevel":0.9400000000000001,"lastAddress":"Falkenstraße 44, 81541 München, Germany"}
{"timestamp":"2016-10-04T11:30:00+0200","id":124020,"name":"Vinzenz","coordinate":{"longitude":11.5788002,"latitude":48.12350082},"fuelLevel":0.9099999999999999,"lastAddress":"Entenbachstraße 15, 81541 München, Germany"}
{"timestamp":"2016-10-04T11:30:00+0200","id":124049,"name":"Marei","coordinate":{"longitude":11.57450008,"latitude":48.11989975},"fuelLevel":0.69,"lastAddress":"Humboldtstraße 23, 81543 München, Germany"}
{"timestamp":"2016-10-04T11:30:00+0200","id":124045,"name":"Vroni","coordinate":{"longitude":11.56739998,"latitude":48.12770081},"fuelLevel":0.9199999999999999,"lastAddress":"Holzstraße 34, 80469 München, Germany"}
{"timestamp":"2016-10-04T11:30:00+0200","id":124018,"name":"Toni","coordinate":{"longitude":11.57009983,"latitude":48.13090134},"fuelLevel":0.9099999999999999,"lastAddress":"Müllerstraße 31, 80469 München, Germany"}
{"timestamp":"2016-10-04T11:30:00+0200","id":124012,"name":"Peter","coordinate":{"longitude":11.57229996,"latitude":48.14960098},"fuelLevel":1,"lastAddress":"Barer Str. 29, 80799 München, Germany"}
{"timestamp":"2016-10-04T11:30:00+0200","id":124004,"name":"Fridl","coordinate":{"longitude":11.56579971,"latitude":48.15650177},"fuelLevel":0.55,"lastAddress":"Hiltenspergerstraße 15, 80798 München, Germany"}
{"timestamp":"2016-10-04T11:30:00+0200","id":124031,"name":"Heidi","coordinate":{"longitude":11.56630039,"latitude":48.15000153},"fuelLevel":0.8,"lastAddress":"Luisenstraße 55, 80333 München, Germany"}
{"timestamp":"2016-10-04T11:30:00+0200","id":124002,"name":"Ferdl","coordinate":{"longitude":11.56480026,"latitude":48.15190125},"fuelLevel":0.9500000000000001,"lastAddress":"Augustenstraße 92, 80798 München, Germany"}
{"timestamp":"2016-10-04T11:30:00+0200","id":124048,"name":"Wiggerl","coordinate":{"longitude":11.57900047,"latitude":48.16149902},"fuelLevel":0.68,"lastAddress":"Kaiserstraße 36, 80801 München, Germany"}
{"timestamp":"2016-10-04T11:30:00+0200","id":124028,"name":"Gitte","coordinate":{"longitude":11.57719994,"latitude":48.16030121},"fuelLevel":0.75,"lastAddress":"Römerstraße 21, 80801 München, Germany"}
{"timestamp":"2016-10-04T11:30:00+0200","id":124027,"name":"Fanni","coordinate":{"longitude":11.57789993,"latitude":48.1590004},"fuelLevel":0.7899999999999999,"lastAddress":"Ainmillerstraße 40, 80801 München, Germany"}
{"timestamp":"2016-10-04T11:30:00+0200","id":124005,"name":"Georg","coordinate":{"longitude":11.58139992,"latitude":48.15869904},"fuelLevel":0.66,"lastAddress":"Ainmillerstraße 15, 80801 München, Germany"}
{"timestamp":"2016-10-04T11:30:00+0200","id":124032,"name":"Irmi","coordinate":{"longitude":11.57339954,"latitude":48.16019821},"fuelLevel":0.64,"lastAddress":"Isabellastraße 46, 80796 München, Germany"}
{"timestamp":"2016-10-04T11:30:00+0200","id":124037,"name":"Luise","coordinate":{"longitude":11.56630039,"latitude":48.15790176},"fuelLevel":0.58,"lastAddress":"Agnesstraße 38, 80798 München, Germany"}
{"timestamp":"2016-10-04T11:30:00+0200","id":124017,"name":"Siggi","coordinate":{"longitude":11.57110023,"latitude":48.16070175},"fuelLevel":0.56,"lastAddress":"Hohenzollernstraße 79, 80796 München, Germany"}
{"timestamp":"2016-10-04T11:30:00+0200","id":124029,"name":"Hannah","coordinate":{"longitude":11.51000023,"latitude":48.04520035},"fuelLevel":0.71,"lastAddress":"Seitnerstraße 70, 82049 Pullach im Isartal, Germany"}
{"timestamp":"2016-10-04T11:30:00+0200","id":124042,"name":"Tilli","coordinate":{"longitude":11.50949955,"latitude":48.04550171},"fuelLevel":0.77,"lastAddress":"Seitnerstraße 70, 82049 Pullach im Isartal, Germany"}
{"timestamp":"2016-10-04T11:30:00+0200","id":124008,"name":"Johann","coordinate":{"longitude":11.51010036,"latitude":48.04550171},"fuelLevel":0.87,"lastAddress":"Gistlstraße 159, 82049 Pullach im Isartal, Germany"}
{"timestamp":"2016-10-04T11:30:00+0200","id":124009,"name":"Ludwig","coordinate":{"longitude":11.58469963,"latitude":48.16199875},"fuelLevel":0.8999999999999999,"lastAddress":"Herzogstraße 7, 80803 München, Germany"}