{"timestamp":"2016-11-27T08:30:00+0100","id":124026,"name":"Eva","coordinate":{"longitude":11.58131409,"latitude":48.15231323},"fuelLevel":0.7200000000000001,"lastAddress":"Akademiestraße 3, 80799 München, Germany"}
{"timestamp":"2016-11-27T08:30:00+0100","id":124025,"name":"Elli","coordinate":{"longitude":11.58120728,"latitude":48.15249634},"fuelLevel":0.8200000000000001,"lastAddress":"Akademiestraße 5, 80799 München, Germany"}
{"timestamp":"2016-11-27T08:30:00+0100","id":124033,"name":"Johanna","coordinate":{"longitude":11.57980347,"latitude":48.1526947},"fuelLevel":0.7799999999999999,"lastAddress":"Akademiestraße 11, 80799 München, Germany"}
{"timestamp":"2016-11-27T08:30:00+0100","id":124036,"name":"Liesel","coordinate":{"longitude":11.57859802,"latitude":48.15310669},"fuelLevel":0.5499999999999999,"lastAddress":"Akademiestraße 4, 80799 München, Germany"}
{"timestamp":"2016-11-27T08:30:00+0100","id":124024,"name":"Christl","coordinate":{"longitude":11.57699585,"latitude":48.13279724},"fuelLevel":0.6499999999999999,"lastAddress":"Buttermelcherstraße 4, 80469 München, Germany"}
{"timestamp":"2016-11-27T08:30:00+0100","id":124040,"name":"Reserl","coordinate":{"longitude":11.57479858,"latitude":48.12908936},"fuelLevel":0.83,"lastAddress":"Fraunhoferstraße 31, 80469 München, Germany"}
{"timestamp":"2016-11-27T08:30:00+0100","id":124021,"name":"Xaver","coordinate":{"longitude":11.58200073,"latitude":48.13111877},"fuelLevel":0.77,"lastAddress":"Kohlstraße 11, 80469 München, Germany"}
{"timestamp":"2016-11-27T08:30:00+0100","id":124034,"name":"Kathi","coordinate":{"longitude":11.60550022,"latitude":48.13100052},"fuelLevel":0.75,"lastAddress":"Elsässer Str. 17, 81667 München, Germany"}
{"timestamp":"2016-11-27T08:30:00+0100","id":124022,"name":"Anne","coordinate":{"longitude":11.60055542,"latitude":48.1282959},"fuelLevel":0.49,"lastAddress":"Weißenburger Str. 36, 81667 München, Germany"}
{"timestamp":"2016-11-27T08:30:00+0100","id":124000,"name":"Bertl","coordinate":{"longitude":11.59489441,"latitude":48.1309967},"fuelLevel":0.8999999999999999,"lastAddress":"Milchstraße 2, 81667 München, Germany"}
{"timestamp":"2016-11-27T08:30:00+0100","id":124013,"name":"Poldi","coordinate":{"longitude":11.58959961,"latitude":48.125},"fuelLevel":0.79,"lastAddress":"Franziskanerstraße 47, 81669 München, Germany"}
{"timestamp":"2016-11-27T08:30:00+0100","id":124011,"name":"Maxl","coordinate":{"longitude":11.59260559,"latitude":48.12672424},"fuelLevel":0.5599999999999999,"lastAddress":"Franziskanerstraße 14, 81669 München, Germany"}
{"timestamp":"2016-11-27T08:30:00+0100","id":124003,"name":"Franzl","coordinate":{"longitude":11.57931519,"latitude":48.1394043},"fuelLevel":0.5555555555555556,"lastAddress":"Max-Joseph-Platz 2, 80539 München, Germany"}
{"timestamp":"2016-11-27T08:30:00+0100","id":124010,"name":"Luitpold","coordinate":{"longitude":11.58769226,"latitude":48.12789917},"fuelLevel":0.87,"lastAddress":"Hochstraße 19, 81669 München, Germany"}
{"timestamp":"2016-11-27T08:30:00+0100","id":124035,"name":"Leonie","coordinate":{"longitude":11.58349609,"latitude":48.12768555},"fuelLevel":0.8800000000000001,"lastAddress":"Zeppelinstraße 39, 81669 München, Germany"}
{"timestamp":"2016-11-27T08:30:00+0100","id":124006,"name":"Gustl","coordinate":{"longitude":11.57600021,"latitude":48.1208992},"fuelLevel":0.86,"lastAddress":"Kolumbusstraße 22, 81543 München, Germany"}
{"timestamp":"2016-11-27T08:30:00+0100","id":124020,"name":"Vinzenz","coordinate":{"longitude":11.57568359,"latitude":48.12310791},"fuelLevel":0.81,"lastAddress":"Schlotthauerstraße 1, 81541 München, Germany"}
{"timestamp":"2016-11-27T08:30:00+0100","id":124049,"name":"Marei","coordinate":{"longitude":11.5776062,"latitude":48.12039185},"fuelLevel":0.8999999999999999,"lastAddress":"Dollmannstraße 4, 81541 München, Germany"}
{"timestamp":"2016-11-27T08:30:00+0100","id":124018,"name":"Toni","coordinate":{"longitude":11.56561279,"latitude":48.12641907},"fuelLevel":0.81,"lastAddress":"Pestalozzistraße 60, 80469 München, Germany"}
{"timestamp":"2016-11-27T08:30:00+0100","id":124012,"name":"Peter","coordinate":{"longitude":11.56112671,"latitude":48.15737915},"fuelLevel":0.5599999999999999,"lastAddress":"Georgenstraße 121-123, 80797 München, Germany"}
{"timestamp":"2016-11-27T08:30:00+0100","id":124004,"name":"Fridl","coordinate":{"longitude":11.55909729,"latitude":48.15390015},"fuelLevel":0.86,"lastAddress":"Heßstraße 79, 80797 München, Germany"}
{"timestamp":"2016-11-27T08:30:00+0100","id":124047,"name":"Walli","coordinate":{"longitude":11.56710815,"latitude":48.15080261},"fuelLevel":0.75,"lastAddress":"Luisenstraße 63, 80798 München, Germany"}
{"timestamp":"2016-11-27T08:30:00+0100","id":124002,"name":"Ferdl","coordinate":{"longitude":11.56399536,"latitude":48.15029907},"fuelLevel":0.8999999999999999,"lastAddress":"Augustenstraße 76, 80333 München, Germany"}
{"timestamp":"2016-11-27T08:30:00+0100","id":124048,"name":"Wiggerl","coordinate":{"longitude":11.57739258,"latitude":48.15911865},"fuelLevel":0.7799999999999999,"lastAddress":"Römerstraße 10, 80801 München, Germany"}
{"timestamp":"2016-11-27T08:30:00+0100","id":124028,"name":"Gitte","coordinate":{"longitude":11.57960033,"latitude":48.15779877},"fuelLevel":0.9099999999999999,"lastAddress":"Franz-Joseph-Straße 25, 80801 München, Germany"}
{"timestamp":"2016-11-27T08:30:00+0100","id":124027,"name":"Fanni","coordinate":{"longitude":11.58108521,"latitude":48.16142273},"fuelLevel":0.8300000000000001,"lastAddress":"Kaiserpl. 1, 80803 München, Germany"}
{"timestamp":"2016-11-27T08:30:00+0100","id":124005,"name":"Georg","coordinate":{"longitude":11.57949829,"latitude":48.15908813},"fuelLevel":0.75,"lastAddress":"Ainmillerstraße 30, 80801 München, Germany"}
{"timestamp":"2016-11-27T08:30:00+0100","id":124001,"name":"Edmund","coordinate":{"longitude":11.58058167,"latitude":48.16091919},"fuelLevel":0.5599999999999999,"lastAddress":"Friedrichstraße 36, 80801 München, Germany"}
{"timestamp":"2016-11-27T08:30:00+0100","id":124032,"name":"Irmi","coordinate":{"longitude":11.57499695,"latitude":48.15969849},"fuelLevel":0.61,"lastAddress":"Kurfürstenpl. 2, 80796 München, Germany"}
{"timestamp":"2016-11-27T08:30:00+0100","id":124037,"name":"Luise","coordinate":{"longitude":11.57099915,"latitude":48.15870667},"fuelLevel":0.55,"lastAddress":"Elisabethstraße 22, 80796 München, Germany"}
{"timestamp":"2016-11-27T08:30:00+0100","id":124017,"name":"Siggi","coordinate":{"longitude":11.57356262,"latitude":48.15670776},"fuelLevel":0.8,"lastAddress":"Arcisstraße 65, 80801 München, Germany"}
{"timestamp":"2016-11-27T08:30:00+0100","id":124029,"name":"Hannah","coordinate":{"longitude":11.50941467,"latitude":48.04530334},"fuelLevel":0.89,"lastAddress":"Seitnerstraße 70, 82049 Pullach im Isartal, Germany"}
{"timestamp":"2016-11-27T08:30:00+0100","id":124039,"name":"Marie","coordinate":{"longitude":11.50629997,"latitude":48.04370117},"fuelLevel":0.71,"lastAddress":"Wolfratshauser Str. 138, 82049 Pullach im Isartal, Germany"}
{"timestamp":"2016-11-27T08:30:00+0100","id":124009,"name":"Ludwig","coordinate":{"longitude":11.58230591,"latitude":48.16558838},"fuelLevel":0.71,"lastAddress":"Muffatstraße 5-7, 80803 München, Germany"}
{"timestamp":"2016-11-27T08:30:00+0100","id":124007,"name":"Jakob","coordinate":{"longitude":11.57749939,"latitude":48.16668701},"fuelLevel":0.6499999999999999,"lastAddress":"Karl-Theodor-Straße 55, 80803 München, Germany"}