{"timestamp":"2016-09-29T16:05:00+0200","id":124041,"name":"Sophie","coordinate":{"longitude":11.57750034,"latitude":48.14970016},"fuelLevel":0.93,"lastAddress":"Schellingstraße 11, 80799 München, Germany"}
{"timestamp":"2016-09-29T16:05:00+0200","id":124026,"name":"Eva","coordinate":{"longitude":11.57830048,"latitude":48.15380096},"fuelLevel":0.61,"lastAddress":"Türkenstraße 104, 80799 München, Germany"}
{"timestamp":"2016-09-29T16:05:00+0200","id":124033,"name":"Johanna","coordinate":{"longitude":11.58119965,"latitude":48.15240097},"fuelLevel":0.88,"lastAddress":"Akademiestraße 3, 80799 München, Germany"}
{"timestamp":"2016-09-29T16:05:00+0200","id":124036,"name":"Liesel","coordinate":{"longitude":11.57569981,"latitude":48.15639877},"fuelLevel":0.6699999999999999,"lastAddress":"Kurfürstenstraße 33, 80801 München, Germany"}
{"timestamp":"2016-09-29T16:05:00+0200","id":124024,"name":"Christl","coordinate":{"longitude":11.57909966,"latitude":48.13380051},"fuelLevel":0.8,"lastAddress":"Rumfordstraße 30, 80469 München, Germany"}
{"timestamp":"2016-09-29T16:05:00+0200","id":124040,"name":"Reserl","coordinate":{"longitude":11.57890034,"latitude":48.1310997},"fuelLevel":0.79,"lastAddress":"Baaderstraße 38, 80469 München, Germany"}
{"timestamp":"2016-09-29T16:05:00+0200","id":124021,"name":"Xaver","coordinate":{"longitude":11.58040047,"latitude":48.13169861},"fuelLevel":0.52,"lastAddress":"Kohlstraße 4, 80469 München, Germany"}
{"timestamp":"2016-09-29T16:05:00+0200","id":124034,"name":"Kathi","coordinate":{"longitude":11.60519981,"latitude":48.13199997},"fuelLevel":0.67,"lastAddress":"Elsässer Str. 16, 81667 München, Germany"}
{"timestamp":"2016-09-29T16:05:00+0200","id":124030,"name":"Hedwig","coordinate":{"longitude":11.56729984,"latitude":48.1310997},"fuelLevel":0.89,"lastAddress":"Pestalozzistraße 14, 80469 München, Germany"}
{"timestamp":"2016-09-29T16:05:00+0200","id":124023,"name":"Babsi","coordinate":{"longitude":11.56379986,"latitude":48.1271019},"fuelLevel":0.93,"lastAddress":"Thalkirchner Str. 54, 80337 München, Germany"}
{"timestamp":"2016-09-29T16:05:00+0200","id":124016,"name":"Sepp","coordinate":{"longitude":11.59850025,"latitude":48.12580109},"fuelLevel":0.9199999999999999,"lastAddress":"Rosenheimer Str. 100, 81669 München, Germany"}
{"timestamp":"2016-09-29T16:05:00+0200","id":124038,"name":"Magda","coordinate":{"longitude":11.6001997,"latitude":48.12810135},"fuelLevel":0.76,"lastAddress":"Gravelottestraße 1, 81667 München, Germany"}
{"timestamp":"2016-09-29T16:05:00+0200","id":124022,"name":"Anne","coordinate":{"longitude":11.59669971,"latitude":48.1271019},"fuelLevel":0.8900000000000001,"lastAddress":"Rosenheimer Str. 103, 81667 München, Germany"}
{"timestamp":"2016-09-29T16:05:00+0200","id":124000,"name":"Bertl","coordinate":{"longitude":11.5948,"latitude":48.12969971},"fuelLevel":0.8500000000000001,"lastAddress":"Steinstraße 62, 81667 München, Germany"}
{"timestamp":"2016-09-29T16:05:00+0200","id":124013,"name":"Poldi","coordinate":{"longitude":11.59459972,"latitude":48.12670135},"fuelLevel":0.83,"lastAddress":"Rablstraße 47, 81669 München, Germany"}
{"timestamp":"2016-09-29T16:05:00+0200","id":124011,"name":"Maxl","coordinate":{"longitude":11.59300041,"latitude":48.1257019},"fuelLevel":0.8099999999999999,"lastAddress":"Sieboldstraße 7, 81669 München, Germany"}
{"timestamp":"2016-09-29T16:05:00+0200","id":124003,"name":"Franzl","coordinate":{"longitude":11.59300041,"latitude":48.12739944},"fuelLevel":0.79,"lastAddress":"Franziskanerstraße 8, 81669 München, Germany"}
{"timestamp":"2016-09-29T16:05:00+0200","id":124010,"name":"Luitpold","coordinate":{"longitude":11.58580017,"latitude":48.12559891},"fuelLevel":0.88,"lastAddress":"Gebsattelstraße 2, 81541 München, Germany"}
{"timestamp":"2016-09-29T16:05:00+0200","id":124019,"name":"Valentin","coordinate":{"longitude":11.58510017,"latitude":48.12350082},"fuelLevel":0.9199999999999999,"lastAddress":"Hochstraße 49C, 81541 München, Germany"}
{"timestamp":"2016-09-29T16:05:00+0200","id":124035,"name":"Leonie","coordinate":{"longitude":11.58570004,"latitude":48.1291008},"fuelLevel":0.7899999999999999,"lastAddress":"Schwarzstraße 4, 81669 München, Germany"}
{"timestamp":"2016-09-29T16:05:00+0200","id":124006,"name":"Gustl","coordinate":{"longitude":11.57750034,"latitude":48.12080002},"fuelLevel":0.93,"lastAddress":"Falkenstraße 43, 81541 München, Germany"}
{"timestamp":"2016-09-29T16:05:00+0200","id":124020,"name":"Vinzenz","coordinate":{"longitude":11.5795002,"latitude":48.1230011},"fuelLevel":0.9299999999999999,"lastAddress":"Falkenstraße 18, 81541 München, Germany"}
{"timestamp":"2016-09-29T16:05:00+0200","id":124049,"name":"Marei","coordinate":{"longitude":11.57380009,"latitude":48.11989975},"fuelLevel":0.7200000000000001,"lastAddress":"Oefelestraße 9, 81543 München, Germany"}
{"timestamp":"2016-09-29T16:05:00+0200","id":124045,"name":"Vroni","coordinate":{"longitude":11.56739998,"latitude":48.12770081},"fuelLevel":0.9199999999999999,"lastAddress":"Holzstraße 34, 80469 München, Germany"}
{"timestamp":"2016-09-29T16:05:00+0200","id":124018,"name":"Toni","coordinate":{"longitude":11.56890011,"latitude":48.12639999},"fuelLevel":0.9500000000000001,"lastAddress":"Baumstraße 21, 80469 München, Germany"}
{"timestamp":"2016-09-29T16:05:00+0200","id":124031,"name":"Heidi","coordinate":{"longitude":11.56649971,"latitude":48.15010071},"fuelLevel":0.8,"lastAddress":"Luisenstraße 55, 80333 München, Germany"}
{"timestamp":"2016-09-29T16:05:00+0200","id":124002,"name":"Ferdl","coordinate":{"longitude":11.5642004,"latitude":48.15110016},"fuelLevel":0.9500000000000001,"lastAddress":"Theresienstraße 63, 80333 München, Germany"}
{"timestamp":"2016-09-29T16:05:00+0200","id":124048,"name":"Wiggerl","coordinate":{"longitude":11.57730007,"latitude":48.15940094},"fuelLevel":0.7200000000000001,"lastAddress":"Römerstraße 10-14, 80801 München, Germany"}
{"timestamp":"2016-09-29T16:05:00+0200","id":124028,"name":"Gitte","coordinate":{"longitude":11.5795002,"latitude":48.15969849},"fuelLevel":0.77,"lastAddress":"Hohenzollernstraße 27, 80801 München, Germany"}
{"timestamp":"2016-09-29T16:05:00+0200","id":124027,"name":"Fanni","coordinate":{"longitude":11.57699966,"latitude":48.15980148},"fuelLevel":0.8099999999999999,"lastAddress":"Römerstraße 17, 80801 München, Germany"}
{"timestamp":"2016-09-29T16:05:00+0200","id":124005,"name":"Georg","coordinate":{"longitude":11.58160019,"latitude":48.15890121},"fuelLevel":0.69,"lastAddress":"Ainmillerstraße 18, 80801 München, Germany"}
{"timestamp":"2016-09-29T16:05:00+0200","id":124001,"name":"Edmund","coordinate":{"longitude":11.57820034,"latitude":48.15779877},"fuelLevel":0.62,"lastAddress":"Franz-Joseph-Straße 33-35, 80801 München, Germany"}
{"timestamp":"2016-09-29T16:05:00+0200","id":124032,"name":"Irmi","coordinate":{"longitude":11.57339954,"latitude":48.16019821},"fuelLevel":0.64,"lastAddress":"Isabellastraße 46, 80796 München, Germany"}
{"timestamp":"2016-09-29T16:05:00+0200","id":124037,"name":"Luise","coordinate":{"longitude":11.56620026,"latitude":48.15810013},"fuelLevel":0.9027777777777778,"lastAddress":"Hiltenspergerstraße 25, 80798 München, Germany"}
{"timestamp":"2016-09-29T16:05:00+0200","id":124017,"name":"Siggi","coordinate":{"longitude":11.5710001,"latitude":48.16070175},"fuelLevel":0.56,"lastAddress":"Hohenzollernstraße 79, 80796 München, Germany"}
{"timestamp":"2016-09-29T16:05:00+0200","id":124029,"name":"Hannah","coordinate":{"longitude":11.51029968,"latitude":48.04539871},"fuelLevel":0.7,"lastAddress":"Gistlstraße 159, 82049 Pullach im Isartal, Germany"}
{"timestamp":"2016-09-29T16:05:00+0200","id":124042,"name":"Tilli","coordinate":{"longitude":11.50949955,"latitude":48.04550171},"fuelLevel":0.77,"lastAddress":"Seitnerstraße 70, 82049 Pullach im Isartal, Germany"}
{"timestamp":"2016-09-29T16:05:00+0200","id":124009,"name":"Ludwig","coordinate":{"longitude":11.5781002,"latitude":48.16439819},"fuelLevel":0.9400000000000001,"lastAddress":"Cherubinistraße 4, 80803 München, Germany"}
{"timestamp":"2016-09-29T16:05:00+0200","id":124007,"name":"Jakob","coordinate":{"longitude":11.5862999,"latitude":48.16410065},"fuelLevel":0.9500000000000001,"lastAddress":"Leopoldstraße 87, 80802 München, Germany"}