{"timestamp":"2016-10-17T06:10:00+0200","id":124041,"name":"Sophie","coordinate":{"longitude":11.57839966,"latitude":48.1534996},"fuelLevel":0.8300000000000001,"lastAddress":"Türkenstraße 93, 80799 München, Germany"}
{"timestamp":"2016-10-17T06:10:00+0200","id":124026,"name":"Eva","coordinate":{"longitude":11.58110046,"latitude":48.14960098},"fuelLevel":0.9199999999999999,"lastAddress":"Ludwigstraße 24, 80539 München, Germany"}
{"timestamp":"2016-10-17T06:10:00+0200","id":124025,"name":"Elli","coordinate":{"longitude":11.57929993,"latitude":48.1556015},"fuelLevel":0.8300000000000001,"lastAddress":"Friedrichstraße 3, 80801 München, Germany"}
{"timestamp":"2016-10-17T06:10:00+0200","id":124044,"name":"Uschi","coordinate":{"longitude":11.57199955,"latitude":48.13169861},"fuelLevel":0.8,"lastAddress":"Müllerstraße 24, 80469 München, Germany"}
{"timestamp":"2016-10-17T06:10:00+0200","id":124040,"name":"Reserl","coordinate":{"longitude":11.57260036,"latitude":48.13169861},"fuelLevel":0.79,"lastAddress":"Müllerstraße 9, 80469 München, Germany"}
{"timestamp":"2016-10-17T06:10:00+0200","id":124021,"name":"Xaver","coordinate":{"longitude":11.58010006,"latitude":48.13019943},"fuelLevel":0.9199999999999999,"lastAddress":"Erhardtstraße 27, 80469 München, Germany"}
{"timestamp":"2016-10-17T06:10:00+0200","id":124014,"name":"Quirin","coordinate":{"longitude":11.59720039,"latitude":48.13539886},"fuelLevel":0.57,"lastAddress":"Max-Planck-Straße 7, 81675 München, Germany"}
{"timestamp":"2016-10-17T06:10:00+0200","id":124034,"name":"Kathi","coordinate":{"longitude":11.60879993,"latitude":48.1330986},"fuelLevel":0.57,"lastAddress":"Kirchenstraße 87, 81675 München, Germany"}
{"timestamp":"2016-10-17T06:10:00+0200","id":124016,"name":"Sepp","coordinate":{"longitude":11.59819984,"latitude":48.12620163},"fuelLevel":0.88,"lastAddress":"Rosenheimer Str. 119, 81667 München, Germany"}
{"timestamp":"2016-10-17T06:10:00+0200","id":124038,"name":"Magda","coordinate":{"longitude":11.60050011,"latitude":48.12760162},"fuelLevel":0.67,"lastAddress":"Gravelottestraße 6, 81667 München, Germany"}
{"timestamp":"2016-10-17T06:10:00+0200","id":124013,"name":"Poldi","coordinate":{"longitude":11.59420013,"latitude":48.12829971},"fuelLevel":0.61,"lastAddress":"Rosenheimer Str. 1, 81669 München, Germany"}
{"timestamp":"2016-10-17T06:10:00+0200","id":124011,"name":"Maxl","coordinate":{"longitude":11.59490013,"latitude":48.12749863},"fuelLevel":0.6699999999999999,"lastAddress":"Balanstraße 9, 81669 München, Germany"}
{"timestamp":"2016-10-17T06:10:00+0200","id":124003,"name":"Franzl","coordinate":{"longitude":11.59300041,"latitude":48.1271019},"fuelLevel":0.8,"lastAddress":"Franziskanerstraße 17, 81669 München, Germany"}
{"timestamp":"2016-10-17T06:10:00+0200","id":124010,"name":"Luitpold","coordinate":{"longitude":11.58749962,"latitude":48.12770081},"fuelLevel":0.87,"lastAddress":"Hochstraße 19, 81669 München, Germany"}
{"timestamp":"2016-10-17T06:10:00+0200","id":124020,"name":"Vinzenz","coordinate":{"longitude":11.57800007,"latitude":48.1228981},"fuelLevel":0.81,"lastAddress":"Entenbachstraße 26, 81541 München, Germany"}
{"timestamp":"2016-10-17T06:10:00+0200","id":124049,"name":"Marei","coordinate":{"longitude":11.57400036,"latitude":48.12210083},"fuelLevel":0.9400000000000001,"lastAddress":"Sommerstraße 13, 81543 München, Germany"}
{"timestamp":"2016-10-17T06:10:00+0200","id":124045,"name":"Vroni","coordinate":{"longitude":11.56509972,"latitude":48.12419891},"fuelLevel":0.64,"lastAddress":"Kapuzinerstraße 37, 80469 München, Germany"}
{"timestamp":"2016-10-17T06:10:00+0200","id":124018,"name":"Toni","coordinate":{"longitude":11.56970024,"latitude":48.12960052},"fuelLevel":0.6499999999999999,"lastAddress":"Hans-Sachs-Straße 14, 80469 München, Germany"}
{"timestamp":"2016-10-17T06:10:00+0200","id":124012,"name":"Peter","coordinate":{"longitude":11.5614996,"latitude":48.15480042},"fuelLevel":0.9600000000000001,"lastAddress":"Schleißheimer Str. 86, 80797 München, Germany"}
{"timestamp":"2016-10-17T06:10:00+0200","id":124004,"name":"Fridl","coordinate":{"longitude":11.55589962,"latitude":48.15510178},"fuelLevel":0.58,"lastAddress":"Lothstraße 64, 80335 München, Germany"}
{"timestamp":"2016-10-17T06:10:00+0200","id":124031,"name":"Heidi","coordinate":{"longitude":11.56639957,"latitude":48.15179825},"fuelLevel":0.63,"lastAddress":"Heßstraße 42-44, 80798 München, Germany"}
{"timestamp":"2016-10-17T06:10:00+0200","id":124047,"name":"Walli","coordinate":{"longitude":11.5703001,"latitude":48.1495018},"fuelLevel":0.71,"lastAddress":"Theresienstraße, 80333 München, Germany"}
{"timestamp":"2016-10-17T06:10:00+0200","id":124048,"name":"Wiggerl","coordinate":{"longitude":11.58040047,"latitude":48.16279984},"fuelLevel":0.67,"lastAddress":"Herzogstraße 40, 80803 München, Germany"}
{"timestamp":"2016-10-17T06:10:00+0200","id":124028,"name":"Gitte","coordinate":{"longitude":11.57559967,"latitude":48.16019821},"fuelLevel":0.7200000000000001,"lastAddress":"Kurfürstenpl. 8, 80796 München, Germany"}
{"timestamp":"2016-10-17T06:10:00+0200","id":124032,"name":"Irmi","coordinate":{"longitude":11.57079983,"latitude":48.16090012},"fuelLevel":0.44,"lastAddress":"Hohenzollernstraße 114, 80796 München, Germany"}
{"timestamp":"2016-10-17T06:10:00+0200","id":124037,"name":"Luise","coordinate":{"longitude":11.57019997,"latitude":48.15739822},"fuelLevel":0.52,"lastAddress":"Agnesstraße 12-14, 80798 München, Germany"}
{"timestamp":"2016-10-17T06:10:00+0200","id":124017,"name":"Siggi","coordinate":{"longitude":11.57250023,"latitude":48.16070175},"fuelLevel":0.56,"lastAddress":"Hohenzollernstraße 102, 80796 München, Germany"}
{"timestamp":"2016-10-17T06:10:00+0200","id":124029,"name":"Hannah","coordinate":{"longitude":11.50949955,"latitude":48.04520035},"fuelLevel":0.59,"lastAddress":"Seitnerstraße 70, 82049 Pullach im Isartal, Germany"}
{"timestamp":"2016-10-17T06:10:00+0200","id":124039,"name":"Marie","coordinate":{"longitude":11.50949955,"latitude":48.04539871},"fuelLevel":0.63,"lastAddress":"Seitnerstraße 70, 82049 Pullach im Isartal, Germany"}
{"timestamp":"2016-10-17T06:10:00+0200","id":124009,"name":"Ludwig","coordinate":{"longitude":11.58370018,"latitude":48.16239929},"fuelLevel":0.6499999999999999,"lastAddress":"Herzogstraße 14, 80803 München, Germany"}