{"timestamp":"2016-11-27T03:30:00+0100","id":124026,"name":"Eva","coordinate":{"longitude":11.58128357,"latitude":48.15229797},"fuelLevel":0.7200000000000001,"lastAddress":"Akademiestraße 3, 80799 München, Germany"}
{"timestamp":"2016-11-27T03:30:00+0100","id":124025,"name":"Elli","coordinate":{"longitude":11.58122253,"latitude":48.15248108},"fuelLevel":0.8200000000000001,"lastAddress":"Akademiestraße 3, 80799 München, Germany"}
{"timestamp":"2016-11-27T03:30:00+0100","id":124033,"name":"Johanna","coordinate":{"longitude":11.57978821,"latitude":48.15270996},"fuelLevel":0.7799999999999999,"lastAddress":"Akademiestraße 11, 80799 München, Germany"}
{"timestamp":"2016-11-27T03:30:00+0100","id":124036,"name":"Liesel","coordinate":{"longitude":11.57859802,"latitude":48.15312195},"fuelLevel":0.5499999999999999,"lastAddress":"Akademiestraße 4, 80799 München, Germany"}
{"timestamp":"2016-11-27T03:30:00+0100","id":124024,"name":"Christl","coordinate":{"longitude":11.57702637,"latitude":48.13282776},"fuelLevel":0.6499999999999999,"lastAddress":"Buttermelcherstraße 4, 80469 München, Germany"}
{"timestamp":"2016-11-27T03:30:00+0100","id":124040,"name":"Reserl","coordinate":{"longitude":11.57479954,"latitude":48.1291008},"fuelLevel":0.83,"lastAddress":"Fraunhoferstraße 31, 80469 München, Germany"}
{"timestamp":"2016-11-27T03:30:00+0100","id":124021,"name":"Xaver","coordinate":{"longitude":11.58200073,"latitude":48.13110352},"fuelLevel":0.77,"lastAddress":"Kohlstraße 11, 80469 München, Germany"}
{"timestamp":"2016-11-27T03:30:00+0100","id":124022,"name":"Anne","coordinate":{"longitude":11.60047913,"latitude":48.12831116},"fuelLevel":0.49,"lastAddress":"Weißenburger Str. 36, 81667 München, Germany"}
{"timestamp":"2016-11-27T03:30:00+0100","id":124000,"name":"Bertl","coordinate":{"longitude":11.59489441,"latitude":48.1309967},"fuelLevel":0.8999999999999999,"lastAddress":"Milchstraße 2, 81667 München, Germany"}
{"timestamp":"2016-11-27T03:30:00+0100","id":124010,"name":"Luitpold","coordinate":{"longitude":11.58770752,"latitude":48.12789917},"fuelLevel":0.87,"lastAddress":"Hochstraße 19, 81669 München, Germany"}
{"timestamp":"2016-11-27T03:30:00+0100","id":124035,"name":"Leonie","coordinate":{"longitude":11.58351135,"latitude":48.12770081},"fuelLevel":0.8800000000000001,"lastAddress":"Zeppelinstraße 39, 81669 München, Germany"}
{"timestamp":"2016-11-27T03:30:00+0100","id":124006,"name":"Gustl","coordinate":{"longitude":11.57600021,"latitude":48.1208992},"fuelLevel":0.86,"lastAddress":"Kolumbusstraße 22, 81543 München, Germany"}
{"timestamp":"2016-11-27T03:30:00+0100","id":124020,"name":"Vinzenz","coordinate":{"longitude":11.57569885,"latitude":48.12312317},"fuelLevel":0.81,"lastAddress":"Schlotthauerstraße 1, 81541 München, Germany"}
{"timestamp":"2016-11-27T03:30:00+0100","id":124049,"name":"Marei","coordinate":{"longitude":11.57762146,"latitude":48.12039185},"fuelLevel":0.8999999999999999,"lastAddress":"Dollmannstraße 4, 81541 München, Germany"}