{"timestamp":"2016-10-19T11:00:00+0200","id":124041,"name":"Sophie","coordinate":{"longitude":11.57830048,"latitude":48.15340042},"fuelLevel":0.8300000000000001,"lastAddress":"Türkenstraße 93, 80799 München, Germany"}
{"timestamp":"2016-10-19T11:00:00+0200","id":124026,"name":"Eva","coordinate":{"longitude":11.58119965,"latitude":48.15010071},"fuelLevel":0.9199999999999999,"lastAddress":"Professor-Huber-Platz 1, 80539 München, Germany"}
{"timestamp":"2016-10-19T11:00:00+0200","id":124025,"name":"Elli","coordinate":{"longitude":11.57919979,"latitude":48.1556015},"fuelLevel":0.8300000000000001,"lastAddress":"Friedrichstraße 3, 80801 München, Germany"}
{"timestamp":"2016-10-19T11:00:00+0200","id":124044,"name":"Uschi","coordinate":{"longitude":11.57199955,"latitude":48.13199997},"fuelLevel":0.8,"lastAddress":"Müllerstraße 24, 80469 München, Germany"}
{"timestamp":"2016-10-19T11:00:00+0200","id":124040,"name":"Reserl","coordinate":{"longitude":11.57269955,"latitude":48.13190079},"fuelLevel":0.79,"lastAddress":"Müllerstraße 7, 80469 München, Germany"}
{"timestamp":"2016-10-19T11:00:00+0200","id":124014,"name":"Quirin","coordinate":{"longitude":11.59729958,"latitude":48.13470078},"fuelLevel":0.57,"lastAddress":"Innere Wiener Straße 59, 81667 München, Germany"}
{"timestamp":"2016-10-19T11:00:00+0200","id":124034,"name":"Kathi","coordinate":{"longitude":11.60879993,"latitude":48.13270187},"fuelLevel":0.57,"lastAddress":"Kirchenstraße 88, 81675 München, Germany"}
{"timestamp":"2016-10-19T11:00:00+0200","id":124016,"name":"Sepp","coordinate":{"longitude":11.59809971,"latitude":48.12599945},"fuelLevel":0.88,"lastAddress":"Rosenheimer Str. 98-133, 81667 München, Germany"}
{"timestamp":"2016-10-19T11:00:00+0200","id":124038,"name":"Magda","coordinate":{"longitude":11.60029984,"latitude":48.12810135},"fuelLevel":0.67,"lastAddress":"Gravelottestraße 1, 81667 München, Germany"}
{"timestamp":"2016-10-19T11:00:00+0200","id":124022,"name":"Anne","coordinate":{"longitude":11.50599957,"latitude":48.09140015},"fuelLevel":0.7999999999999999,"lastAddress":"Meglingerstraße 40, 81477 München, Germany"}
{"timestamp":"2016-10-19T11:00:00+0200","id":124013,"name":"Poldi","coordinate":{"longitude":11.59379959,"latitude":48.12799835},"fuelLevel":0.61,"lastAddress":"Franziskanerstraße 5, 81669 München, Germany"}
{"timestamp":"2016-10-19T11:00:00+0200","id":124011,"name":"Maxl","coordinate":{"longitude":11.59490013,"latitude":48.12789917},"fuelLevel":0.6699999999999999,"lastAddress":"Metzstraße 1, 81667 München, Germany"}
{"timestamp":"2016-10-19T11:00:00+0200","id":124003,"name":"Franzl","coordinate":{"longitude":11.59350014,"latitude":48.12720108},"fuelLevel":0.7799999999999999,"lastAddress":"Rablstraße 39, 81669 München, Germany"}
{"timestamp":"2016-10-19T11:00:00+0200","id":124010,"name":"Luitpold","coordinate":{"longitude":11.58720016,"latitude":48.12739944},"fuelLevel":0.87,"lastAddress":"Hochstraße 19C, 81669 München, Germany"}
{"timestamp":"2016-10-19T11:00:00+0200","id":124019,"name":"Valentin","coordinate":{"longitude":11.50570011,"latitude":48.09090042},"fuelLevel":0.8680555555555556,"lastAddress":"Meglingerstraße 30-32, 81477 München, Germany"}
{"timestamp":"2016-10-19T11:00:00+0200","id":124020,"name":"Vinzenz","coordinate":{"longitude":11.57839966,"latitude":48.12630081},"fuelLevel":0.75,"lastAddress":"Ohlmüllerstraße 1, 81541 München, Germany"}
{"timestamp":"2016-10-19T11:00:00+0200","id":124049,"name":"Marei","coordinate":{"longitude":11.57400036,"latitude":48.12250137},"fuelLevel":0.9400000000000001,"lastAddress":"Eduard-Schmid-Straße 34, 81541 München, Germany"}
{"timestamp":"2016-10-19T11:00:00+0200","id":124045,"name":"Vroni","coordinate":{"longitude":11.56499958,"latitude":48.12409973},"fuelLevel":0.64,"lastAddress":"Kapuzinerstraße 37, 80469 München, Germany"}
{"timestamp":"2016-10-19T11:00:00+0200","id":124018,"name":"Toni","coordinate":{"longitude":11.56980038,"latitude":48.12939835},"fuelLevel":0.6499999999999999,"lastAddress":"Hans-Sachs-Straße 11-13, 80469 München, Germany"}
{"timestamp":"2016-10-19T11:00:00+0200","id":124012,"name":"Peter","coordinate":{"longitude":11.56060028,"latitude":48.1548996},"fuelLevel":0.9600000000000001,"lastAddress":"Schellingstraße 132, 80797 München, Germany"}
{"timestamp":"2016-10-19T11:00:00+0200","id":124031,"name":"Heidi","coordinate":{"longitude":11.5635004,"latitude":48.14979935},"fuelLevel":0.62,"lastAddress":"Augustenstraße 72, 80333 München, Germany"}
{"timestamp":"2016-10-19T11:00:00+0200","id":124047,"name":"Walli","coordinate":{"longitude":11.57199955,"latitude":48.1495018},"fuelLevel":0.6499999999999999,"lastAddress":"Barer Str. 29, 80799 München, Germany"}
{"timestamp":"2016-10-19T11:00:00+0200","id":124048,"name":"Wiggerl","coordinate":{"longitude":11.58080006,"latitude":48.16109848},"fuelLevel":0.67,"lastAddress":"Kaiserstraße 33, 80801 München, Germany"}
{"timestamp":"2016-10-19T11:00:00+0200","id":124028,"name":"Gitte","coordinate":{"longitude":11.57559967,"latitude":48.15999985},"fuelLevel":0.7200000000000001,"lastAddress":"Kurfürstenpl. 6, 80796 München, Germany"}
{"timestamp":"2016-10-19T11:00:00+0200","id":124032,"name":"Irmi","coordinate":{"longitude":11.57069969,"latitude":48.15890121},"fuelLevel":0.9400000000000001,"lastAddress":"Jakob-Klar-Straße 4, 80796 München, Germany"}
{"timestamp":"2016-10-19T11:00:00+0200","id":124017,"name":"Siggi","coordinate":{"longitude":11.57250023,"latitude":48.16049957},"fuelLevel":0.56,"lastAddress":"Hohenzollernstraße 67, 80796 München, Germany"}
{"timestamp":"2016-10-19T11:00:00+0200","id":124029,"name":"Hannah","coordinate":{"longitude":11.51010036,"latitude":48.04539871},"fuelLevel":0.59,"lastAddress":"Gistlstraße 159, 82049 Pullach im Isartal, Germany"}
{"timestamp":"2016-10-19T11:00:00+0200","id":124009,"name":"Ludwig","coordinate":{"longitude":11.58640003,"latitude":48.16500092},"fuelLevel":0.59,"lastAddress":"Leopoldstraße 102, 80802 München, Germany"}
{"timestamp":"2016-10-19T11:00:00+0200","id":124007,"name":"Jakob","coordinate":{"longitude":11.57450008,"latitude":48.16740036},"fuelLevel":0.9500000000000001,"lastAddress":"Karl-Theodor-Straße 82, 80803 München, Germany"}