{"timestamp":"2016-10-16T22:00:00+0200","id":124041,"name":"Sophie","coordinate":{"longitude":11.57859993,"latitude":48.15340042},"fuelLevel":0.8300000000000001,"lastAddress":"Türkenstraße 93, 80799 München, Germany"}
{"timestamp":"2016-10-16T22:00:00+0200","id":124026,"name":"Eva","coordinate":{"longitude":11.58100033,"latitude":48.14979935},"fuelLevel":0.9199999999999999,"lastAddress":"Ludwigstraße 24, 80539 München, Germany"}
{"timestamp":"2016-10-16T22:00:00+0200","id":124025,"name":"Elli","coordinate":{"longitude":11.5795002,"latitude":48.1556015},"fuelLevel":0.8300000000000001,"lastAddress":"Friedrichstraße 3, 80801 München, Germany"}
{"timestamp":"2016-10-16T22:00:00+0200","id":124044,"name":"Uschi","coordinate":{"longitude":11.57209969,"latitude":48.13150024},"fuelLevel":0.8,"lastAddress":"Müllerstraße 15, 80469 München, Germany"}
{"timestamp":"2016-10-16T22:00:00+0200","id":124040,"name":"Reserl","coordinate":{"longitude":11.57279968,"latitude":48.13190079},"fuelLevel":0.79,"lastAddress":"Müllerstraße 7, 80469 München, Germany"}
{"timestamp":"2016-10-16T22:00:00+0200","id":124021,"name":"Xaver","coordinate":{"longitude":11.58049965,"latitude":48.13010025},"fuelLevel":0.9199999999999999,"lastAddress":"Erhardtstraße 27, 80469 München, Germany"}
{"timestamp":"2016-10-16T22:00:00+0200","id":124014,"name":"Quirin","coordinate":{"longitude":11.59710026,"latitude":48.13529968},"fuelLevel":0.57,"lastAddress":"An der Kreppe 5, 81667 München, Germany"}
{"timestamp":"2016-10-16T22:00:00+0200","id":124034,"name":"Kathi","coordinate":{"longitude":11.60900021,"latitude":48.13290024},"fuelLevel":0.57,"lastAddress":"Kirchenstraße 89, 81675 München, Germany"}
{"timestamp":"2016-10-16T22:00:00+0200","id":124016,"name":"Sepp","coordinate":{"longitude":11.59780025,"latitude":48.12599945},"fuelLevel":0.88,"lastAddress":"Rosenheimer Str. 96, 81669 München, Germany"}
{"timestamp":"2016-10-16T22:00:00+0200","id":124038,"name":"Magda","coordinate":{"longitude":11.6001997,"latitude":48.12829971},"fuelLevel":0.67,"lastAddress":"Pariser Pl., 81667 München, Germany"}
{"timestamp":"2016-10-16T22:00:00+0200","id":124013,"name":"Poldi","coordinate":{"longitude":11.59440041,"latitude":48.12779999},"fuelLevel":0.61,"lastAddress":"Balanstraße 4, 81669 München, Germany"}
{"timestamp":"2016-10-16T22:00:00+0200","id":124011,"name":"Maxl","coordinate":{"longitude":11.59490013,"latitude":48.12749863},"fuelLevel":0.6699999999999999,"lastAddress":"Balanstraße 9, 81669 München, Germany"}
{"timestamp":"2016-10-16T22:00:00+0200","id":124003,"name":"Franzl","coordinate":{"longitude":11.59350014,"latitude":48.12730026},"fuelLevel":0.8,"lastAddress":"Franziskanerstraße 15, 81669 München, Germany"}
{"timestamp":"2016-10-16T22:00:00+0200","id":124010,"name":"Luitpold","coordinate":{"longitude":11.58769989,"latitude":48.12770081},"fuelLevel":0.87,"lastAddress":"Hochstraße 19, 81669 München, Germany"}
{"timestamp":"2016-10-16T22:00:00+0200","id":124020,"name":"Vinzenz","coordinate":{"longitude":11.57769966,"latitude":48.1230011},"fuelLevel":0.81,"lastAddress":"Schlotthauerstraße 14A, 81541 München, Germany"}
{"timestamp":"2016-10-16T22:00:00+0200","id":124049,"name":"Marei","coordinate":{"longitude":11.57409954,"latitude":48.12250137},"fuelLevel":0.9400000000000001,"lastAddress":"Eduard-Schmid-Straße 34, 81541 München, Germany"}
{"timestamp":"2016-10-16T22:00:00+0200","id":124045,"name":"Vroni","coordinate":{"longitude":11.56480026,"latitude":48.12379837},"fuelLevel":0.64,"lastAddress":"Kapuzinerstraße 44, 80469 München, Germany"}
{"timestamp":"2016-10-16T22:00:00+0200","id":124018,"name":"Toni","coordinate":{"longitude":11.56999969,"latitude":48.12950134},"fuelLevel":0.6499999999999999,"lastAddress":"Hans-Sachs-Straße 11, 80469 München, Germany"}
{"timestamp":"2016-10-16T22:00:00+0200","id":124012,"name":"Peter","coordinate":{"longitude":11.56130028,"latitude":48.15480042},"fuelLevel":0.9600000000000001,"lastAddress":"Schleißheimer Str. 51, 80797 München, Germany"}
{"timestamp":"2016-10-16T22:00:00+0200","id":124004,"name":"Fridl","coordinate":{"longitude":11.5557003,"latitude":48.15539932},"fuelLevel":0.58,"lastAddress":"Lothstraße 34, 80335 München, Germany"}
{"timestamp":"2016-10-16T22:00:00+0200","id":124031,"name":"Heidi","coordinate":{"longitude":11.56680012,"latitude":48.1515007},"fuelLevel":0.63,"lastAddress":"Heßstraße 21, 80798 München, Germany"}
{"timestamp":"2016-10-16T22:00:00+0200","id":124047,"name":"Walli","coordinate":{"longitude":11.57040024,"latitude":48.1493988},"fuelLevel":0.71,"lastAddress":"Theresienstraße, 80333 München, Germany"}
{"timestamp":"2016-10-16T22:00:00+0200","id":124048,"name":"Wiggerl","coordinate":{"longitude":11.58080006,"latitude":48.16289902},"fuelLevel":0.67,"lastAddress":"Herzogstraße 36, 80803 München, Germany"}
{"timestamp":"2016-10-16T22:00:00+0200","id":124028,"name":"Gitte","coordinate":{"longitude":11.57520008,"latitude":48.16080093},"fuelLevel":0.7200000000000001,"lastAddress":"Belgradstraße 4, 80796 München, Germany"}
{"timestamp":"2016-10-16T22:00:00+0200","id":124032,"name":"Irmi","coordinate":{"longitude":11.57089996,"latitude":48.16120148},"fuelLevel":0.44,"lastAddress":"Emanuelstraße 17, 80796 München, Germany"}
{"timestamp":"2016-10-16T22:00:00+0200","id":124037,"name":"Luise","coordinate":{"longitude":11.57009983,"latitude":48.15750122},"fuelLevel":0.52,"lastAddress":"Agnesstraße 16, 80798 München, Germany"}
{"timestamp":"2016-10-16T22:00:00+0200","id":124017,"name":"Siggi","coordinate":{"longitude":11.57269955,"latitude":48.16040039},"fuelLevel":0.56,"lastAddress":"Hohenzollernstraße 65, 80796 München, Germany"}
{"timestamp":"2016-10-16T22:00:00+0200","id":124029,"name":"Hannah","coordinate":{"longitude":11.50990009,"latitude":48.04560089},"fuelLevel":0.59,"lastAddress":"Gistlstraße 159, 82049 Pullach im Isartal, Germany"}
{"timestamp":"2016-10-16T22:00:00+0200","id":124039,"name":"Marie","coordinate":{"longitude":11.50949955,"latitude":48.04550171},"fuelLevel":0.63,"lastAddress":"Seitnerstraße 70, 82049 Pullach im Isartal, Germany"}
{"timestamp":"2016-10-16T22:00:00+0200","id":124009,"name":"Ludwig","coordinate":{"longitude":11.58419991,"latitude":48.16210175},"fuelLevel":0.6499999999999999,"lastAddress":"Herzogstraße 9, 80803 München, Germany"}