{"availableVehicles":[{"id":124041,"name":"Sophie","longitude":11.57769966,"latitude":48.14979935,"fuelLevel":0.93,"lastAddress":"Schellingstraße 16, 80799 München, Germany"},{"id":124026,"name":"Eva","longitude":11.57559967,"latitude":48.15670013,"fuelLevel":0.6000000000000001,"lastAddress":"Kurfürstenstraße 37, 80801 München, Germany"},{"id":124025,"name":"Elli","longitude":11.57800007,"latitude":48.1529007,"fuelLevel":0.85,"lastAddress":"Türkenstraße 98, 80799 München, Germany"},{"id":124033,"name":"Johanna","longitude":11.58110046,"latitude":48.15629959,"fuelLevel":0.8999999999999999,"lastAddress":"Friedrichstraße 13, 80801 München, Germany"},{"id":124036,"name":"Liesel","longitude":11.57530022,"latitude":48.15629959,"fuelLevel":0.6699999999999999,"lastAddress":"Nordendstraße 36, 80801 München, Germany"},{"id":124044,"name":"Uschi","longitude":11.57530022,"latitude":48.13050079,"fuelLevel":0.51,"lastAddress":"Reichenbachstraße 20, 80469 München, Germany"},{"id":124024,"name":"Christl","longitude":11.58049965,"latitude":48.13199997,"fuelLevel":0.83,"lastAddress":"Kohlstraße 3, 80469 München, Germany"},{"id":124021,"name":"Xaver","longitude":11.58059978,"latitude":48.13209915,"fuelLevel":0.52,"lastAddress":"Baaderstraße 2, 80469 München, Germany"},{"id":124014,"name":"Quirin","longitude":11.60340023,"latitude":48.1332016,"fuelLevel":0.63,"lastAddress":"Kirchenstraße 40, 81675 München, Germany"},{"id":124034,"name":"Kathi","longitude":11.60470009,"latitude":48.13230133,"fuelLevel":0.67,"lastAddress":"Elsässer Str. 6, 81667 München, Germany"},{"id":124030,"name":"Hedwig","longitude":11.56289959,"latitude":48.12659836,"fuelLevel":0.9099999999999999,"lastAddress":"Thalkirchner Str. 68, 80337 München, Germany"},{"id":124023,"name":"Babsi","longitude":11.56369972,"latitude":48.12680054,"fuelLevel":0.93,"lastAddress":"Thalkirchner Str. 54, 80337 München, Germany"},{"id":124016,"name":"Sepp","longitude":11.59850025,"latitude":48.12599945,"fuelLevel":0.9199999999999999,"lastAddress":"Rosenheimer Str. 123, 81667 München, Germany"},{"id":124038,"name":"Magda","longitude":11.6001997,"latitude":48.12810135,"fuelLevel":0.76,"lastAddress":"Gravelottestraße 1, 81667 München, Germany"},{"id":124022,"name":"Anne","longitude":11.59679985,"latitude":48.12689972,"fuelLevel":0.8900000000000001,"lastAddress":"Rosenheimer Str. 105, 81667 München, Germany"},{"id":124000,"name":"Bertl","longitude":11.5948,"latitude":48.12960052,"fuelLevel":0.8500000000000001,"lastAddress":"Steinstraße 68, 81667 München, Germany"},{"id":124013,"name":"Poldi","longitude":11.5941,"latitude":48.12730026,"fuelLevel":0.83,"lastAddress":"Balanstraße 10, 81669 München, Germany"},{"id":124011,"name":"Maxl","longitude":11.59259987,"latitude":48.12609863,"fuelLevel":0.8099999999999999,"lastAddress":"Sieboldstraße 2, 81669 München, Germany"},{"id":124003,"name":"Franzl","longitude":11.58950043,"latitude":48.125,"fuelLevel":0.88,"lastAddress":"Franziskanerstraße 47, 81669 München, Germany"},{"id":124010,"name":"Luitpold","longitude":11.58600044,"latitude":48.12580109,"fuelLevel":0.88,"lastAddress":"Gebsattelstraße 2, 81541 München, Germany"},{"id":124019,"name":"Valentin","longitude":11.5848999,"latitude":48.12350082,"fuelLevel":0.9199999999999999,"lastAddress":"Hochstraße 49C, 81541 München, Germany"},{"id":124006,"name":"Gustl","longitude":11.57740021,"latitude":48.12080002,"fuelLevel":0.93,"lastAddress":"Falkenstraße 46, 81541 München, Germany"},{"id":124020,"name":"Vinzenz","longitude":11.57970047,"latitude":48.12310028,"fuelLevel":0.9299999999999999,"lastAddress":"Albanistraße 19, 81541 München, Germany"},{"id":124049,"name":"Marei","longitude":11.57400036,"latitude":48.12020111,"fuelLevel":0.7200000000000001,"lastAddress":"Oefelestraße 12, 81543 München, Germany"},{"id":124043,"name":"Traudl","longitude":11.57460022,"latitude":48.12810135,"fuelLevel":0.71,"lastAddress":"Baaderstraße 84, 80469 München, Germany"},{"id":124018,"name":"Toni","longitude":11.56919956,"latitude":48.12649918,"fuelLevel":0.9500000000000001,"lastAddress":"Baumstraße 18, 80469 München, Germany"},{"id":124004,"name":"Fridl","longitude":11.55930042,"latitude":48.15520096,"fuelLevel":0.82,"lastAddress":"Schellingstraße 153, 80797 München, Germany"},{"id":124031,"name":"Heidi","longitude":11.56649971,"latitude":48.14830017,"fuelLevel":0.8500000000000001,"lastAddress":"Technische Universität München, Arcisstraße 21, 80333 München, Germany"},{"id":124002,"name":"Ferdl","longitude":11.56639957,"latitude":48.15390015,"fuelLevel":0.6499999999999999,"lastAddress":"Zieblandstraße 20, 80798 München, Germany"},{"id":124048,"name":"Wiggerl","longitude":11.57759953,"latitude":48.1590004,"fuelLevel":0.7200000000000001,"lastAddress":"Ainmillerstraße 33, 80801 München, Germany"},{"id":124028,"name":"Gitte","longitude":11.5802002,"latitude":48.15819931,"fuelLevel":0.81,"lastAddress":"Habsburgerpl. 2, 80801 München, Germany"},{"id":124027,"name":"Fanni","longitude":11.57730007,"latitude":48.1590004,"fuelLevel":0.85,"lastAddress":"Ainmillerstraße 33, 80801 München, Germany"},{"id":124032,"name":"Irmi","longitude":11.57320023,"latitude":48.16019821,"fuelLevel":0.64,"lastAddress":"Isabellastraße 44, 80796 München, Germany"},{"id":124017,"name":"Siggi","longitude":11.56750011,"latitude":48.16120148,"fuelLevel":0.6000000000000001,"lastAddress":"Hohenzollernstraße 128, 80796 München, Germany"},{"id":124029,"name":"Hannah","longitude":11.51029968,"latitude":48.04539871,"fuelLevel":0.7,"lastAddress":"Gistlstraße 159, 82049 Pullach im Isartal, Germany"},{"id":124042,"name":"Tilli","longitude":11.5078001,"latitude":48.04460144,"fuelLevel":0.84,"lastAddress":"Dr.-Carl-von-Linde-Straße 8, 82049 Pullach im Isartal, Germany"},{"id":124009,"name":"Ludwig","longitude":11.57800007,"latitude":48.1637001,"fuelLevel":0.9400000000000001,"lastAddress":"Clemensstraße 51, 80803 München, Germany"},{"id":124007,"name":"Jakob","longitude":11.58670044,"latitude":48.16379929,"fuelLevel":0.33,"lastAddress":"Leopoldstraße 85, 80802 München, Germany"}]}